{
  "version": 0.6,
  "generator": "Overpass API 0.7.62.8 e802775f",
  "osm3s": {
    "timestamp_osm_base": "2025-10-15T12:24:15Z",
    "timestamp_areas_base": "2025-10-15T04:02:15Z",
    "copyright": "The data included in this document is from www.openstreetmap.org. The data is made available under ODbL."
  },
  "elements": [
    {
      "type": "node",
      "id": 1409749752,
      "lat": 34.4914218,
      "lon": 136.7130177,
      "tags": {
        "name": "ぎゅーとら",
        "name:en": "Gyutora",
        "opening_hours": "Mo-Su 09:00-21:00",
        "shop": "supermarket"
      }
    },
    {
      "type": "node",
      "id": 1540853070,
      "lat": 35.0522769,
      "lon": 136.690161,
      "tags": {
        "name": "１号館",
        "shop": "supermarket"
      }
    },
    {
      "type": "node",
      "id": 1668223372,
      "lat": 34.9686294,
      "lon": 136.616574,
      "tags": {
        "name": "アピタ 四日市店",
        "shop": "supermarket"
      }
    },
    {
      "type": "node",
      "id": 1799093309,
      "lat": 34.7304631,
      "lon": 136.519892,
      "tags": {
        "name": "ベーシック 島崎店",
        "opening_hours": "09:00-21:00",
        "shop": "supermarket"
      }
    },
    {
      "type": "node",
      "id": 1815416754,
      "lat": 34.4919026,
      "lon": 136.7310381,
      "tags": {
        "brand": "ザ・ビッグ エクスプレス",
        "brand:en": "THE BIG Express",
        "brand:ja": "ザ・ビッグ エクスプレス",
        "brand:wikidata": "Q11306676",
        "name": "ザ・ビッグ エクスプレス",
        "name:en": "THE BIG Express",
        "name:ja": "ザ・ビッグ エクスプレス",
        "shop": "supermarket"
      }
    },
    {
      "type": "node",
      "id": 1878712068,
      "lat": 34.4782293,
      "lon": 136.7311613,
      "tags": {
        "brand": "イオン",
        "brand:en": "AEON",
        "brand:ja": "イオン",
        "brand:wikidata": "Q11285951",
        "brand:wikipedia": "ja:イオン (店舗ブランド)",
        "name": "イオン",
        "name:en": "AEON",
        "name:ja": "イオン",
        "name:ja_rm": "Ion",
        "shop": "supermarket",
        "source": "Bing 2010"
      }
    },
    {
      "type": "node",
      "id": 1912821556,
      "lat": 34.5813173,
      "lon": 136.6151905,
      "tags": {
        "addr:city": "多気郡",
        "addr:country": "JP",
        "addr:neighbourhood": "1223",
        "addr:postcode": "515-0348",
        "addr:province": "三重県",
        "addr:quarter": "明和町中村",
        "branch": "明和",
        "branch:en": "Meiwa",
        "level": "1",
        "name": "イオン",
        "name:en": "AEON",
        "name:ja": "イオン",
        "name:ja_rm": "Ion",
        "shop": "supermarket"
      }
    },
    {
      "type": "node",
      "id": 1914672936,
      "lat": 34.5236426,
      "lon": 136.6236775,
      "tags": {
        "addr:full": "三重県多気郡明和町大字有爾中206-1",
        "addr:postcode": "515-0316",
        "branch": "ラブリー明和店",
        "brand": "ラブリー",
        "name": "ぎゅーとらラブリー明和店",
        "name:en": "Gyutora",
        "name:ja": "ぎゅーとら",
        "name:ja_rm": "Gutora",
        "opening_hours": "Mo-Su 09:00-22:00",
        "operator": "ぎゅーとら",
        "phone": "0596-53-1170",
        "shop": "supermarket",
        "website": "https://www.gyutora.com/",
        "wikidata": "Q11265286",
        "wikipedia": "ja:ぎゅーとら"
      }
    },
    {
      "type": "node",
      "id": 1921318775,
      "lat": 34.7882112,
      "lon": 136.5452537,
      "tags": {
        "name": "BIG EXTRA",
        "shop": "supermarket",
        "source": "image;Bing,2009-06-06"
      }
    },
    {
      "type": "node",
      "id": 2019025186,
      "lat": 34.5113969,
      "lon": 136.6716471,
      "tags": {
        "name": "生鮮市場ベリー",
        "shop": "supermarket",
        "source": "Bing 2010"
      }
    },
    {
      "type": "node",
      "id": 2019315002,
      "lat": 34.5142063,
      "lon": 136.7256057,
      "tags": {
        "name": "プライスカット",
        "name:en": "Price Cut",
        "shop": "supermarket",
        "source": "Bing 2010"
      }
    },
    {
      "type": "node",
      "id": 2020246462,
      "lat": 34.4938217,
      "lon": 136.6740617,
      "tags": {
        "addr:full": "三重県伊勢市小俣町宮前296-1",
        "branch": "小俣店",
        "brand": "ザ・ビッグ エクスプレス",
        "brand:en": "THE BIG Express",
        "brand:ja": "ザ・ビッグ エクスプレス",
        "brand:wikidata": "Q11306676",
        "name": "ザ・ビッグ エクスプレス",
        "name:en": "THE BIG Express",
        "name:ja": "ザ・ビッグ エクスプレス",
        "shop": "supermarket"
      }
    },
    {
      "type": "node",
      "id": 2098114898,
      "lat": 33.8032305,
      "lon": 136.0429922,
      "tags": {
        "name": "オークワ",
        "shop": "supermarket"
      }
    },
    {
      "type": "node",
      "id": 2419735827,
      "lat": 35.0116324,
      "lon": 136.5171953,
      "tags": {
        "name": "一号館",
        "shop": "supermarket"
      }
    },
    {
      "type": "node",
      "id": 3198755488,
      "lat": 34.4795645,
      "lon": 136.7065945,
      "tags": {
        "addr:full": "伊勢市藤里町字壱町ノ坪628-1",
        "branch": "ラブリー藤里店",
        "brand": "ラブリー",
        "name": "ぎゅーとら",
        "name:en": "Lovely Shopping Plaza",
        "name:ja": "ぎゅーとら",
        "name:ja_rm": "Gutora",
        "opening_hours": "Mo-Su 09:00-21:45",
        "operator": "ぎゅーとら",
        "phone": "0596-25-3699",
        "shop": "supermarket",
        "source": "(URL)"
      }
    },
    {
      "type": "node",
      "id": 3678939004,
      "lat": 34.3270564,
      "lon": 136.8394577,
      "tags": {
        "name": "プロマーケット",
        "shop": "supermarket"
      }
    },
    {
      "type": "node",
      "id": 3693548912,
      "lat": 34.326699,
      "lon": 136.8116505,
      "tags": {
        "branch": "鵜方店",
        "brand": "マックスバリュ",
        "brand:en": "MaxValu",
        "brand:ja": "マックスバリュ",
        "brand:wikidata": "Q11340427",
        "brand:wikipedia": "en:MaxValu",
        "name": "マックスバリュ",
        "name:en": "MaxValu",
        "name:ja": "マックスバリュ",
        "name:ja_kana": "まっくすばりゅ",
        "name:ja_rm": "Makkusubaryu",
        "shop": "supermarket"
      }
    },
    {
      "type": "node",
      "id": 3695136602,
      "lat": 34.3234974,
      "lon": 136.8284939,
      "tags": {
        "branch": "阿児店",
        "brand": "イオン",
        "brand:en": "AEON",
        "brand:ja": "イオン",
        "brand:wikidata": "Q11285951",
        "brand:wikipedia": "ja:イオン (店舗ブランド)",
        "name": "イオン",
        "name:en": "AEON",
        "name:ja": "イオン",
        "shop": "supermarket"
      }
    },
    {
      "type": "node",
      "id": 3763357360,
      "lat": 34.6794378,
      "lon": 136.5014397,
      "tags": {
        "name": "イオンタウン津城山",
        "name:en": "AEONTOWN　Tsusiroyama",
        "shop": "supermarket",
        "wikidata": "Q17192798"
      }
    },
    {
      "type": "node",
      "id": 3764745517,
      "lat": 34.7356999,
      "lon": 136.4914155,
      "tags": {
        "name": "ぎゅーとら",
        "shop": "supermarket"
      }
    },
    {
      "type": "node",
      "id": 3768679983,
      "lat": 34.716955,
      "lon": 136.4500843,
      "tags": {
        "name": "ミニストップ",
        "name:ko": "미니스톱",
        "shop": "supermarket"
      }
    },
    {
      "type": "node",
      "id": 3939112135,
      "lat": 35.0712835,
      "lon": 136.6811378,
      "tags": {
        "addr:city": "桑名市",
        "addr:full": "三重県桑名市大字東方字中折399-4",
        "name": "1号館",
        "shop": "supermarket"
      }
    },
    {
      "type": "node",
      "id": 4019279589,
      "lat": 34.8677615,
      "lon": 136.5885342,
      "tags": {
        "addr:city": "鈴鹿市",
        "addr:housenumber": "801",
        "addr:province": "三重県",
        "addr:quarter": "北玉垣町",
        "branch": "鈴鹿店",
        "brand": "マックスバリュ",
        "brand:en": "MaxValu",
        "brand:ja": "マックスバリュ",
        "brand:wikidata": "Q11340427",
        "name": "マックスバリュ",
        "name:en": "MaxValu",
        "name:ja": "マックスバリュ",
        "opening_hours": "07:00-23:00",
        "operator": "マックスバリュ東海",
        "shop": "supermarket",
        "website": "https://www.mv-tokai.co.jp/store/331/"
      }
    },
    {
      "type": "node",
      "id": 4060675975,
      "lat": 34.8756495,
      "lon": 136.572998,
      "tags": {
        "addr:block_number": "378-1",
        "addr:city": "Suzuka-shi",
        "addr:postcode": "513-0000",
        "addr:province": "Mie-ken",
        "addr:quarter": "Kanbejishimachi",
        "brand": "Mercado Super Mart",
        "name": "SUPER MART SUZUKA",
        "name:pt": "SUPER MART SUZUKA",
        "opening_hours": "Mo-Su 09:00-21:00",
        "phone": "0593244390",
        "shop": "supermarket"
      }
    },
    {
      "type": "node",
      "id": 4060700282,
      "lat": 34.8830761,
      "lon": 136.5803989,
      "tags": {
        "name": "スーパー名門神戸店",
        "shop": "supermarket"
      }
    },
    {
      "type": "node",
      "id": 4162444506,
      "lat": 34.3467834,
      "lon": 136.6893223,
      "tags": {
        "name": "ぎゅーとら　五ヶ所店",
        "shop": "supermarket"
      }
    },
    {
      "type": "node",
      "id": 4162444520,
      "lat": 34.3498737,
      "lon": 136.7023458,
      "tags": {
        "name": "主婦の店アルファ　南勢店",
        "shop": "supermarket"
      }
    },
    {
      "type": "node",
      "id": 4348116493,
      "lat": 34.971029,
      "lon": 136.5872948,
      "tags": {
        "brand": "業務スーパー",
        "brand:en": "Gyomu Super",
        "brand:ja": "業務スーパー",
        "brand:ja-Latn": "Gyōmu sūpā",
        "brand:wikidata": "Q11590183",
        "brand:wikipedia": "ja:神戸物産",
        "name": "業務スーパー",
        "name:en": "Gyomu Super",
        "name:ja": "業務スーパー",
        "name:ja-Latn": "Gyōmu sūpā",
        "shop": "supermarket"
      }
    },
    {
      "type": "node",
      "id": 4427261245,
      "lat": 34.8771272,
      "lon": 136.5843436,
      "tags": {
        "name": "ぎゅーとら 鈴鹿エース店",
        "name:en": "Gyutora",
        "shop": "supermarket"
      }
    },
    {
      "type": "node",
      "id": 4449977892,
      "lat": 34.8212083,
      "lon": 136.2087087,
      "tags": {
        "addr:housenumber": "三重県伊賀市新堂214-1",
        "addr:postcode": "519-1416",
        "addr:street": "国道２５号",
        "name": "オークワ伊賀新堂店",
        "name:en": "Okuwa Iga Shindo",
        "opening_hours": "Mo-Su 07:00-00:00",
        "phone": "0595-45-7733",
        "shop": "supermarket",
        "website": "http://www.okuwa.net/store/mie/339.html"
      }
    },
    {
      "type": "node",
      "id": 4513055704,
      "lat": 34.5873216,
      "lon": 136.5871188,
      "tags": {
        "name": "Aコープくろべ店",
        "name:en": "ACOOP",
        "shop": "supermarket"
      }
    },
    {
      "type": "node",
      "id": 4533339241,
      "lat": 34.4644362,
      "lon": 136.8400527,
      "tags": {
        "brand:wikidata": "Q11265286",
        "name": "ぎゅーとら鳥羽店",
        "name:en": "Gyutora",
        "shop": "supermarket"
      }
    },
    {
      "type": "node",
      "id": 4556960504,
      "lat": 34.8789939,
      "lon": 136.5501446,
      "tags": {
        "name": "マックスバリュ岡田店",
        "name:en": "MaxvaluOkada",
        "shop": "supermarket"
      }
    },
    {
      "type": "node",
      "id": 4585068035,
      "lat": 34.5550492,
      "lon": 136.5114738,
      "tags": {
        "addr:city": "三重県松阪市田村町",
        "addr:postcode": "515-0055",
        "addr:street": "松阪嬉野線",
        "name": "オークワ松阪田村店",
        "opening_hours": "9:00-23:00",
        "shop": "supermarket"
      }
    },
    {
      "type": "node",
      "id": 4709344889,
      "lat": 34.2976491,
      "lon": 136.7526548,
      "tags": {
        "addr:street": "浜島阿児線",
        "name": "サンパール",
        "name:ja": "サンパール",
        "shop": "supermarket"
      }
    },
    {
      "type": "node",
      "id": 5151800212,
      "lat": 35.0000073,
      "lon": 136.6009664,
      "tags": {
        "name": "一号館 坂部店",
        "shop": "supermarket"
      }
    },
    {
      "type": "node",
      "id": 5261628939,
      "lat": 35.0112144,
      "lon": 136.629208,
      "tags": {
        "name": "スーパーサンシ 大矢知店",
        "shop": "supermarket"
      }
    },
    {
      "type": "node",
      "id": 5287401597,
      "lat": 34.7158874,
      "lon": 136.4994974,
      "tags": {
        "name": "ぎゅーとらTRY mart.津新町店",
        "phone": "+81 59 213 7715",
        "shop": "supermarket"
      }
    },
    {
      "type": "node",
      "id": 5301779594,
      "lat": 34.5623612,
      "lon": 136.5247479,
      "tags": {
        "name": "マックスバリュ",
        "shop": "supermarket"
      }
    },
    {
      "type": "node",
      "id": 5350616823,
      "lat": 34.9857776,
      "lon": 136.6282604,
      "tags": {
        "brand": "ピアゴ",
        "brand:en": "PIAGO",
        "brand:ja": "ピアゴ",
        "brand:wikidata": "Q91014434",
        "name": "ピアゴ",
        "name:en": "PIAGO",
        "name:ja": "ピアゴ",
        "shop": "supermarket"
      }
    },
    {
      "type": "node",
      "id": 5678913193,
      "lat": 35.0576637,
      "lon": 136.6661601,
      "tags": {
        "name": "一号館 西別所店",
        "shop": "supermarket"
      }
    },
    {
      "type": "node",
      "id": 5678926026,
      "lat": 35.0684123,
      "lon": 136.6263894,
      "tags": {
        "branch": "桑名店",
        "brand": "ロピア",
        "brand:en": "Lopia",
        "brand:ja": "ロピア",
        "brand:wikidata": "Q11350624",
        "name": "ロピア",
        "name:en": "Lopia",
        "name:ja": "ロピア",
        "shop": "supermarket"
      }
    },
    {
      "type": "node",
      "id": 5780935353,
      "lat": 34.9665048,
      "lon": 136.6217804,
      "tags": {
        "addr:street": "一番街商店街",
        "name": "スーパーサンシ一番街店",
        "shop": "supermarket"
      }
    },
    {
      "type": "node",
      "id": 5780983954,
      "lat": 34.9870573,
      "lon": 136.6281815,
      "tags": {
        "addr:street": "山手通り",
        "name": "アミカ四日市店",
        "shop": "supermarket"
      }
    },
    {
      "type": "node",
      "id": 5780996553,
      "lat": 34.9921085,
      "lon": 136.623266,
      "tags": {
        "addr:street": "山手通り",
        "name": "マックスバリュ阿倉川店",
        "shop": "supermarket"
      }
    },
    {
      "type": "node",
      "id": 5802910356,
      "lat": 33.7380468,
      "lon": 136.0176364,
      "tags": {
        "name": "主婦の店 パシフィックマーケット",
        "shop": "supermarket"
      }
    },
    {
      "type": "node",
      "id": 5883263497,
      "lat": 34.7605757,
      "lon": 136.5082654,
      "tags": {
        "name": "ぜにや 一身田店",
        "shop": "supermarket"
      }
    },
    {
      "type": "node",
      "id": 5939574205,
      "lat": 34.8083484,
      "lon": 136.4649989,
      "tags": {
        "name": "一号館",
        "shop": "supermarket"
      }
    },
    {
      "type": "node",
      "id": 5939574209,
      "lat": 34.8039725,
      "lon": 136.4447274,
      "tags": {
        "name": "マルヤス",
        "shop": "supermarket"
      }
    },
    {
      "type": "node",
      "id": 5939574213,
      "lat": 34.8061219,
      "lon": 136.4441927,
      "tags": {
        "name": "ぎゅーとら",
        "shop": "supermarket"
      }
    },
    {
      "type": "node",
      "id": 5939574218,
      "lat": 34.7515237,
      "lon": 136.4608083,
      "tags": {
        "name": "ぜにや",
        "shop": "supermarket"
      }
    },
    {
      "type": "node",
      "id": 5992011724,
      "lat": 34.5012083,
      "lon": 136.7116582,
      "tags": {
        "brand": "バロー",
        "brand:en": "Valor",
        "brand:ja": "バロー",
        "brand:wikidata": "Q11328346",
        "brand:wikipedia": "ja:バロー (チェーンストア)",
        "name": "バロー",
        "name:en": "Valor",
        "name:ja": "バロー",
        "shop": "supermarket"
      }
    },
    {
      "type": "node",
      "id": 6150681388,
      "lat": 34.623918,
      "lon": 136.1023953,
      "tags": {
        "name": "サンディ 名張店",
        "name:en": "Sandi",
        "shop": "supermarket"
      }
    },
    {
      "type": "node",
      "id": 6150681401,
      "lat": 34.6203429,
      "lon": 136.1062885,
      "tags": {
        "name": "ザ・ビッグ エクスプレス 夏見橋店",
        "shop": "supermarket"
      }
    },
    {
      "type": "node",
      "id": 6174366670,
      "lat": 34.5067342,
      "lon": 136.7228745,
      "tags": {
        "addr:city": "伊勢市",
        "addr:neighbourhood": "538",
        "addr:province": "三重県",
        "addr:quarter": "小木町曽祢",
        "brand": "マックスバリュ",
        "brand:en": "MaxValu",
        "brand:ja": "マックスバリュ",
        "brand:wikidata": "Q11340427",
        "level": "1",
        "name": "マックスバリュ",
        "name:en": "MaxValu",
        "name:ja": "マックスバリュ",
        "name:ja-Latn": "Makkusubaryu",
        "name:ja_kana": "まっくすばりゅ",
        "name:ja_rm": "Makkusubaryu",
        "phone": "0596-36-2100",
        "shop": "supermarket"
      }
    },
    {
      "type": "node",
      "id": 6174674179,
      "lat": 35.0726753,
      "lon": 136.6628838,
      "tags": {
        "addr:block_number": "22",
        "addr:city": "桑名市",
        "addr:country": "JP",
        "addr:neighbourhood": "1",
        "addr:postcode": "511-0863",
        "addr:province": "三重県",
        "addr:quarter": "新西方",
        "branch": "桑名1番街",
        "branch:en": "Kuwana 1st Street",
        "brand": "イオン",
        "brand:en": "AEON",
        "brand:ja": "イオン",
        "brand:wikidata": "Q11285951",
        "level": "1;3",
        "name": "イオン",
        "name:en": "AEON",
        "name:ja": "イオン",
        "shop": "supermarket"
      }
    },
    {
      "type": "node",
      "id": 6199865498,
      "lat": 34.6326954,
      "lon": 136.108747,
      "tags": {
        "branch": "名張店",
        "brand": "マックスバリュ",
        "brand:en": "Maxvalu Tokai",
        "brand:ja": "マックスバリュ",
        "brand:wikidata": "Q1960109",
        "brand:wikipedia": "en:MaxValu",
        "name": "マックスバリュ",
        "name:en": "Maxvalu Tokai",
        "name:ja": "マックスバリュ",
        "shop": "supermarket"
      }
    },
    {
      "type": "node",
      "id": 6202828910,
      "lat": 34.6473584,
      "lon": 136.1044504,
      "tags": {
        "name": "生活協同組合 コープみえ 伊賀センター",
        "shop": "supermarket"
      }
    },
    {
      "type": "node",
      "id": 6202831289,
      "lat": 34.6453975,
      "lon": 136.1057393,
      "tags": {
        "name": "スーパー ヤオヒコ 桔梗が丘店",
        "shop": "supermarket"
      }
    },
    {
      "type": "node",
      "id": 6267371104,
      "lat": 34.717929,
      "lon": 136.5184822,
      "tags": {
        "name": "カネマサ商店",
        "shop": "supermarket"
      }
    },
    {
      "type": "node",
      "id": 6384439985,
      "lat": 34.8719919,
      "lon": 136.47232,
      "tags": {
        "name": "マルヤス",
        "operator": "マルヤス",
        "shop": "supermarket"
      }
    },
    {
      "type": "node",
      "id": 6435906922,
      "lat": 34.8015365,
      "lon": 136.5538912,
      "tags": {
        "name": "スーパーサンシ 河芸店",
        "shop": "supermarket"
      }
    },
    {
      "type": "node",
      "id": 6533023086,
      "lat": 34.6131934,
      "lon": 136.0898895,
      "tags": {
        "brand": "万代",
        "brand:en": "MANDAI",
        "brand:ja": "万代",
        "brand:wikidata": "Q11353756",
        "name": "万代",
        "name:en": "MANDAI",
        "name:ja": "万代",
        "shop": "supermarket"
      }
    },
    {
      "type": "node",
      "id": 6573547485,
      "lat": 34.617877,
      "lon": 136.1017009,
      "tags": {
        "addr:block_number": "22番地",
        "addr:city": "名張市",
        "addr:neighbourhood": "夏見",
        "addr:postcode": "518-0441",
        "addr:province": "三重県",
        "name": "ラ・ムー名張店",
        "opening_hours": "24",
        "operator": "大黒天物産株式会社",
        "phone": "0595621020",
        "shop": "supermarket"
      }
    },
    {
      "type": "node",
      "id": 6611345289,
      "lat": 34.5986414,
      "lon": 136.0762901,
      "tags": {
        "name": "西川商店",
        "shop": "supermarket"
      }
    },
    {
      "type": "node",
      "id": 6714620811,
      "lat": 34.4702682,
      "lon": 136.847432,
      "tags": {
        "brand": "イオン",
        "brand:en": "AEON",
        "brand:ja": "イオン",
        "brand:wikidata": "Q11285951",
        "brand:wikipedia": "ja:イオン (店舗ブランド)",
        "name": "イオン",
        "name:en": "AEON",
        "name:ja": "イオン",
        "shop": "supermarket"
      }
    },
    {
      "type": "node",
      "id": 6763426093,
      "lat": 35.1139048,
      "lon": 136.565002,
      "tags": {
        "name": "ヨシヅヤ",
        "shop": "supermarket"
      }
    },
    {
      "type": "node",
      "id": 6853266827,
      "lat": 33.86006,
      "lon": 136.0668017,
      "tags": {
        "name": "魚松商店",
        "shop": "supermarket"
      }
    },
    {
      "type": "node",
      "id": 6854692813,
      "lat": 33.8910959,
      "lon": 136.0973217,
      "tags": {
        "name": "橋本米穀店",
        "shop": "supermarket"
      }
    },
    {
      "type": "node",
      "id": 6854731704,
      "lat": 33.8855001,
      "lon": 136.0972804,
      "tags": {
        "name": "小瀬川米穀店",
        "shop": "supermarket"
      }
    },
    {
      "type": "node",
      "id": 6854731716,
      "lat": 33.8881971,
      "lon": 136.0957761,
      "tags": {
        "name": "オークワ 熊野店",
        "shop": "supermarket"
      }
    },
    {
      "type": "node",
      "id": 6854775596,
      "lat": 34.0659305,
      "lon": 136.1987336,
      "tags": {
        "name": "ジョイフル",
        "shop": "supermarket"
      }
    },
    {
      "type": "node",
      "id": 6854777085,
      "lat": 34.0686536,
      "lon": 136.1973206,
      "tags": {
        "name": "ライスハウスひがし",
        "shop": "supermarket"
      }
    },
    {
      "type": "node",
      "id": 6856824400,
      "lat": 34.0747659,
      "lon": 136.1946961,
      "tags": {
        "name": "金太郎",
        "shop": "supermarket"
      }
    },
    {
      "type": "node",
      "id": 6859756285,
      "lat": 34.0757923,
      "lon": 136.1911872,
      "tags": {
        "name": "ごしま",
        "shop": "supermarket"
      }
    },
    {
      "type": "node",
      "id": 6859756301,
      "lat": 34.0775703,
      "lon": 136.1974012,
      "tags": {
        "name": "天光丸",
        "shop": "supermarket"
      }
    },
    {
      "type": "node",
      "id": 6859756309,
      "lat": 34.109211,
      "lon": 136.2238836,
      "tags": {
        "name": "玉置米店",
        "shop": "supermarket"
      }
    },
    {
      "type": "node",
      "id": 6859756326,
      "lat": 34.2095912,
      "lon": 136.339232,
      "tags": {
        "name": "赤阪商店",
        "shop": "supermarket"
      }
    },
    {
      "type": "node",
      "id": 6859756336,
      "lat": 34.2073988,
      "lon": 136.3362424,
      "tags": {
        "name": "長島ショッピー 中洲店",
        "shop": "supermarket"
      }
    },
    {
      "type": "node",
      "id": 6859756403,
      "lat": 34.1055364,
      "lon": 136.2361362,
      "tags": {
        "name": "岸米穀店",
        "shop": "supermarket"
      }
    },
    {
      "type": "node",
      "id": 6859756408,
      "lat": 34.1092919,
      "lon": 136.2420027,
      "tags": {
        "name": "みなとや",
        "shop": "supermarket"
      }
    },
    {
      "type": "node",
      "id": 6859756411,
      "lat": 34.2097362,
      "lon": 136.3387752,
      "tags": {
        "name": "中井米穀店",
        "shop": "supermarket"
      }
    },
    {
      "type": "node",
      "id": 6859756486,
      "lat": 34.0744789,
      "lon": 136.1972547,
      "tags": {
        "name": "可成屋 ジャム",
        "shop": "supermarket"
      }
    },
    {
      "type": "node",
      "id": 6859756498,
      "lat": 34.0747377,
      "lon": 136.2002904,
      "tags": {
        "name": "田岡商店",
        "shop": "supermarket"
      }
    },
    {
      "type": "node",
      "id": 6859756787,
      "lat": 34.0755214,
      "lon": 136.1995965,
      "tags": {
        "name": "丸勝神保商店",
        "shop": "supermarket"
      }
    },
    {
      "type": "node",
      "id": 6859756789,
      "lat": 34.0769689,
      "lon": 136.1987376,
      "tags": {
        "name": "上野商店",
        "shop": "supermarket"
      }
    },
    {
      "type": "node",
      "id": 6943237003,
      "lat": 34.7763267,
      "lon": 136.1270927,
      "tags": {
        "name": "ぎゅーとら伊賀小田店",
        "shop": "supermarket"
      }
    },
    {
      "type": "node",
      "id": 7142180417,
      "lat": 34.7740209,
      "lon": 136.122812,
      "tags": {
        "name": "ラムウ",
        "shop": "supermarket"
      }
    },
    {
      "type": "node",
      "id": 7142180418,
      "lat": 34.7767905,
      "lon": 136.1248904,
      "tags": {
        "brand": "マックスバリュ",
        "brand:en": "Maxvalu Tokai",
        "brand:ja": "マックスバリュ",
        "brand:wikidata": "Q1960109",
        "brand:wikipedia": "en:MaxValu",
        "name": "マックスバリュ",
        "name:en": "Maxvalu Tokai",
        "name:ja": "マックスバリュ",
        "shop": "supermarket"
      }
    },
    {
      "type": "node",
      "id": 7142180433,
      "lat": 34.7482063,
      "lon": 136.1365329,
      "tags": {
        "brand": "マックスバリュ",
        "brand:en": "Maxvalu Tokai",
        "brand:ja": "マックスバリュ",
        "brand:wikidata": "Q1960109",
        "brand:wikipedia": "en:MaxValu",
        "name": "マックスバリュ",
        "name:en": "Maxvalu Tokai",
        "name:ja": "マックスバリュ",
        "shop": "supermarket"
      }
    },
    {
      "type": "node",
      "id": 7828122322,
      "lat": 34.4872216,
      "lon": 136.7211094,
      "tags": {
        "addr:city": "伊勢市",
        "addr:neighbourhood": "1-46",
        "addr:postcode": "516-0032",
        "addr:province": "三重県",
        "addr:quarter": "倭町",
        "name": "ホビー無線ショップ",
        "opening_hours": "Tu-Su 11:00-18:00",
        "shop": "supermarket"
      }
    },
    {
      "type": "node",
      "id": 7976157403,
      "lat": 34.6186422,
      "lon": 136.0860645,
      "tags": {
        "name": "総合食品矢の惣",
        "shop": "supermarket"
      }
    },
    {
      "type": "node",
      "id": 8551731617,
      "lat": 34.8717658,
      "lon": 136.5860688,
      "tags": {
        "addr:housenumber": "鈴鹿市神戸地子町306-1",
        "addr:postcode": "513-0000",
        "name": "Mugen Foods - SUZUKA",
        "opening_hours": "Mo-Su 09:00-21:00",
        "phone": "059-381-5002",
        "shop": "supermarket"
      }
    },
    {
      "type": "node",
      "id": 8958430277,
      "lat": 33.8620141,
      "lon": 136.0768148,
      "tags": {
        "brand": "オークワ",
        "brand:en": "Okuwa",
        "brand:ja": "オークワ",
        "brand:wikidata": "Q11293166",
        "brand:wikipedia": "ja:オークワ",
        "name": "オークワ",
        "name:en": "Okuwa",
        "name:ja": "オークワ",
        "shop": "supermarket"
      }
    },
    {
      "type": "node",
      "id": 9936468265,
      "lat": 34.6719963,
      "lon": 136.517579,
      "tags": {
        "brand": "イオン",
        "brand:en": "AEON",
        "brand:ja": "イオン",
        "brand:wikidata": "Q11285951",
        "name": "イオン",
        "name:en": "AEON",
        "name:ja": "イオン",
        "shop": "supermarket"
      }
    },
    {
      "type": "node",
      "id": 11262148607,
      "lat": 34.494671,
      "lon": 136.6934413,
      "tags": {
        "name": "プロマーケット",
        "name:en": "Pro Market",
        "shop": "supermarket"
      }
    },
    {
      "type": "node",
      "id": 11563496616,
      "lat": 35.1010063,
      "lon": 136.5964081,
      "tags": {
        "name": "一号館 東員店",
        "shop": "supermarket"
      }
    },
    {
      "type": "node",
      "id": 11563546344,
      "lat": 35.0878896,
      "lon": 136.5943253,
      "tags": {
        "addr:block_number": "2930-1",
        "addr:city": "東員町",
        "addr:county": "員弁郡",
        "addr:neighbourhood": "字木之倉",
        "addr:postcode": "511-0251",
        "addr:province": "三重県",
        "addr:quarter": "大字山田",
        "name": "カネスエ 東員店",
        "opening_hours": "Mo-Su 08:00-21:00",
        "shop": "supermarket"
      }
    },
    {
      "type": "node",
      "id": 12141999390,
      "lat": 34.3267698,
      "lon": 136.8223355,
      "tags": {
        "name": "コスモ",
        "shop": "supermarket"
      }
    },
    {
      "type": "node",
      "id": 12223624144,
      "lat": 35.0176238,
      "lon": 136.6364415,
      "tags": {
        "check_date": "2024-10-05",
        "name": "F★MART",
        "shop": "supermarket"
      }
    },
    {
      "type": "way",
      "id": 142907068,
      "center": {
        "lat": 35.0707866,
        "lon": 136.6904048
      },
      "nodes": [
        1563700267,
        1563700282,
        1563700279,
        1563700334,
        1563700337,
        1563700330,
        1563700304,
        1563700307,
        1563700245,
        1563700251,
        1563700238,
        1563700267
      ],
      "tags": {
        "brand": "バロー",
        "brand:en": "Valor",
        "brand:wikidata": "Q11328346",
        "building": "retail",
        "name": "バロー 桑名東店",
        "name:en": "Valor",
        "shop": "supermarket",
        "source": "Bing"
      }
    },
    {
      "type": "way",
      "id": 143857291,
      "center": {
        "lat": 35.0841188,
        "lon": 136.6416224
      },
      "nodes": [
        1574188009,
        1574188007,
        1574187998,
        1574187996,
        1574187963,
        1574188001,
        1574188004,
        1574188009
      ],
      "tags": {
        "building": "retail",
        "name": "一号館",
        "shop": "supermarket",
        "source": "Bing"
      }
    },
    {
      "type": "way",
      "id": 180815884,
      "center": {
        "lat": 35.0271016,
        "lon": 136.6781527
      },
      "nodes": [
        1912767796,
        1912767795,
        1912767797,
        1912767799,
        1912767800,
        1912767796
      ],
      "tags": {
        "building": "retail",
        "name": "スーパーサンシ みえ川越インター店",
        "opening_hours": "09:00-21:00",
        "shop": "supermarket",
        "source": "Bing 2010"
      }
    },
    {
      "type": "way",
      "id": 181694874,
      "center": {
        "lat": 34.79566,
        "lon": 136.5530462
      },
      "nodes": [
        1921319143,
        5948571178,
        5948571177,
        5948571176,
        5948571175,
        5948571174,
        5948571179,
        5948571172,
        5948571171,
        5948571170,
        5948571169,
        5948571168,
        5948571173,
        1921319135,
        5948571162,
        5948571163,
        5948571164,
        5948571166,
        5948571165,
        5948571167,
        1921319133,
        1921319130,
        5948571161,
        5948571160,
        5948571159,
        1921319131,
        5948571157,
        5948571158,
        1921319137,
        1921319139,
        5948571154,
        5948571155,
        5948571156,
        1921319140,
        5948571181,
        5949007252,
        5948571180,
        1921319143
      ],
      "tags": {
        "building": "commercial",
        "name": "SUPER CENTER OKUWA",
        "shop": "supermarket",
        "source": "image;Bing,2009-06-06"
      }
    },
    {
      "type": "way",
      "id": 278870601,
      "center": {
        "lat": 34.872589,
        "lon": 136.5442823
      },
      "nodes": [
        2831627292,
        4558010127,
        4558010126,
        2831627293,
        2831627294,
        2831627295,
        4558010125,
        9140722105,
        9140722104,
        9140722103,
        2831627292
      ],
      "tags": {
        "branch": "平田店",
        "building": "yes",
        "building:levels": "1",
        "name": "ぎゅうとらラブリー",
        "shop": "supermarket",
        "smoking": "no"
      }
    },
    {
      "type": "way",
      "id": 313826099,
      "center": {
        "lat": 34.523658,
        "lon": 136.6236363
      },
      "nodes": [
        3198589892,
        3198589895,
        3198589896,
        3198589891,
        3198589892
      ],
      "tags": {
        "building": "yes",
        "name": "ぎゅーとらラブリー明和店",
        "shop": "supermarket"
      }
    },
    {
      "type": "way",
      "id": 340250957,
      "center": {
        "lat": 35.1553028,
        "lon": 136.5093672
      },
      "nodes": [
        3474654653,
        3474654655,
        3474654651,
        3474654654,
        3474654650,
        3474654652,
        3474654649,
        3474654648,
        3474654653
      ],
      "tags": {
        "brand": "マックスバリュ",
        "brand:en": "MaxValu",
        "brand:ja": "マックスバリュ",
        "brand:wikidata": "Q11340427",
        "building": "retail",
        "name": "マックスバリュ",
        "name:en": "MaxValu",
        "name:ja": "マックスバリュ",
        "opening_hours": "Mo-Su,PH 07:00-23:30",
        "shop": "supermarket",
        "source": "GSI/KIBAN 2500",
        "source_ref": "http://wiki.osm.org/wiki/GSI_KIBAN"
      }
    },
    {
      "type": "way",
      "id": 362225168,
      "center": {
        "lat": 34.5342875,
        "lon": 136.6051089
      },
      "nodes": [
        3665720609,
        5409726939,
        5409726938,
        3665720610,
        3665720611,
        5409726937,
        5409726936,
        3665720612,
        5409726935,
        9572621631,
        9572621630,
        5409726934,
        5409726933,
        5409726932,
        3665720609
      ],
      "tags": {
        "brand": "マックスバリュ",
        "brand:en": "Maxvalu Tokai",
        "brand:ja": "マックスバリュ",
        "brand:wikidata": "Q1960109",
        "brand:wikipedia": "en:MaxValu",
        "building": "yes",
        "name": "マックスバリュ",
        "name:en": "Maxvalu Tokai",
        "name:ja": "マックスバリュ",
        "shop": "supermarket"
      }
    },
    {
      "type": "way",
      "id": 362225184,
      "center": {
        "lat": 34.5478169,
        "lon": 136.5785228
      },
      "nodes": [
        3665720747,
        3665720748,
        9739342092,
        9739342093,
        3665720749,
        3665720750,
        3665720747
      ],
      "tags": {
        "brand": "エーコープ",
        "brand:en": "A-COOP",
        "brand:ja": "エーコープ",
        "brand:wikidata": "Q11291524",
        "building": "yes",
        "name": "エーコープ",
        "name:en": "A-COOP",
        "name:ja": "エーコープ",
        "organic": "only",
        "shop": "supermarket"
      }
    },
    {
      "type": "way",
      "id": 362395248,
      "center": {
        "lat": 34.3273592,
        "lon": 136.8376077
      },
      "nodes": [
        3667140568,
        3667140569,
        3667140570,
        3667140571,
        3667140572,
        3667140568
      ],
      "tags": {
        "building": "yes",
        "name": "ぎゅーとら",
        "shop": "supermarket"
      }
    },
    {
      "type": "way",
      "id": 362939367,
      "center": {
        "lat": 34.5040006,
        "lon": 136.7639738
      },
      "nodes": [
        3671686923,
        3671686924,
        3671686925,
        3671686926,
        3671686927,
        3671686928,
        3671686929,
        3671686930,
        3671686923
      ],
      "tags": {
        "branch": "伊勢二見店",
        "building": "retail",
        "name": "プライスカット",
        "name:en": "Price Cut",
        "name:ja_rm": "Puraisukatto",
        "operator": "オークワ",
        "shop": "supermarket"
      }
    },
    {
      "type": "way",
      "id": 369275305,
      "center": {
        "lat": 34.1124346,
        "lon": 136.2298876
      },
      "nodes": [
        3730799334,
        3730799339,
        3730799337,
        3730799338,
        3730799335,
        3730799336,
        3730799333,
        3730799334
      ],
      "tags": {
        "building": "retail",
        "name": "プライスカット",
        "shop": "supermarket"
      }
    },
    {
      "type": "way",
      "id": 369329255,
      "center": {
        "lat": 34.1143434,
        "lon": 136.2243356
      },
      "nodes": [
        3731287208,
        3731287205,
        3731287207,
        3731287209,
        3731287208
      ],
      "tags": {
        "building": "retail",
        "name": "主婦の店",
        "shop": "supermarket"
      }
    },
    {
      "type": "way",
      "id": 373207253,
      "center": {
        "lat": 34.7260741,
        "lon": 136.5044954
      },
      "nodes": [
        3767185071,
        3767185072,
        3767185075,
        3767185076,
        3767185078,
        3767185079,
        3767185080,
        3767185081,
        3767185082,
        3767185071
      ],
      "tags": {
        "building": "yes",
        "name": "マルヤス　山の手通り店",
        "shop": "supermarket"
      }
    },
    {
      "type": "way",
      "id": 373207262,
      "center": {
        "lat": 34.7303514,
        "lon": 136.5199556
      },
      "nodes": [
        3767185145,
        3767185146,
        3767185147,
        3767185148,
        3767185149,
        3767185150,
        3767185145
      ],
      "tags": {
        "building": "retail",
        "shop": "supermarket"
      }
    },
    {
      "type": "way",
      "id": 373207271,
      "center": {
        "lat": 34.6932211,
        "lon": 136.5057473
      },
      "nodes": [
        3767185212,
        3767185213,
        3767185214,
        3767185215,
        3767185212
      ],
      "tags": {
        "building": "yes",
        "name": "マルヤス 南が丘店",
        "shop": "supermarket"
      }
    },
    {
      "type": "way",
      "id": 387536577,
      "center": {
        "lat": 34.853238,
        "lon": 136.5821645
      },
      "nodes": [
        3908226758,
        3908226759,
        3908226760,
        3908226761,
        3908226758
      ],
      "tags": {
        "building": "retail",
        "name": "アピタ鈴鹿店",
        "name:en": "APITA Suzuka",
        "shop": "supermarket",
        "wikidata": "Q11284592"
      }
    },
    {
      "type": "way",
      "id": 387539172,
      "center": {
        "lat": 34.8479825,
        "lon": 136.5756743
      },
      "nodes": [
        3908228741,
        3908228742,
        3908228743,
        3908228744,
        3908228745,
        3908228746,
        4584880452,
        3908228747,
        4584880453,
        3908228748,
        4584880487,
        4584880485,
        3908228750,
        4584880451,
        3908228751,
        9194865163,
        9194865164,
        3908228741
      ],
      "tags": {
        "branch": "鈴鹿店",
        "brand": "バロー",
        "brand:en": "Valor",
        "brand:ja": "バロー",
        "brand:wikidata": "Q11328346",
        "building": "retail",
        "name": "バロー",
        "name:en": "Valor",
        "name:ja": "バロー",
        "shop": "supermarket"
      }
    },
    {
      "type": "way",
      "id": 387544994,
      "center": {
        "lat": 34.842547,
        "lon": 136.5598451
      },
      "nodes": [
        3908242743,
        3908242744,
        3908242745,
        3908242746,
        3908242747,
        3908242748,
        3908242749,
        3908242750,
        3908242751,
        3908242752,
        3908242753,
        3908242754,
        3908242755,
        3908242743
      ],
      "tags": {
        "branch": "サーキット通り店",
        "building": "yes",
        "name": "Ｆ１マート",
        "name:en": "F1-mart",
        "shop": "supermarket"
      }
    },
    {
      "type": "way",
      "id": 387545681,
      "center": {
        "lat": 34.8605114,
        "lon": 136.5400815
      },
      "nodes": [
        3908248233,
        3908248234,
        3908248235,
        3908248236,
        4599951675,
        4599951676,
        4599951677,
        4599951678,
        4599951679,
        4599951680,
        8526145511,
        8526145510,
        3908248237,
        3908248238,
        4599951674,
        4599951673,
        3908248233
      ],
      "tags": {
        "brand": "マックスバリュ",
        "brand:en": "MaxValu",
        "brand:ja": "マックスバリュ",
        "brand:wikidata": "Q11340427",
        "building": "retail",
        "name": "マックスバリュ",
        "name:en": "MaxValu",
        "name:ja": "マックスバリュ",
        "shop": "supermarket"
      }
    },
    {
      "type": "way",
      "id": 443694775,
      "center": {
        "lat": 34.8966603,
        "lon": 136.5950495
      },
      "nodes": [
        4412545001,
        4999741031,
        4999741028,
        4999739819,
        4999739818,
        4412545002,
        4412545003,
        4412545004,
        5078749376,
        5078749378,
        5078749377,
        5078749375,
        4412545001
      ],
      "tags": {
        "building": "yes",
        "name": "オークワ 鈴鹿高岡店",
        "shop": "supermarket"
      }
    },
    {
      "type": "way",
      "id": 443832926,
      "center": {
        "lat": 34.8567168,
        "lon": 136.5868675
      },
      "nodes": [
        4413704873,
        4413704874,
        4413704875,
        4413704876,
        4413704873
      ],
      "tags": {
        "building": "yes",
        "name": "スーパーセンタートライアル 玉垣店",
        "name:en": "TRIAL",
        "shop": "supermarket"
      }
    },
    {
      "type": "way",
      "id": 445268529,
      "center": {
        "lat": 34.8761315,
        "lon": 136.5655969
      },
      "nodes": [
        4427261099,
        9097131863,
        4427261100,
        9097131862,
        5001582310,
        5001582311,
        5001582317,
        5001582316,
        5001582315,
        5001582312,
        4427261101,
        4427261102,
        4427261099
      ],
      "tags": {
        "branch": "鈴鹿中央店",
        "brand": "マックスバリュ",
        "brand:en": "Maxvalu Tokai",
        "brand:ja": "マックスバリュ",
        "brand:wikidata": "Q1960109",
        "brand:wikipedia": "en:MaxValu",
        "building": "yes",
        "layer": "-1",
        "name": "マックスバリュ",
        "name:en": "Maxvalu Tokai",
        "name:ja": "マックスバリュ",
        "shop": "supermarket",
        "website": "https://www.mv-chubu.co.jp/store/325/"
      }
    },
    {
      "type": "way",
      "id": 446633790,
      "center": {
        "lat": 34.7148686,
        "lon": 136.5205339
      },
      "nodes": [
        4438774359,
        4438774360,
        4438774361,
        4438774362,
        5276927371,
        5276927372,
        5276927373,
        5276927374,
        4438774363,
        4438774364,
        4438774359
      ],
      "tags": {
        "building": "yes",
        "name": "マックスバリュ港町店",
        "shop": "supermarket"
      }
    },
    {
      "type": "way",
      "id": 447138002,
      "center": {
        "lat": 34.6444827,
        "lon": 136.1299729
      },
      "nodes": [
        4443251577,
        4443251523,
        4443251535,
        4443251549,
        4443251559,
        4443251544,
        4443251550,
        4443251701,
        4443251698,
        4443251700,
        4443251697,
        4443251585,
        4443251577
      ],
      "tags": {
        "branch": "桔梗が丘東店",
        "brand": "マックスバリュ",
        "brand:en": "Maxvalu Tokai",
        "brand:ja": "マックスバリュ",
        "brand:wikidata": "Q1960109",
        "brand:wikipedia": "en:MaxValu",
        "building": "yes",
        "name": "マックスバリュ",
        "name:en": "Maxvalu Tokai",
        "name:ja": "マックスバリュ",
        "shop": "supermarket",
        "source": "bing"
      }
    },
    {
      "type": "way",
      "id": 447871112,
      "center": {
        "lat": 34.6812543,
        "lon": 136.4541835
      },
      "nodes": [
        4449342491,
        4449342492,
        4449342493,
        4449342494,
        4449342491
      ],
      "tags": {
        "building": "yes",
        "name": "コスモス久居インター店",
        "shop": "supermarket"
      }
    },
    {
      "type": "way",
      "id": 447871115,
      "center": {
        "lat": 34.6791848,
        "lon": 136.4554147
      },
      "nodes": [
        4449342503,
        4449342504,
        4449342505,
        4449342506,
        4449342503
      ],
      "tags": {
        "building": "yes",
        "name": "農業屋久居店",
        "shop": "supermarket"
      }
    },
    {
      "type": "way",
      "id": 447871118,
      "center": {
        "lat": 34.6825776,
        "lon": 136.4631594
      },
      "nodes": [
        4449342513,
        4449342514,
        4449342515,
        4449342516,
        4449342517,
        6174638151,
        4449342525,
        4449342526,
        4449342527,
        4449342528,
        4449342529,
        4449342530,
        4449342524,
        4449342531,
        4449342532,
        4449342522,
        4449342523,
        4449342521,
        4449342520,
        4449342519,
        4449342518,
        4449342513
      ],
      "tags": {
        "addr:city": "津市",
        "addr:neighbourhood": "2660",
        "addr:postcode": "514-1101",
        "addr:province": "三重県",
        "addr:quarter": "久居明神町風早",
        "branch": "久居",
        "branch:en": "Hisai",
        "brand": "イオン",
        "brand:en": "AEON",
        "brand:ja": "イオン",
        "brand:wikidata": "Q11285951",
        "building": "retail",
        "name": "イオン",
        "name:en": "AEON",
        "name:ja": "イオン",
        "phone": "059-255-1811",
        "shop": "supermarket",
        "website": "https://www.aeon.com/store/%E3%82%A4%E3%82%AA%E3%83%B3/%E3%82%A4%E3%82%AA%E3%83%B3%E4%B9%85%E5%B1%85%E5%BA%97/"
      }
    },
    {
      "type": "way",
      "id": 447995299,
      "center": {
        "lat": 34.6785192,
        "lon": 136.435609
      },
      "nodes": [
        4450549983,
        4450549984,
        4450549985,
        4450549986,
        4450549987,
        4450549988,
        4450549983
      ],
      "tags": {
        "brand": "オークワ",
        "brand:en": "Okuwa",
        "brand:ja": "オークワ",
        "brand:wikidata": "Q11293166",
        "building": "yes",
        "name": "オークワ",
        "name:en": "Okuwa",
        "name:ja": "オークワ",
        "shop": "supermarket"
      }
    },
    {
      "type": "way",
      "id": 448315800,
      "center": {
        "lat": 34.6570818,
        "lon": 136.4332493
      },
      "nodes": [
        4453384134,
        4453384135,
        4453384136,
        4453384137,
        4453384134
      ],
      "tags": {
        "branch": "一志店",
        "brand": "マックスバリュ",
        "brand:en": "Maxvalu Tokai",
        "brand:ja": "マックスバリュ",
        "brand:wikidata": "Q1960109",
        "brand:wikipedia": "en:MaxValu",
        "building": "retail",
        "name": "マックスバリュ",
        "name:en": "MaxValu Ichishi",
        "name:ja": "マックスバリュ",
        "shop": "supermarket"
      }
    },
    {
      "type": "way",
      "id": 448315809,
      "center": {
        "lat": 34.656715,
        "lon": 136.4332809
      },
      "nodes": [
        4453384169,
        4453384170,
        4453384171,
        4453384172,
        4453384169
      ],
      "tags": {
        "branch": "マックスバリュ一志店",
        "building": "retail",
        "name": "キャン・ドゥ",
        "name:en": "CanDo",
        "name:ja": "キャン・ドゥ",
        "shop": "supermarket",
        "website": "https://www.cando-web.co.jp/shopinfo/shop-1620.html"
      }
    },
    {
      "type": "way",
      "id": 449045068,
      "center": {
        "lat": 34.6706779,
        "lon": 136.4727695
      },
      "nodes": [
        4460149814,
        4460149815,
        4460149816,
        4460149817,
        4460149818,
        4460149819,
        4460149820,
        4460149821,
        4460149814
      ],
      "tags": {
        "building": "yes",
        "name": "プライスカット久居元町店",
        "name:en": "Price Cut",
        "shop": "supermarket"
      }
    },
    {
      "type": "way",
      "id": 449059546,
      "center": {
        "lat": 34.6835178,
        "lon": 136.4835029
      },
      "nodes": [
        4460309068,
        4460309069,
        4460309070,
        4460309071,
        4460309072,
        4460309068
      ],
      "tags": {
        "building": "yes",
        "name": "ぎゅーとら ラブリー持川店",
        "shop": "supermarket"
      }
    },
    {
      "type": "way",
      "id": 453278393,
      "center": {
        "lat": 34.6627945,
        "lon": 136.3603324
      },
      "nodes": [
        4500339849,
        4500339850,
        4500339851,
        4500339852,
        4500339856,
        4500339853,
        4500339854,
        4500339855,
        4500339849
      ],
      "tags": {
        "brand": "マックスバリュ",
        "brand:en": "Maxvalu Tokai",
        "brand:ja": "マックスバリュ",
        "brand:wikidata": "Q1960109",
        "brand:wikipedia": "en:MaxValu",
        "building": "yes",
        "name": "マックスバリュ",
        "name:en": "MaxValu",
        "name:ja": "マックスバリュ",
        "shop": "supermarket"
      }
    },
    {
      "type": "way",
      "id": 454478767,
      "center": {
        "lat": 34.8056775,
        "lon": 136.4691406
      },
      "nodes": [
        4510364218,
        4510364219,
        4510364220,
        4510364221,
        4510364218
      ],
      "tags": {
        "building": "yes",
        "name": "一号舘豊里店",
        "shop": "supermarket"
      }
    },
    {
      "type": "way",
      "id": 459265145,
      "center": {
        "lat": 34.4465794,
        "lon": 136.640177
      },
      "nodes": [
        4551641072,
        4551641073,
        4551641074,
        4551641075,
        4551641076,
        4551641072
      ],
      "tags": {
        "building": "yes",
        "name": "プライスカット",
        "name:en": "Price Cut",
        "shop": "supermarket"
      }
    },
    {
      "type": "way",
      "id": 460002229,
      "center": {
        "lat": 34.5876998,
        "lon": 136.5448875
      },
      "nodes": [
        4556959762,
        4556959763,
        4556959764,
        4556959765,
        4556959766,
        4556959767,
        4556959768,
        4556959769,
        4556959770,
        4556959762
      ],
      "tags": {
        "building": "yes",
        "name": "マックスバリュ郷津店",
        "name:en": "Maxvalu Gozu",
        "shop": "supermarket"
      }
    },
    {
      "type": "way",
      "id": 460002238,
      "center": {
        "lat": 34.4925209,
        "lon": 136.5500564
      },
      "nodes": [
        4556960527,
        10140504684,
        10140504685,
        10140504686,
        4556960528,
        10140504689,
        4556960529,
        4556960530,
        10140504691,
        10140504692,
        10140504693,
        10140504690,
        4556960531,
        10140504688,
        10140504687,
        4556960532,
        4556960533,
        10140504682,
        10140504683,
        4556960527
      ],
      "tags": {
        "building": "yes",
        "name": "マックスバリュ多気店",
        "name:en": "MaxvaluTaki",
        "shop": "supermarket",
        "wikidata": "Q11430819"
      }
    },
    {
      "type": "way",
      "id": 460002239,
      "center": {
        "lat": 34.3944775,
        "lon": 136.4093103
      },
      "nodes": [
        4556960534,
        4556960535,
        4556960536,
        4556960537,
        4556960534
      ],
      "tags": {
        "building": "yes",
        "name": "マックスバリュ大台店",
        "name:en": "MaxvaluOdai",
        "shop": "supermarket"
      }
    },
    {
      "type": "way",
      "id": 461662076,
      "center": {
        "lat": 34.8723837,
        "lon": 136.4738933
      },
      "nodes": [
        4571345511,
        4571345512,
        4571345513,
        4571345514,
        4571345515,
        4571345516,
        4571345518,
        4571345519,
        4571345520,
        4571345521,
        4571345511
      ],
      "tags": {
        "addr:city": "亀山市田村町2",
        "addr:postcode": "519-0213",
        "building": "yes",
        "ele": "43.7",
        "name": "マックスバリュ亀山みずほ台店",
        "opening_hours": "07:00-23:00",
        "operator": "マックスバリュ中部",
        "shop": "supermarket"
      }
    },
    {
      "type": "way",
      "id": 463175636,
      "center": {
        "lat": 34.9885148,
        "lon": 136.6000957
      },
      "nodes": [
        4584693430,
        9356117374,
        9356117375,
        9356117376,
        9356117377,
        4584693431,
        11233583982,
        9356117382,
        9356117381,
        9356117380,
        9356117379,
        9356117378,
        4584693433,
        4584693430
      ],
      "tags": {
        "branch": "生桑店",
        "brand": "マックスバリュ",
        "brand:en": "MaxValu",
        "brand:ja": "マックスバリュ",
        "brand:wikidata": "Q11340427",
        "brand:wikipedia": "en:MaxValu",
        "building": "yes",
        "name": "マックスバリュ",
        "name:en": "MaxValu",
        "name:ja": "マックスバリュ",
        "shop": "supermarket"
      }
    },
    {
      "type": "way",
      "id": 463175637,
      "center": {
        "lat": 34.987792,
        "lon": 136.5999194
      },
      "nodes": [
        4584693434,
        4584693435,
        4584693436,
        4584693437,
        4584693438,
        4584693439,
        4584693440,
        4584693441,
        5219379052,
        4584693443,
        4584693444,
        4584693434
      ],
      "tags": {
        "building": "yes",
        "name": "スーパーサンシ いくわ店",
        "shop": "supermarket"
      }
    },
    {
      "type": "way",
      "id": 463176744,
      "center": {
        "lat": 34.9769601,
        "lon": 136.5869935
      },
      "nodes": [
        4584701023,
        4584701024,
        4584701025,
        4584701026,
        4584701023
      ],
      "tags": {
        "building": "yes",
        "name": "ＪＡみえきた四季菜",
        "shop": "supermarket"
      }
    },
    {
      "type": "way",
      "id": 463229556,
      "center": {
        "lat": 34.8579915,
        "lon": 136.5827288
      },
      "nodes": [
        4585214398,
        4585214399,
        4585214400,
        4585214432,
        4585214433,
        4585214401,
        4585214398
      ],
      "tags": {
        "building": "yes",
        "name": "ザ･ビッグ エクストラ鈴鹿玉垣店",
        "shop": "supermarket"
      }
    },
    {
      "type": "way",
      "id": 464544319,
      "center": {
        "lat": 34.7694391,
        "lon": 136.5283041
      },
      "nodes": [
        4596443669,
        4596443670,
        4596443671,
        4596443672,
        5830915398,
        5830915394,
        5830915400,
        5830915397,
        4596443673,
        5830915402,
        5830915396,
        5830915399,
        5830915403,
        9309807833,
        9309807835,
        9309807834,
        9309807832,
        4596443674,
        4596443669
      ],
      "tags": {
        "brand": "マックスバリュ",
        "brand:en": "Maxvalu Tokai",
        "brand:ja": "マックスバリュ",
        "brand:wikidata": "Q1960109",
        "brand:wikipedia": "en:MaxValu",
        "building": "yes",
        "name": "マックスバリュ",
        "name:en": "Maxvalu Tokai",
        "name:ja": "マックスバリュ",
        "shop": "supermarket"
      }
    },
    {
      "type": "way",
      "id": 473808552,
      "center": {
        "lat": 34.9547919,
        "lon": 136.5519258
      },
      "nodes": [
        4678497599,
        4678497600,
        4678497601,
        4678497602,
        4678497603,
        4678497604,
        4678497605,
        4678497606,
        4678497607,
        4678497599
      ],
      "tags": {
        "building": "yes",
        "name": "一号館 高花平店",
        "shop": "supermarket"
      }
    },
    {
      "type": "way",
      "id": 473813421,
      "center": {
        "lat": 34.950666,
        "lon": 136.594281
      },
      "nodes": [
        4678542721,
        4678542722,
        4678542723,
        4678542724,
        4678542725,
        4678542726,
        4678542721
      ],
      "tags": {
        "addr:city": "四日市市",
        "addr:housenumber": "16-1",
        "addr:neighbourhood": "3丁目",
        "addr:postcode": "510-0891",
        "addr:province": "三重県",
        "addr:quarter": "日永西",
        "building": "yes",
        "name": "カネスエ 日永店",
        "phone": "059-348-1033",
        "shop": "supermarket"
      }
    },
    {
      "type": "way",
      "id": 476627279,
      "center": {
        "lat": 35.0606717,
        "lon": 136.5650754
      },
      "nodes": [
        4701287010,
        4701287011,
        4701287012,
        4701287013,
        4701287010
      ],
      "tags": {
        "building": "yes",
        "name": "一号館　大長店",
        "opening_hours": "Mo-Su 09:00-21:00",
        "shop": "supermarket"
      }
    },
    {
      "type": "way",
      "id": 483832436,
      "center": {
        "lat": 35.0050501,
        "lon": 136.5305944
      },
      "nodes": [
        4765775994,
        4765775995,
        4765775996,
        4765775997,
        4765775998,
        4765775999,
        4765775994
      ],
      "tags": {
        "building": "yes",
        "name": "ザ・ビッグ 菰野店",
        "shop": "supermarket"
      }
    },
    {
      "type": "way",
      "id": 483833577,
      "center": {
        "lat": 35.006611,
        "lon": 136.5276197
      },
      "nodes": [
        4765784809,
        4765784810,
        4765784811,
        4765784812,
        4765784813,
        4765784814,
        4765784815,
        4765784816,
        4765784817,
        4765784818,
        4765784819,
        4765784809
      ],
      "tags": {
        "building": "yes",
        "name": "スーパーサンシ 菰野繁盛店",
        "shop": "supermarket"
      }
    },
    {
      "type": "way",
      "id": 484434880,
      "center": {
        "lat": 35.0798687,
        "lon": 136.608121
      },
      "nodes": [
        4771878651,
        4771878652,
        4771878653,
        4771878654,
        4771878655,
        4771878656,
        4771878657,
        4771878658,
        4771878659,
        4771878660,
        4771878661,
        4771878662,
        4771878651
      ],
      "tags": {
        "building": "yes",
        "name": "スーパーサンシ 桑名店",
        "shop": "supermarket"
      }
    },
    {
      "type": "way",
      "id": 488394216,
      "center": {
        "lat": 34.8054823,
        "lon": 136.1768521
      },
      "nodes": [
        4807026289,
        4807026290,
        4807026291,
        4807026292,
        4807026293,
        4807026289
      ],
      "tags": {
        "building": "yes",
        "name": "マックスバリュー佐那具店",
        "shop": "supermarket"
      }
    },
    {
      "type": "way",
      "id": 489041617,
      "center": {
        "lat": 35.0360331,
        "lon": 136.5692431
      },
      "nodes": [
        4813273284,
        4813273285,
        4813273286,
        4813273287,
        4813273288,
        9293918058,
        4813273289,
        4813273284
      ],
      "tags": {
        "building": "yes",
        "name": "一号館 小牧店",
        "shop": "supermarket"
      }
    },
    {
      "type": "way",
      "id": 490301781,
      "center": {
        "lat": 34.922634,
        "lon": 136.4938327
      },
      "nodes": [
        4824771954,
        4824771955,
        4824771956,
        4824771957,
        4824771958,
        4824771959,
        4824771960,
        4824771961,
        4824771962,
        4824771963,
        4824771964,
        4824771954
      ],
      "tags": {
        "building": "yes",
        "name": "F☆マート 鈴鹿インター店",
        "shop": "supermarket"
      }
    },
    {
      "type": "way",
      "id": 490915290,
      "center": {
        "lat": 34.7522551,
        "lon": 136.5112271
      },
      "nodes": [
        4830873578,
        4830873579,
        4830873580,
        4830873581,
        4830873578
      ],
      "tags": {
        "building": "yes",
        "name": "ベーシック 一身田店",
        "shop": "supermarket"
      }
    },
    {
      "type": "way",
      "id": 494382585,
      "center": {
        "lat": 34.8976388,
        "lon": 136.513551
      },
      "nodes": [
        4861451019,
        4861451020,
        4861451621,
        4861451622,
        4861451623,
        4861451624,
        4861451625,
        4861451626,
        4861451627,
        4861451628,
        4861451629,
        4861451630,
        4861451631,
        4861451019
      ],
      "tags": {
        "brand": "マックスバリュ",
        "brand:en": "Maxvalu Tokai",
        "brand:ja": "マックスバリュ",
        "brand:wikidata": "Q1960109",
        "brand:wikipedia": "en:MaxValu",
        "building": "yes",
        "ele": "54.8",
        "name": "マックスバリュ",
        "name:en": "Maxvalu Tokai",
        "name:ja": "マックスバリュ",
        "shop": "supermarket"
      }
    },
    {
      "type": "way",
      "id": 500705387,
      "center": {
        "lat": 35.0674431,
        "lon": 136.6582939
      },
      "nodes": [
        4916933921,
        4916933922,
        4916933923,
        4916933924,
        4916933925,
        4916933926,
        4916933927,
        4916931998,
        4916933928,
        4916933929,
        4916933930,
        9424457592,
        9424457593,
        4916933921
      ],
      "tags": {
        "branch": "桑名新西方店",
        "brand": "マックスバリュ",
        "brand:en": "MaxValu",
        "brand:ja": "マックスバリュ",
        "brand:wikidata": "Q11340427",
        "brand:wikipedia": "en:MaxValu",
        "building": "yes",
        "name": "マックスバリュ",
        "name:en": "MaxValu",
        "name:ja": "マックスバリュ",
        "shop": "supermarket"
      }
    },
    {
      "type": "way",
      "id": 505853833,
      "center": {
        "lat": 34.9547897,
        "lon": 136.5743092
      },
      "nodes": [
        4956870703,
        4956870708,
        4956870709,
        4956870710,
        4956870711,
        4956870712,
        4956870713,
        4956870716,
        4956870717,
        4956870718,
        4956870719,
        4956870720,
        9214347390,
        9214347391,
        4956870729,
        5678912640,
        4956870730,
        4956870731,
        4956870732,
        4956870703
      ],
      "tags": {
        "branch": "笹川店",
        "brand": "マックスバリュ",
        "brand:en": "Maxvalu Tokai",
        "brand:ja": "マックスバリュ",
        "brand:wikidata": "Q1960109",
        "brand:wikipedia": "en:MaxValu",
        "building": "yes",
        "name": "マックスバリュ",
        "name:en": "Maxvalu Tokai",
        "name:ja": "マックスバリュ",
        "shop": "supermarket"
      }
    },
    {
      "type": "way",
      "id": 507558489,
      "center": {
        "lat": 34.9453819,
        "lon": 136.5733297
      },
      "nodes": [
        4970381575,
        4970381576,
        4970381577,
        4970381578,
        4970381579,
        4970381580,
        4970381581,
        4970381582,
        4970381583,
        4970381584,
        4970381575
      ],
      "tags": {
        "building": "yes",
        "name": "スーパーサンシ サンビーム店",
        "shop": "supermarket"
      }
    },
    {
      "type": "way",
      "id": 516166345,
      "center": {
        "lat": 34.8593767,
        "lon": 136.4720915
      },
      "nodes": [
        5039195686,
        5039195687,
        5039195688,
        5039195689,
        5039195690,
        5039195691,
        5039195692,
        5039195693,
        5039195694,
        9778624553,
        9778624554,
        5039195695,
        5039195686
      ],
      "tags": {
        "branch": "亀山店",
        "brand": "オークワ",
        "brand:en": "Okuwa",
        "brand:ja": "オークワ",
        "brand:wikidata": "Q11293166",
        "building": "yes",
        "name": "オークワ",
        "name:en": "Okuwa",
        "name:ja": "オークワ",
        "shop": "supermarket"
      }
    },
    {
      "type": "way",
      "id": 516168237,
      "center": {
        "lat": 34.8589147,
        "lon": 136.4648385
      },
      "nodes": [
        5039214193,
        5039214194,
        5039214195,
        5039214196,
        5039214197,
        5039214198,
        5039214199,
        5039214200,
        5039214193
      ],
      "tags": {
        "branch": "亀山店",
        "brand": "マックスバリュ",
        "brand:en": "Maxvalu Tokai",
        "brand:ja": "マックスバリュ",
        "brand:wikidata": "Q1960109",
        "building": "yes",
        "name": "マックスバリュ",
        "name:en": "Maxvalu Tokai",
        "name:ja": "マックスバリュ",
        "shop": "supermarket"
      }
    },
    {
      "type": "way",
      "id": 519018963,
      "center": {
        "lat": 34.8902396,
        "lon": 136.6301585
      },
      "nodes": [
        5061736490,
        9253946266,
        9253946267,
        9253946268,
        9253946269,
        9253946270,
        5061736491,
        5061736492,
        5061736493,
        5061736494,
        5061736495,
        5061736496,
        5061736497,
        5061736498,
        9253946271,
        9253946272,
        5061736499,
        5061736500,
        5061736501,
        5061736490
      ],
      "tags": {
        "addr:city": "鈴鹿市",
        "addr:postcode": "513-0043",
        "addr:province": "三重県",
        "addr:quarter": "長太栄町",
        "branch": "長太の浦店",
        "brand": "マックスバリュ",
        "brand:en": "Maxvalu Tokai",
        "brand:ja": "マックスバリュ",
        "brand:wikidata": "Q1960109",
        "brand:wikipedia": "en:MaxValu",
        "building": "yes",
        "name": "マックスバリュ",
        "name:en": "Maxvalu Tokai",
        "name:ja": "マックスバリュ",
        "opening_hours": "07:00-23:00",
        "operator": "マックスバリュ中部",
        "shop": "supermarket",
        "website": "https://www.mv-chubu.co.jp/store/321/"
      }
    },
    {
      "type": "way",
      "id": 522102959,
      "center": {
        "lat": 34.9167345,
        "lon": 136.6351797
      },
      "nodes": [
        5085883608,
        5085883616,
        5085883617,
        5085883609,
        5085883614,
        5085883615,
        5085883610,
        5085883611,
        5085883612,
        5085883613,
        5085883608
      ],
      "tags": {
        "building": "yes",
        "name": "Aコープ くす店",
        "shop": "supermarket",
        "website": "http://www.acoop-kinki.co.jp/shop/shop_mie.html#kusu"
      }
    },
    {
      "type": "way",
      "id": 522374157,
      "center": {
        "lat": 34.9189419,
        "lon": 136.6281653
      },
      "nodes": [
        5087901170,
        5087901171,
        5087901172,
        5087901173,
        5087901174,
        5087901170
      ],
      "tags": {
        "building": "yes",
        "name": "一号舘 北楠店",
        "shop": "supermarket",
        "website": "https://tokubai.co.jp/%E3%82%B9%E3%83%BC%E3%83%91%E3%83%BC%E4%B8%80%E5%8F%B7%E8%88%98/13709"
      }
    },
    {
      "type": "way",
      "id": 526691927,
      "center": {
        "lat": 34.6847631,
        "lon": 136.5188189
      },
      "nodes": [
        3767215457,
        3767215459,
        5121369471,
        5121369472,
        5121369473,
        5121369474,
        5121369475,
        5121369476,
        5121369477,
        9496897213,
        5121369478,
        9496897214,
        9496897215,
        5121369479,
        5121369480,
        3767215457
      ],
      "tags": {
        "branch": "津藤方店",
        "building": "yes",
        "building:levels": "1",
        "name": "ザ･ビッグ",
        "operator": "イオンビッグ",
        "shop": "supermarket",
        "start_date": "2017-09-22",
        "website": "http://shop.aeon.jp/store/12/2416340/",
        "wheelchair": "yes"
      }
    },
    {
      "type": "way",
      "id": 529142219,
      "center": {
        "lat": 34.8675493,
        "lon": 136.6199815
      },
      "nodes": [
        5140826689,
        8851181129,
        8851181130,
        8851181128,
        5140826690,
        5140826691,
        5140826692,
        5140826693,
        5140826694,
        5140826695,
        5140826696,
        5140826689
      ],
      "tags": {
        "building": "yes",
        "name": "マックスバリュ 若松店",
        "name:en": "MaxValu Wakamatsu Shop",
        "shop": "supermarket"
      }
    },
    {
      "type": "way",
      "id": 534809492,
      "center": {
        "lat": 35.0390003,
        "lon": 136.5292698
      },
      "nodes": [
        5185710338,
        5185710339,
        5185710340,
        5185710341,
        5185710342,
        5185710343,
        5185710344,
        5185710345,
        5185710346,
        5185710347,
        5185710348,
        5185710349,
        5185710350,
        5185710351,
        5185710338
      ],
      "tags": {
        "building": "yes",
        "name": "ピアゴ 菰野店",
        "shop": "supermarket"
      }
    },
    {
      "type": "way",
      "id": 546094351,
      "center": {
        "lat": 34.759449,
        "lon": 136.1463754
      },
      "nodes": [
        5277482390,
        5277482389,
        5277482388,
        5277482387,
        5277482386,
        5277482385,
        5277482384,
        5277482383,
        5277482390
      ],
      "tags": {
        "building": "yes",
        "name": "オークワ",
        "shop": "supermarket"
      }
    },
    {
      "type": "way",
      "id": 546364507,
      "center": {
        "lat": 35.0103496,
        "lon": 136.6486873
      },
      "nodes": [
        5279878661,
        5279878662,
        5279878663,
        5279878664,
        5279878661
      ],
      "tags": {
        "building": "yes",
        "name": "やまなか",
        "shop": "supermarket"
      }
    },
    {
      "type": "way",
      "id": 546395455,
      "center": {
        "lat": 35.0190639,
        "lon": 136.6381539
      },
      "nodes": [
        12151930111,
        12151930117,
        12151930116,
        5280156844,
        12151930115,
        12151930114,
        12151930118,
        5280156849,
        12151930119,
        12151930120,
        12151930121,
        12151930122,
        5280156846,
        5280156845,
        12151930110,
        12151930112,
        12151930113,
        12151930111
      ],
      "tags": {
        "building": "yes",
        "name": "マックスバリュ大矢知店",
        "shop": "supermarket"
      }
    },
    {
      "type": "way",
      "id": 546622090,
      "center": {
        "lat": 34.566861,
        "lon": 136.5084932
      },
      "nodes": [
        5282307242,
        5282307243,
        5282307238,
        5282307239,
        5282307240,
        5282307244,
        5282307245,
        5282307242
      ],
      "tags": {
        "building": "yes",
        "name": "魚源フード",
        "shop": "supermarket"
      }
    },
    {
      "type": "way",
      "id": 547339431,
      "center": {
        "lat": 34.7600067,
        "lon": 136.1365272
      },
      "nodes": [
        5288576432,
        5288576433,
        5338104119,
        5288576434,
        5288576435,
        5288576436,
        5288576437,
        5288576438,
        5288576439,
        5288576457,
        5288576432
      ],
      "tags": {
        "brand": "イオン",
        "brand:en": "AEON",
        "brand:ja": "イオン",
        "brand:wikidata": "Q11285951",
        "building": "retail",
        "height": "15 m",
        "landuse": "commercial",
        "name": "イオン",
        "name:en": "AEON",
        "name:ja": "イオン",
        "parking": "rooftop",
        "shop": "supermarket"
      }
    },
    {
      "type": "way",
      "id": 547789993,
      "center": {
        "lat": 34.5726573,
        "lon": 136.5222492
      },
      "nodes": [
        5292736934,
        5292736935,
        5292736936,
        5292736937,
        5292736938,
        5292736939,
        5292736934
      ],
      "tags": {
        "building": "yes",
        "name": "業務スーパー",
        "shop": "supermarket"
      }
    },
    {
      "type": "way",
      "id": 547934483,
      "center": {
        "lat": 34.682124,
        "lon": 136.5166388
      },
      "nodes": [
        5293872304,
        5293872305,
        5293872306,
        5293872307,
        5293872308,
        5293872309,
        5293872304
      ],
      "tags": {
        "building": "yes",
        "name": "トライアル　津藤方店",
        "shop": "supermarket"
      }
    },
    {
      "type": "way",
      "id": 548256549,
      "center": {
        "lat": 34.5625962,
        "lon": 136.5184325
      },
      "nodes": [
        5296651417,
        5296651418,
        5296651419,
        5296651420,
        5296651417
      ],
      "tags": {
        "building": "yes",
        "name": "ぎゅーとら",
        "shop": "supermarket"
      }
    },
    {
      "type": "way",
      "id": 548334114,
      "center": {
        "lat": 34.5779543,
        "lon": 136.5175332
      },
      "nodes": [
        5297354658,
        5297354659,
        5297354660,
        5297354661,
        5297354662,
        5297354658
      ],
      "tags": {
        "branch": "川井町店",
        "building": "yes",
        "name": "マックスバリュ",
        "shop": "supermarket"
      }
    },
    {
      "type": "way",
      "id": 548535552,
      "center": {
        "lat": 34.5696072,
        "lon": 136.5346367
      },
      "nodes": [
        5299225116,
        5299225117,
        5299225118,
        5299225119,
        5299225120,
        5299225221,
        5299225222,
        5299225116
      ],
      "tags": {
        "building": "yes",
        "name:en": "Okuwa Supermarket",
        "shop": "supermarket"
      }
    },
    {
      "type": "way",
      "id": 548672807,
      "center": {
        "lat": 34.7768088,
        "lon": 136.1248811
      },
      "nodes": [
        5300455405,
        5300455406,
        5300455407,
        5300455408,
        5300455409,
        5300455410,
        5300455411,
        5300455412,
        5300455405
      ],
      "tags": {
        "building": "retail",
        "name": "マックスバリュ 上野小田店",
        "name:en": "Max Value Ueno Ota",
        "shop": "supermarket"
      }
    },
    {
      "type": "way",
      "id": 548811949,
      "center": {
        "lat": 34.5791402,
        "lon": 136.5169222
      },
      "nodes": [
        5301725021,
        5301725022,
        5301725023,
        5301725024,
        5301725025,
        5301725026,
        5301725027,
        5301725028,
        5301725021
      ],
      "tags": {
        "building": "yes",
        "shop": "supermarket"
      }
    },
    {
      "type": "way",
      "id": 548822423,
      "center": {
        "lat": 34.5485581,
        "lon": 136.5277218
      },
      "nodes": [
        5301801685,
        5301801686,
        5301801687,
        5301801688,
        5301801689,
        5301801690,
        5301801691,
        5301801692,
        5301801693,
        5301801694,
        5301801695,
        5301801696,
        5301801697,
        5301801698,
        5301801685
      ],
      "tags": {
        "brand": "マックスバリュ",
        "brand:en": "Maxvalu Tokai",
        "brand:ja": "マックスバリュ",
        "brand:wikidata": "Q1960109",
        "brand:wikipedia": "en:MaxValu",
        "building": "yes",
        "name": "マックスバリュ",
        "name:en": "Maxvalu Tokai",
        "name:ja": "マックスバリュ",
        "shop": "supermarket"
      }
    },
    {
      "type": "way",
      "id": 550625064,
      "center": {
        "lat": 34.5190718,
        "lon": 136.6314686
      },
      "nodes": [
        5318242703,
        5318242704,
        5318242705,
        5318242706,
        5318242703
      ],
      "tags": {
        "brand": "業務スーパー",
        "brand:en": "Gyomu Super",
        "brand:ja": "業務スーパー",
        "brand:ja-Latn": "Gyōmu sūpā",
        "brand:wikidata": "Q11590183",
        "brand:wikipedia": "ja:神戸物産",
        "building": "yes",
        "name": "業務スーパー",
        "name:en": "Gyomu Super",
        "name:ja": "業務スーパー",
        "name:ja-Latn": "Gyōmu sūpā",
        "shop": "supermarket",
        "supermarket": "supermarket"
      }
    },
    {
      "type": "way",
      "id": 551250967,
      "center": {
        "lat": 34.6922513,
        "lon": 136.5138204
      },
      "nodes": [
        5323654511,
        5323654512,
        5323654513,
        5323654514,
        5323654515,
        5323654516,
        5323654511
      ],
      "tags": {
        "building": "yes",
        "name": "コスモス",
        "shop": "supermarket"
      }
    },
    {
      "type": "way",
      "id": 556880298,
      "center": {
        "lat": 34.5010417,
        "lon": 136.6573655
      },
      "nodes": [
        5371444099,
        9706092757,
        9706092756,
        5382317278,
        5371444100,
        5371444101,
        5371444102,
        5371444103,
        5371444104,
        5371444105,
        5371444106,
        5371444107,
        5371444108,
        9706092753,
        9706092752,
        5382317280,
        9706092754,
        9706092755,
        5371444099
      ],
      "tags": {
        "brand": "ドン・キホーテ",
        "brand:en": "Don Quijote",
        "brand:ja": "ドン・キホーテ",
        "brand:wikidata": "Q1185381",
        "building": "yes",
        "name": "MEGAドン・キホーテ",
        "name:en": "MEGA Don Quijote",
        "name:ja": "MEGAドン・キホーテ",
        "opening_hours": "24/7",
        "shop": "supermarket",
        "short_name": "MEGAドンキ",
        "short_name:en": "MegaDonki",
        "short_name:ja": "MEGAドンキ"
      }
    },
    {
      "type": "way",
      "id": 557566081,
      "center": {
        "lat": 34.4978756,
        "lon": 136.6978354
      },
      "nodes": [
        5377350532,
        5377350533,
        5377350534,
        5377350535,
        5377350532
      ],
      "tags": {
        "building": "yes",
        "shop": "supermarket"
      }
    },
    {
      "type": "way",
      "id": 558805303,
      "center": {
        "lat": 34.6665228,
        "lon": 136.4989567
      },
      "nodes": [
        5389742983,
        5389742984,
        5389742985,
        5389742986,
        5389742987,
        5389742988,
        5389742983
      ],
      "tags": {
        "building": "yes",
        "name": "オークワ津高茶屋店",
        "shop": "supermarket"
      }
    },
    {
      "type": "way",
      "id": 559343899,
      "center": {
        "lat": 34.5785958,
        "lon": 136.5420598
      },
      "nodes": [
        5395059104,
        5395059103,
        5395059100,
        5395059099,
        5395059102,
        5395059101,
        5395059104
      ],
      "tags": {
        "building": "yes",
        "name": "マックスバリュ 松阪中央店",
        "shop": "supermarket"
      }
    },
    {
      "type": "way",
      "id": 559571498,
      "center": {
        "lat": 34.4938347,
        "lon": 136.6740186
      },
      "nodes": [
        5397095537,
        5397095538,
        5397095539,
        5397095540,
        5397095541,
        11202303873,
        5397095542,
        11202303884,
        5397095537
      ],
      "tags": {
        "brand": "マックスバリュ",
        "brand:en": "MaxValu",
        "brand:ja": "マックスバリュ",
        "brand:wikidata": "Q11340427",
        "building": "yes",
        "name": "マックスバリュ",
        "name:en": "MaxValu",
        "name:ja": "マックスバリュ",
        "shop": "supermarket"
      }
    },
    {
      "type": "way",
      "id": 559668627,
      "center": {
        "lat": 34.4908026,
        "lon": 136.7290756
      },
      "nodes": [
        5397788332,
        11210536514,
        5397788333,
        5397788334,
        5397788335,
        5397788332
      ],
      "tags": {
        "building": "yes",
        "name": "ぎゅーとら",
        "shop": "supermarket"
      }
    },
    {
      "type": "way",
      "id": 559997170,
      "center": {
        "lat": 34.4867346,
        "lon": 136.6295071
      },
      "nodes": [
        5400559042,
        5400559043,
        5400559044,
        5400559045,
        5400559046,
        5400559047,
        5400559048,
        5400559049,
        5400559050,
        5400559051,
        5400559042
      ],
      "tags": {
        "building": "yes",
        "shop": "supermarket"
      }
    },
    {
      "type": "way",
      "id": 560845950,
      "center": {
        "lat": 34.5044673,
        "lon": 136.7185952
      },
      "nodes": [
        5408673914,
        5408673915,
        5408673916,
        5408673917,
        5408673918,
        5408673919,
        5408673920,
        5408674221,
        5408674222,
        5408673914
      ],
      "tags": {
        "building": "yes",
        "name": "ぎゅーとら",
        "name:en": "Gyu-tora",
        "shop": "supermarket"
      }
    },
    {
      "type": "way",
      "id": 561209318,
      "center": {
        "lat": 34.9879325,
        "lon": 136.6436386
      },
      "nodes": [
        5411876177,
        5411876178,
        5411876179,
        5411876180,
        5411876177
      ],
      "tags": {
        "building": "yes",
        "name": "ラ・ムー 四日市店",
        "shop": "supermarket"
      }
    },
    {
      "type": "way",
      "id": 561244914,
      "center": {
        "lat": 35.0333846,
        "lon": 136.5829576
      },
      "nodes": [
        5412111486,
        5412111487,
        5412111488,
        5412111489,
        5412111490,
        5412111493,
        5412111486
      ],
      "tags": {
        "branch": "山城店",
        "brand": "マックスバリュ",
        "brand:en": "Maxvalu Tokai",
        "brand:ja": "マックスバリュ",
        "brand:wikidata": "Q1960109",
        "brand:wikipedia": "en:MaxValu",
        "building": "yes",
        "name": "マックスバリュ",
        "name:en": "Maxvalu Tokai",
        "name:ja": "マックスバリュ",
        "shop": "supermarket"
      }
    },
    {
      "type": "way",
      "id": 561523784,
      "center": {
        "lat": 34.924414,
        "lon": 136.5878054
      },
      "nodes": [
        5414301376,
        5414301377,
        5414301378,
        5414301379,
        5414301380,
        5414301381,
        5414301382,
        5414301383,
        5414301376
      ],
      "tags": {
        "building": "yes",
        "name": "スーパーセンタートライアル 四日市南店",
        "shop": "supermarket"
      }
    },
    {
      "type": "way",
      "id": 561766186,
      "center": {
        "lat": 35.035652,
        "lon": 136.6560396
      },
      "nodes": [
        5416382281,
        5416382282,
        5416382283,
        5416382284,
        5416382285,
        5416382286,
        5416382281
      ],
      "tags": {
        "building": "yes",
        "name": "スーパーセンターオークワ みえ朝日インター店",
        "shop": "supermarket"
      }
    },
    {
      "type": "way",
      "id": 562473253,
      "center": {
        "lat": 34.5155971,
        "lon": 136.6374699
      },
      "nodes": [
        5422383482,
        9537132369,
        9537132370,
        9537132371,
        9537132372,
        9537132373,
        9537132374,
        9537132380,
        9537132379,
        9537132378,
        9537132377,
        9687628279,
        9537132376,
        9537132375,
        5422383483,
        5422383484,
        5422383485,
        5422383482
      ],
      "tags": {
        "brand": "ザ・ビッグ",
        "brand:en": "THE BIG",
        "brand:ja": "ザ・ビッグ",
        "brand:wikidata": "Q11306676",
        "building": "yes",
        "name": "ザ・ビッグ エクストラ",
        "name:en": "THE BIG",
        "name:ja": "ザ・ビッグ エクストラ",
        "shop": "supermarket"
      }
    },
    {
      "type": "way",
      "id": 563643881,
      "center": {
        "lat": 34.9604245,
        "lon": 136.6059369
      },
      "nodes": [
        5431380667,
        5431380668,
        5431380669,
        5431380670,
        5431380667
      ],
      "tags": {
        "building": "yes",
        "name": "一号館 ときわ店",
        "shop": "supermarket"
      }
    },
    {
      "type": "way",
      "id": 567645924,
      "center": {
        "lat": 34.9937934,
        "lon": 136.6275033
      },
      "nodes": [
        5463515389,
        5463515390,
        5463515391,
        5463515392,
        5463515393,
        5463515394,
        5463515395,
        5463515396,
        5463515389
      ],
      "tags": {
        "building": "yes",
        "name": "スギ薬局　別名店",
        "shop": "supermarket"
      }
    },
    {
      "type": "way",
      "id": 572354338,
      "center": {
        "lat": 34.9771738,
        "lon": 136.6197794
      },
      "nodes": [
        5498723266,
        5498723267,
        5498723268,
        5498723269,
        5498723270,
        5498723271,
        5498723266
      ],
      "tags": {
        "building": "yes",
        "name": "A-プライス 四日市店",
        "shop": "supermarket"
      }
    },
    {
      "type": "way",
      "id": 573166438,
      "center": {
        "lat": 35.0067509,
        "lon": 136.6433166
      },
      "nodes": [
        5505644694,
        5505644695,
        5505644696,
        5505644697,
        5505644698,
        5505644699,
        5505644700,
        5505644701,
        5505644694
      ],
      "tags": {
        "branch": "四日市富田店",
        "brand": "トライアル",
        "brand:en": "Trial",
        "brand:ja": "トライアル",
        "brand:wikidata": "Q11321723",
        "building": "yes",
        "name": "トライアル",
        "name:en": "Trial",
        "name:ja": "トライアル",
        "shop": "supermarket"
      }
    },
    {
      "type": "way",
      "id": 582258741,
      "center": {
        "lat": 34.9734593,
        "lon": 136.6077303
      },
      "nodes": [
        5569114211,
        5569114212,
        5569114213,
        5569114214,
        5569114215,
        5569114216,
        5569114217,
        5569114218,
        5569114219,
        5569114220,
        5569114621,
        5569114622,
        5569114211
      ],
      "tags": {
        "building": "yes",
        "name": "ピアゴ 久保田店",
        "shop": "supermarket"
      }
    },
    {
      "type": "way",
      "id": 604804648,
      "center": {
        "lat": 34.9605243,
        "lon": 136.6241687
      },
      "nodes": [
        5737990712,
        5737990713,
        5737990714,
        5737990715,
        5737990716,
        5737990717,
        5737990718,
        5737990719,
        5737990720,
        5737991721,
        5737991722,
        5737991723,
        5737991724,
        5737991725,
        5737991726,
        5737990712
      ],
      "tags": {
        "building": "yes",
        "name": "バロー 北浜田店",
        "shop": "supermarket"
      }
    },
    {
      "type": "way",
      "id": 611187386,
      "center": {
        "lat": 34.5221931,
        "lon": 136.6231002
      },
      "nodes": [
        5787127482,
        5787127483,
        9544758430,
        9544758429,
        5787127484,
        5787127485,
        5787127487,
        5787127486,
        5787127482
      ],
      "tags": {
        "building": "yes",
        "building:levels": "1",
        "name": "スーパーサンシ明和店",
        "shop": "supermarket",
        "supermarket": "supermarket"
      }
    },
    {
      "type": "way",
      "id": 616803675,
      "center": {
        "lat": 34.7356695,
        "lon": 136.4914092
      },
      "nodes": [
        5830916176,
        9382314246,
        9382314245,
        9382314244,
        9382314243,
        9382314242,
        9382314241,
        5830916179,
        5830916181,
        5830916177,
        9462147703,
        5830916176
      ],
      "tags": {
        "building": "yes",
        "name": "ぎゅーとらラブリー渋見店",
        "shop": "supermarket"
      }
    },
    {
      "type": "way",
      "id": 658381592,
      "center": {
        "lat": 34.2130529,
        "lon": 136.3352357
      },
      "nodes": [
        6165418857,
        6165418858,
        6165418859,
        6165418860,
        6165418857
      ],
      "tags": {
        "building": "yes",
        "name": "主婦の店長島店",
        "shop": "supermarket"
      }
    },
    {
      "type": "way",
      "id": 658381593,
      "center": {
        "lat": 34.210389,
        "lon": 136.3357378
      },
      "nodes": [
        6165418861,
        6611693006,
        6611693007,
        6165418862,
        6165418863,
        6165418864,
        6165418861
      ],
      "tags": {
        "brand": "オークワ",
        "brand:en": "Okuwa",
        "brand:ja": "オークワ",
        "brand:wikidata": "Q11293166",
        "brand:wikipedia": "ja:オークワ",
        "building": "yes",
        "name": "オークワ",
        "name:en": "Okuwa",
        "name:ja": "オークワ",
        "shop": "supermarket"
      }
    },
    {
      "type": "way",
      "id": 683354049,
      "center": {
        "lat": 34.6653217,
        "lon": 136.5023694
      },
      "nodes": [
        6400585998,
        6400585999,
        6400586000,
        6400586001,
        6400586002,
        6400586003,
        6400586004,
        6400586005,
        6400585998
      ],
      "tags": {
        "building": "yes",
        "name": "F☆マート 津南店",
        "shop": "supermarket"
      }
    },
    {
      "type": "way",
      "id": 704473245,
      "center": {
        "lat": 34.6083935,
        "lon": 136.1322196
      },
      "nodes": [
        6615908051,
        6615908052,
        6615908053,
        6615908054,
        6615908055,
        6615908056,
        6615908051
      ],
      "tags": {
        "building": "yes",
        "name": "やおひこ",
        "shop": "supermarket"
      }
    },
    {
      "type": "way",
      "id": 735034999,
      "center": {
        "lat": 34.6159239,
        "lon": 136.0977775
      },
      "nodes": [
        6883962737,
        6883962738,
        6883962739,
        6883962740,
        6883962741,
        6883962742,
        8881981850,
        6883962743,
        6883962744,
        6883962745,
        6883962746,
        6883962737
      ],
      "tags": {
        "brand": "マックスバリュ",
        "brand:en": "Maxvalu Tokai",
        "brand:ja": "マックスバリュ",
        "brand:wikidata": "Q1960109",
        "brand:wikipedia": "en:MaxValu",
        "building": "yes",
        "name": "マックスバリュ",
        "name:en": "Maxvalu Tokai",
        "name:ja": "マックスバリュ",
        "shop": "supermarket",
        "website": "https://www.mv-tokai.co.jp/store/6037/"
      }
    },
    {
      "type": "way",
      "id": 747184099,
      "center": {
        "lat": 34.6252735,
        "lon": 136.1225524
      },
      "nodes": [
        6991457603,
        6991457602,
        6991457601,
        6991457600,
        6991457599,
        6991457598,
        6991457597,
        6991457603
      ],
      "tags": {
        "building": "yes",
        "name": "リビング　ダイキ",
        "shop": "supermarket"
      }
    },
    {
      "type": "way",
      "id": 812391502,
      "center": {
        "lat": 34.9994054,
        "lon": 136.6314313
      },
      "nodes": [
        7588050650,
        7588050651,
        7588050652,
        9529022841,
        9529022842,
        9529022843,
        9529022846,
        9529022845,
        9529022844,
        7588050653,
        9529022840,
        9529022839,
        7588050650
      ],
      "tags": {
        "branch": "別名店",
        "brand": "バロー",
        "brand:en": "Valor",
        "brand:ja": "バロー",
        "brand:wikidata": "Q11328346",
        "brand:wikipedia": "ja:バロー (チェーンストア)",
        "building": "yes",
        "name": "バロー",
        "name:en": "Valor",
        "name:ja": "バロー",
        "shop": "supermarket"
      }
    },
    {
      "type": "way",
      "id": 836937185,
      "center": {
        "lat": 34.6365095,
        "lon": 136.0872837
      },
      "nodes": [
        7811104551,
        7811104552,
        7811104553,
        7811104554,
        7811104551
      ],
      "tags": {
        "building": "yes",
        "name": "オークボフーズ",
        "shop": "supermarket"
      }
    },
    {
      "type": "way",
      "id": 836941938,
      "center": {
        "lat": 34.6240509,
        "lon": 136.0908905
      },
      "nodes": [
        7811145945,
        7811145946,
        7811145947,
        7811145948,
        7811145945
      ],
      "tags": {
        "building": "yes",
        "name": "ふれあガーデン",
        "organic": "only",
        "shop": "supermarket"
      }
    },
    {
      "type": "way",
      "id": 838864966,
      "center": {
        "lat": 34.8277457,
        "lon": 136.5920149
      },
      "nodes": [
        7828167804,
        7828167805,
        7828167806,
        7828167807,
        7828167808,
        7828167809,
        7828167810,
        7828167811,
        7828167812,
        7828167813,
        7828167814,
        7828167815,
        7828167804
      ],
      "tags": {
        "building": "yes",
        "name": "魚魚鈴（ととりん）",
        "opening_hours": "Th-Mo 09:30-13:00",
        "shop": "supermarket",
        "website": "http://www.jfsuzuka.com/"
      }
    },
    {
      "type": "way",
      "id": 886807952,
      "center": {
        "lat": 34.0699063,
        "lon": 136.1865908
      },
      "nodes": [
        8246157406,
        8246157407,
        8246157408,
        8246157409,
        8246157410,
        8246157411,
        8246157412,
        8246157413,
        8246157406
      ],
      "tags": {
        "building": "retail",
        "name": "主婦の店 セントラルマーケット",
        "shop": "supermarket",
        "source": "GSImaps/seamlessphoto"
      }
    },
    {
      "type": "way",
      "id": 926950618,
      "center": {
        "lat": 34.6554023,
        "lon": 136.116686
      },
      "nodes": [
        8600875574,
        8600875575,
        8600875576,
        8600875577,
        8600875578,
        8600875579,
        8600875580,
        8600875581,
        8600875574
      ],
      "tags": {
        "brand": "オークワ",
        "brand:en": "Okuwa",
        "brand:ja": "オークワ",
        "brand:wikidata": "Q11293166",
        "brand:wikipedia": "ja:オークワ",
        "building": "retail",
        "name": "オークワ",
        "name:en": "Okuwa",
        "name:ja": "オークワ",
        "shop": "supermarket"
      }
    },
    {
      "type": "way",
      "id": 948629444,
      "center": {
        "lat": 34.6354022,
        "lon": 136.1033098
      },
      "nodes": [
        8780673494,
        8780673495,
        8780673496,
        8780673497,
        8780673494
      ],
      "tags": {
        "building": "yes",
        "shop": "supermarket"
      }
    },
    {
      "type": "way",
      "id": 962137076,
      "center": {
        "lat": 34.8343735,
        "lon": 136.5917437
      },
      "nodes": [
        8899864797,
        8899864798,
        8899864799,
        8899864800,
        8899864797
      ],
      "tags": {
        "building": "yes",
        "name": "中川米穀 お米の里",
        "shop": "supermarket"
      }
    },
    {
      "type": "way",
      "id": 1021210060,
      "center": {
        "lat": 34.9676244,
        "lon": 136.5924633
      },
      "nodes": [
        9418739670,
        9418739671,
        9418739672,
        9418739673,
        9418739674,
        9418739675,
        9418739676,
        9418739677,
        9418739670
      ],
      "tags": {
        "building": "yes",
        "name": "一号館",
        "shop": "supermarket"
      }
    },
    {
      "type": "way",
      "id": 1025640399,
      "center": {
        "lat": 34.8401479,
        "lon": 136.4775856
      },
      "nodes": [
        9456447317,
        9456447318,
        9456447319,
        9456447320,
        9456447321,
        9456447322,
        9456447323,
        9456447324,
        9456447317
      ],
      "tags": {
        "addr:city": "亀山市",
        "addr:housenumber": "1369-1",
        "addr:postcode": "519-0132",
        "addr:province": "三重県",
        "addr:quarter": "菅内町",
        "branch": "サウス亀山店",
        "brand": "オークワ",
        "brand:en": "Okuwa",
        "brand:ja": "オークワ",
        "brand:wikidata": "Q11293166",
        "brand:wikipedia": "ja:オークワ",
        "building": "yes",
        "name": "オークワ",
        "name:en": "Okuwa",
        "name:ja": "オークワ",
        "shop": "supermarket"
      }
    },
    {
      "type": "way",
      "id": 1025924100,
      "center": {
        "lat": 34.8017075,
        "lon": 136.4619976
      },
      "nodes": [
        9458820999,
        9458821000,
        9458821001,
        9458821002,
        9458821003,
        9458821004,
        9458821005,
        9458821006,
        9458820999
      ],
      "tags": {
        "building": "yes",
        "name": "朝津味",
        "shop": "supermarket"
      }
    },
    {
      "type": "way",
      "id": 1084154119,
      "center": {
        "lat": 34.7383308,
        "lon": 136.1574201
      },
      "nodes": [
        9934889267,
        9934889268,
        9934889269,
        9934889270,
        9934889267
      ],
      "tags": {
        "building": "service",
        "name": "PLANT伊賀店",
        "opening_hours": "Mo-Su 09:00-22:00",
        "phone": "+81595230700",
        "shop": "supermarket"
      }
    },
    {
      "type": "way",
      "id": 1095141037,
      "center": {
        "lat": 34.8785781,
        "lon": 136.5675637
      },
      "nodes": [
        10029311457,
        10029311463,
        10029311466,
        10029311465,
        10029311464,
        10029311458,
        10029311459,
        10029311460,
        10029311461,
        10029311462,
        10029311457
      ],
      "tags": {
        "branch": "西条店",
        "building": "yes",
        "name": "マルヤス",
        "opening_hours": "Mo-Su 09:00-21:00",
        "phone": "+81 59 384 2400",
        "shop": "supermarket"
      }
    },
    {
      "type": "way",
      "id": 1147984851,
      "center": {
        "lat": 34.0771612,
        "lon": 136.1888977
      },
      "nodes": [
        10681215614,
        10681215615,
        10681215616,
        10681215617,
        10681215618,
        10681215619,
        10681215620,
        10681215621,
        10681215622,
        10681215623,
        11935254312,
        10681215614
      ],
      "tags": {
        "branch": "尾鷲店",
        "brand": "イオン",
        "brand:en": "AEON",
        "brand:ja": "イオン",
        "brand:wikidata": "Q11285951",
        "brand:wikipedia": "ja:イオン (店舗ブランド)",
        "building": "yes",
        "name": "イオン",
        "name:en": "AEON",
        "name:ja": "イオン",
        "shop": "supermarket"
      }
    },
    {
      "type": "way",
      "id": 1157106351,
      "center": {
        "lat": 34.4964361,
        "lon": 136.5509411
      },
      "nodes": [
        10760428551,
        10760428550,
        10760428549,
        10760428548,
        10760428551
      ],
      "tags": {
        "building": "yes",
        "name": "ローソン多気相可店",
        "shop": "supermarket"
      }
    },
    {
      "type": "way",
      "id": 1162830301,
      "center": {
        "lat": 34.5771272,
        "lon": 136.5500717
      },
      "nodes": [
        10814739300,
        10814739301,
        10814739302,
        10814739303,
        10814739304,
        10814756905,
        10814756906,
        10814756907,
        10814756908,
        10814756909,
        10814756910,
        10814756911,
        10814739300
      ],
      "tags": {
        "branch": "松阪店",
        "brand": "トライアル",
        "brand:en": "Trial",
        "brand:ja": "トライアル",
        "brand:wikidata": "Q11321723",
        "building": "yes",
        "name": "トライアル",
        "name:en": "Trial",
        "name:ja": "トライアル",
        "shop": "supermarket"
      }
    },
    {
      "type": "way",
      "id": 1208859604,
      "center": {
        "lat": 34.5013931,
        "lon": 136.6666178
      },
      "nodes": [
        11200487780,
        11200487781,
        11200487782,
        11200487783,
        11200487784,
        11200487785,
        11200487786,
        11200487780
      ],
      "tags": {
        "brand": "トライアル",
        "brand:en": "Trial",
        "brand:ja": "トライアル",
        "brand:wikidata": "Q11321723",
        "building": "yes",
        "name": "トライアル",
        "name:en": "Trial",
        "name:ja": "トライアル",
        "shop": "supermarket"
      }
    },
    {
      "type": "way",
      "id": 1208859612,
      "center": {
        "lat": 34.4795036,
        "lon": 136.7042725
      },
      "nodes": [
        11200487834,
        11200487835,
        11200487836,
        11200538237,
        11200538238,
        11200538239,
        11200538240,
        11200538241,
        11200487834
      ],
      "tags": {
        "building": "yes",
        "name": "ベリー生鮮市場 藤里店",
        "shop": "supermarket"
      }
    },
    {
      "type": "way",
      "id": 1208913031,
      "center": {
        "lat": 34.4879424,
        "lon": 136.6911786
      },
      "nodes": [
        11201002744,
        11201002745,
        11201002746,
        11201002747,
        11201002744
      ],
      "tags": {
        "building": "yes",
        "name": "ぎゅーとら",
        "shop": "supermarket"
      }
    },
    {
      "type": "way",
      "id": 1276713138,
      "center": {
        "lat": 34.7314519,
        "lon": 136.4763594
      },