{
  "version": 0.6,
  "generator": "Overpass API 0.7.62.8 e802775f",
  "osm3s": {
    "timestamp_osm_base": "2025-10-15T12:25:19Z",
    "timestamp_areas_base": "2025-10-15T04:02:15Z",
    "copyright": "The data included in this document is from www.openstreetmap.org. The data is made available under ODbL."
  },
  "elements": [
    {
      "type": "node",
      "id": 519928138,
      "lat": 35.302374,
      "lon": 135.2576833,
      "tags": {
        "name": "アスパ",
        "ref": "綾部店",
        "shop": "supermarket"
      }
    },
    {
      "type": "node",
      "id": 528597948,
      "lat": 35.2720306,
      "lon": 135.1854413,
      "tags": {
        "addr:block_number": "114",
        "addr:city": "福知山市",
        "addr:housenumber": "13",
        "addr:neighbourhood": "手次",
        "addr:postcode": "620-0844",
        "addr:province": "京都府",
        "addr:quarter": "多保市",
        "name": "SUPERCENTER PLANT-3福知山店",
        "opening_hours": "Mo-Sa 09:30-21:30",
        "phone": "+81 0773 45 6800",
        "shop": "supermarket"
      }
    },
    {
      "type": "node",
      "id": 601571890,
      "lat": 34.9330687,
      "lon": 135.7657665,
      "tags": {
        "name": "フレスコ 桃山店",
        "name:en": "Fresco",
        "name:ja": "フレスコ 桃山店",
        "operator": "株式会社ハートフレンド",
        "shop": "supermarket"
      }
    },
    {
      "type": "node",
      "id": 628640527,
      "lat": 35.3016342,
      "lon": 135.2454995,
      "tags": {
        "brand": "マツモト",
        "name": "マツモト",
        "name:en": "Matsumoto",
        "name:ja": "マツモト",
        "name:ja_rm": "Matumoto",
        "shop": "supermarket"
      }
    },
    {
      "type": "node",
      "id": 632341918,
      "lat": 34.8646825,
      "lon": 135.7749345,
      "tags": {
        "name": "スーパー山田屋",
        "shop": "supermarket"
      }
    },
    {
      "type": "node",
      "id": 638872434,
      "lat": 34.8524425,
      "lon": 135.7725987,
      "tags": {
        "brand": "ライフ",
        "brand:en": "Life",
        "brand:ja": "ライフ",
        "brand:wikidata": "Q11346476",
        "brand:wikipedia": "ja:ライフコーポレーション",
        "name": "ライフ",
        "name:en": "Life",
        "name:ja": "ライフ",
        "name:ja_rm": "Raifu",
        "shop": "supermarket"
      }
    },
    {
      "type": "node",
      "id": 653101982,
      "lat": 34.8610978,
      "lon": 135.7762799,
      "tags": {
        "name": "ジャパン城陽店",
        "shop": "supermarket"
      }
    },
    {
      "type": "node",
      "id": 710456868,
      "lat": 34.7259288,
      "lon": 135.7901446,
      "tags": {
        "branch": "高の原店",
        "brand": "イオン",
        "brand:en": "AEON",
        "brand:ja": "イオン",
        "brand:wikidata": "Q11285951",
        "contact:phone": "+81 0774-75-1700",
        "name": "イオン",
        "name:en": "AEON",
        "name:ja": "イオン",
        "name:ja-Hira": "いおん",
        "name:ja-Latn": "Ion",
        "shop": "supermarket"
      }
    },
    {
      "type": "node",
      "id": 750473266,
      "lat": 35.4457582,
      "lon": 135.3396444,
      "tags": {
        "name": "三丸ストア",
        "shop": "supermarket"
      }
    },
    {
      "type": "node",
      "id": 790895918,
      "lat": 34.9626207,
      "lon": 135.7597296,
      "tags": {
        "brand": "マツモト",
        "name": "マツモト",
        "name:en": "Matsumoto",
        "name:ja": "マツモト",
        "name:ja_rm": "Matumoto",
        "shop": "supermarket"
      }
    },
    {
      "type": "node",
      "id": 1024504328,
      "lat": 35.4739003,
      "lon": 135.3657342,
      "tags": {
        "shop": "supermarket"
      }
    },
    {
      "type": "node",
      "id": 1167973156,
      "lat": 35.3024305,
      "lon": 135.1132991,
      "tags": {
        "addr:block_number": "103",
        "addr:city": "福知山市",
        "addr:neighbourhood": "2",
        "addr:postcode": "620-0055",
        "addr:province": "京都府",
        "addr:quarter": "篠尾新町",
        "name": "フレッシュバザール 福知山篠尾新町店",
        "name:en": "Fresh Bazaar Fukuchiyama-Saso-Shinmachi Branch",
        "opening_hours": "Mo-Sa 08:00-24:00",
        "phone": "+81 0773 22 1800",
        "shop": "supermarket"
      }
    },
    {
      "type": "node",
      "id": 1210530695,
      "lat": 34.9227584,
      "lon": 135.6925573,
      "tags": {
        "name": "イズミヤ",
        "shop": "supermarket",
        "wheelchair": "yes"
      }
    },
    {
      "type": "node",
      "id": 1210532958,
      "lat": 34.9269475,
      "lon": 135.6902832,
      "tags": {
        "level": "0;2",
        "name": "Seiyu",
        "name:ja": "西友",
        "opening_hours": "Mo-Su 09:00-21:00",
        "shop": "supermarket",
        "wheelchair": "yes"
      }
    },
    {
      "type": "node",
      "id": 1224217713,
      "lat": 35.030816,
      "lon": 135.7515784,
      "tags": {
        "name": "生鮮館なかむら堀川",
        "shop": "supermarket",
        "source": "survey",
        "wheelchair": "yes"
      }
    },
    {
      "type": "node",
      "id": 1244387623,
      "lat": 34.9964079,
      "lon": 135.7623347,
      "tags": {
        "fixme": "14階建集合住宅。サムティ有隣カマラードの1階",
        "name": "Fresco",
        "opening_hours": "24/7",
        "shop": "supermarket",
        "source": "Survey"
      }
    },
    {
      "type": "node",
      "id": 1305638290,
      "lat": 35.0506889,
      "lon": 135.7413435,
      "tags": {
        "brand": "サンディ",
        "brand:en": "Sundi",
        "brand:ja": "サンディ",
        "brand:wikidata": "Q11305717",
        "name": "サンディ",
        "name:ja": "サンディ",
        "payment:credit_cards": "yes",
        "payment:debit_cards": "yes",
        "shop": "supermarket"
      }
    },
    {
      "type": "node",
      "id": 1305639157,
      "lat": 35.056374,
      "lon": 135.7484317,
      "tags": {
        "name": "コープにしがも",
        "shop": "supermarket"
      }
    },
    {
      "type": "node",
      "id": 1314950472,
      "lat": 35.0539787,
      "lon": 135.758752,
      "tags": {
        "name": "生鮮館かみがも",
        "shop": "supermarket",
        "source": "survey"
      }
    },
    {
      "type": "node",
      "id": 1532496521,
      "lat": 35.0271603,
      "lon": 135.7310851,
      "tags": {
        "brand": "イズミヤ",
        "brand:en": "Izumiya",
        "brand:ja": "イズミヤ",
        "brand:wikidata": "Q11286632",
        "brand:wikipedia": "ja:イズミヤ",
        "level": "1",
        "name": "イズミヤ",
        "name:en": "Izumiya",
        "name:ja": "イズミヤ",
        "shop": "supermarket"
      }
    },
    {
      "type": "node",
      "id": 1532496529,
      "lat": 35.0264358,
      "lon": 135.731272,
      "tags": {
        "brand": "FRESCO",
        "name": "スーパーフレスコ",
        "name:en": "FRESCO",
        "name:ja": "スーパーフレスコ",
        "name:ja_rm": "Supa Furesuko",
        "shop": "supermarket",
        "source": "survey"
      }
    },
    {
      "type": "node",
      "id": 1577588673,
      "lat": 35.0131451,
      "lon": 135.7422289,
      "tags": {
        "branch": "二条駅前店",
        "brand": "ライフ",
        "brand:en": "Life",
        "brand:ja": "ライフ",
        "brand:wikidata": "Q11346476",
        "name": "ライフ",
        "name:en": "Life",
        "name:ja": "ライフ",
        "opening_hours": "Mo-Su 09:00-00:00",
        "shop": "supermarket"
      }
    },
    {
      "type": "node",
      "id": 1596279723,
      "lat": 35.0268264,
      "lon": 135.7182654,
      "tags": {
        "name": "Tamon",
        "shop": "supermarket"
      }
    },
    {
      "type": "node",
      "id": 1611280178,
      "lat": 35.0460379,
      "lon": 135.7482402,
      "tags": {
        "name": "かみとも",
        "shop": "supermarket",
        "source": "survey"
      }
    },
    {
      "type": "node",
      "id": 1611280428,
      "lat": 35.0496922,
      "lon": 135.7508911,
      "tags": {
        "name": "エムジー",
        "shop": "supermarket",
        "source": "survey"
      }
    },
    {
      "type": "node",
      "id": 1633799811,
      "lat": 34.956926,
      "lon": 135.814158,
      "tags": {
        "name": "社会福祉法人同和園　同和園",
        "note": "National-Land Numerical Information (Public Facility) 2006, MLIT Japan",
        "note:ja": "国土数値情報（公共施設データ）平成19年　国土交通省",
        "shop": "supermarket",
        "social_facility": "group_home",
        "source": "KSJ2",
        "source_ref": "http://nlftp.mlit.go.jp/ksj/jpgis/datalist/KsjTmplt-P02-v2_0.html"
      }
    },
    {
      "type": "node",
      "id": 1690287058,
      "lat": 35.0568631,
      "lon": 135.7492822,
      "tags": {
        "brand": "FRESCO",
        "name": "スーパーフレスコ",
        "name:en": "FRESCO",
        "name:ja": "スーパーフレスコ",
        "name:ja_rm": "Supa Furesuko",
        "shop": "supermarket",
        "source": "survey"
      }
    },
    {
      "type": "node",
      "id": 1700931959,
      "lat": 35.0738644,
      "lon": 135.7876867,
      "tags": {
        "name": "Aコープ",
        "shop": "supermarket",
        "source": "Bing; survey"
      }
    },
    {
      "type": "node",
      "id": 1700937697,
      "lat": 35.0645228,
      "lon": 135.7805548,
      "tags": {
        "brand": "LIFE",
        "name": "ライフ",
        "name:en": "LIFE",
        "name:ja": "ライフ",
        "name:ja_rm": "Raifu",
        "shop": "supermarket",
        "source": "Bing"
      }
    },
    {
      "type": "node",
      "id": 1705516860,
      "lat": 34.9809983,
      "lon": 135.6922679,
      "tags": {
        "branch": "桂店",
        "brand": "西友",
        "brand:en": "Seiyu",
        "brand:ja": "西友",
        "brand:wikidata": "Q3108542",
        "brand:wikipedia": "en:Seiyu Group",
        "name": "西友",
        "name:en": "Seiyu",
        "name:ja": "西友",
        "shop": "supermarket"
      }
    },
    {
      "type": "node",
      "id": 1706675670,
      "lat": 35.0641576,
      "lon": 135.7906394,
      "tags": {
        "brand": "FRESCO",
        "name": "スーパーフレスコ",
        "name:en": "FRESCO",
        "name:ja": "スーパーフレスコ",
        "name:ja_rm": "Supa Furesuko",
        "shop": "supermarket",
        "source": "survey"
      }
    },
    {
      "type": "node",
      "id": 1708303859,
      "lat": 35.0614854,
      "lon": 135.7437981,
      "tags": {
        "name": "エムジー",
        "shop": "supermarket",
        "source": "Bing; survey",
        "wheelchair": "yes"
      }
    },
    {
      "type": "node",
      "id": 1716954002,
      "lat": 35.0408891,
      "lon": 135.7479335,
      "tags": {
        "name": "エムジー",
        "shop": "supermarket",
        "source": "survey"
      }
    },
    {
      "type": "node",
      "id": 1717929100,
      "lat": 35.0483056,
      "lon": 135.7704815,
      "tags": {
        "brand": "FRIENDFOODS",
        "name": "フレンドフーズ",
        "name:en": "FRIENDFOODS",
        "name:ja": "スーパーマーケット フレンドフーズ",
        "name:ja_rm": "Furendofuuzu",
        "shop": "supermarket",
        "source": "survey"
      }
    },
    {
      "type": "node",
      "id": 1717929144,
      "lat": 35.0442149,
      "lon": 135.7702845,
      "tags": {
        "name": "生鮮館なかむら",
        "shop": "supermarket",
        "source": "survey"
      }
    },
    {
      "type": "node",
      "id": 1719170443,
      "lat": 35.0066211,
      "lon": 135.7201562,
      "tags": {
        "name": "kyoto coop",
        "shop": "supermarket",
        "source": "survey"
      }
    },
    {
      "type": "node",
      "id": 1719170474,
      "lat": 35.0403528,
      "lon": 135.735417,
      "tags": {
        "name": "エムジー",
        "shop": "supermarket",
        "source": "survey"
      }
    },
    {
      "type": "node",
      "id": 1719172742,
      "lat": 35.032767,
      "lon": 135.7312214,
      "tags": {
        "name": "生鮮館なかむら",
        "shop": "supermarket",
        "source": "survey"
      }
    },
    {
      "type": "node",
      "id": 1721783273,
      "lat": 35.0496025,
      "lon": 135.748599,
      "tags": {
        "name": "アイハートキムラ",
        "shop": "supermarket",
        "source": "survey"
      }
    },
    {
      "type": "node",
      "id": 1727572723,
      "lat": 35.0412827,
      "lon": 135.7811577,
      "tags": {
        "brand": "イズミヤ",
        "brand:en": "Izumiya",
        "brand:ja": "イズミヤ",
        "brand:wikidata": "Q11286632",
        "brand:wikipedia": "ja:イズミヤ",
        "name": "イズミヤ",
        "name:en": "Izumiya",
        "name:ja": "イズミヤ",
        "shop": "supermarket",
        "source": "survey",
        "wheelchair": "limited"
      }
    },
    {
      "type": "node",
      "id": 1736439288,
      "lat": 35.043668,
      "lon": 135.7915955,
      "tags": {
        "name": "マツノキ",
        "shop": "supermarket",
        "source": "survey"
      }
    },
    {
      "type": "node",
      "id": 1736439298,
      "lat": 35.0362086,
      "lon": 135.7914868,
      "tags": {
        "name": "生鮮館しらかわ",
        "shop": "supermarket"
      }
    },
    {
      "type": "node",
      "id": 1744291012,
      "lat": 35.0030126,
      "lon": 135.7488482,
      "tags": {
        "brand": "FRESCO",
        "name": "スーパーフレスコ",
        "name:en": "FRESCO",
        "name:ja": "スーパーフレスコ",
        "name:ja_rm": "Supa Furesuko",
        "shop": "supermarket",
        "source": "survey"
      }
    },
    {
      "type": "node",
      "id": 1774463502,
      "lat": 35.0321404,
      "lon": 135.7798732,
      "tags": {
        "name": "グレースたなか",
        "name:en": "GRACE TANAKA",
        "shop": "supermarket"
      }
    },
    {
      "type": "node",
      "id": 1854311056,
      "lat": 34.8819085,
      "lon": 135.8012969,
      "tags": {
        "addr:postcode": "611-0021",
        "name": "フレンドマート・G 宇治市役所前店",
        "shop": "supermarket"
      }
    },
    {
      "type": "node",
      "id": 1872231251,
      "lat": 34.9021546,
      "lon": 135.802407,
      "tags": {
        "name": "アル・プラザ宇治東",
        "operator": "平和堂",
        "shop": "supermarket",
        "source": "Survey"
      }
    },
    {
      "type": "node",
      "id": 1876123199,
      "lat": 34.9349253,
      "lon": 135.7928604,
      "tags": {
        "brand": "イズミヤ",
        "brand:en": "Izumiya",
        "brand:ja": "イズミヤ",
        "brand:wikidata": "Q11286632",
        "name": "イズミヤ",
        "name:en": "Izumiya",
        "name:ja": "イズミヤ",
        "shop": "supermarket"
      }
    },
    {
      "type": "node",
      "id": 1882246744,
      "lat": 34.9293048,
      "lon": 135.800281,
      "tags": {
        "check_date": "2023-09-05",
        "name": "キリン堂",
        "shop": "supermarket",
        "source": "survey"
      }
    },
    {
      "type": "node",
      "id": 1883295474,
      "lat": 34.9085596,
      "lon": 135.8039895,
      "tags": {
        "name": "マルシゲ",
        "operator": "マルシゲ",
        "shop": "supermarket",
        "website": "https://www.marushige.co.jp/store/?id=59"
      }
    },
    {
      "type": "node",
      "id": 1883296172,
      "lat": 34.91029,
      "lon": 135.8050733,
      "tags": {
        "name": "ハッピーテラダ",
        "shop": "supermarket"
      }
    },
    {
      "type": "node",
      "id": 1883538020,
      "lat": 34.8898005,
      "lon": 135.7985047,
      "tags": {
        "name": "ハッピーテラダ",
        "shop": "supermarket"
      }
    },
    {
      "type": "node",
      "id": 1969950819,
      "lat": 34.9486723,
      "lon": 135.6933817,
      "tags": {
        "brand": "マツモト",
        "name": "マツモト 大原野店",
        "name:en": "Matsumoto;Super Matsumoto",
        "name:ja": "マツモト",
        "name:ja_rm": "Matumoto",
        "opening_hours": "Mo-Su 09:00-23:00",
        "phone": "+81 75 335 5678",
        "shop": "supermarket"
      }
    },
    {
      "type": "node",
      "id": 1969953246,
      "lat": 34.9672936,
      "lon": 135.7174556,
      "tags": {
        "brand": "ダイエー",
        "brand:en": "daiei",
        "brand:ja": "ダイエー",
        "brand:wikidata": "Q11316644",
        "brand:wikipedia": "ja:ダイエー (店舗ブランド)",
        "name": "ダイエー",
        "name:en": "Daiei",
        "name:ja": "ダイエー",
        "name:ja_rm": "Daie",
        "shop": "supermarket"
      }
    },
    {
      "type": "node",
      "id": 1969955001,
      "lat": 34.9421131,
      "lon": 135.6992497,
      "tags": {
        "brand": "業務スーパー",
        "level": "0",
        "name": "業務スーパー",
        "name:en": "Gyomu Super",
        "name:ja": "業務スーパー",
        "name:ja_rm": "Gyomu Supa",
        "shop": "supermarket",
        "source": "survey, Bing 4/4/2011"
      }
    },
    {
      "type": "node",
      "id": 1972434649,
      "lat": 34.8909256,
      "lon": 135.7741876,
      "tags": {
        "name": "フレスコ",
        "shop": "supermarket"
      }
    },
    {
      "type": "node",
      "id": 1976198960,
      "lat": 34.8868545,
      "lon": 135.7688591,
      "tags": {
        "brand": "業務スーパー",
        "name": "業務スーパー",
        "name:en": "Gyomu Super",
        "name:ja": "業務スーパー",
        "name:ja_rm": "Gyomu Supa",
        "shop": "supermarket"
      }
    },
    {
      "type": "node",
      "id": 1996419504,
      "lat": 35.0311067,
      "lon": 135.7515486,
      "tags": {
        "brand": "FRESCO",
        "name": "スーパーフレスコ",
        "name:en": "FRESCO",
        "name:ja": "スーパーフレスコ",
        "name:ja_rm": "Supa Furesuko",
        "opening_hours": "24/7",
        "shop": "supermarket",
        "source": "survey",
        "wheelchair": "yes"
      }
    },
    {
      "type": "node",
      "id": 1996419518,
      "lat": 35.0303259,
      "lon": 135.7445607,
      "tags": {
        "brand": "業務スーパー",
        "brand:en": "Gyomu Super",
        "brand:ja": "業務スーパー",
        "brand:ja-Latn": "Gyōmu sūpā",
        "brand:wikidata": "Q11590183",
        "name": "業務スーパー",
        "name:en": "Gyomu Super",
        "name:ja": "業務スーパー",
        "name:ja-Latn": "Gyōmu sūpā",
        "opening_hours": "Mo-Su 09:00-21:00",
        "shop": "supermarket",
        "source": "survey"
      }
    },
    {
      "type": "node",
      "id": 2004322573,
      "lat": 34.9357202,
      "lon": 135.727814,
      "tags": {
        "name": "新鮮館コスモ",
        "shop": "supermarket",
        "source": "survey"
      }
    },
    {
      "type": "node",
      "id": 2006431296,
      "lat": 34.9791186,
      "lon": 135.7330539,
      "tags": {
        "brand": "グルメシティ",
        "brand:en": "Gourmet City",
        "brand:ja": "グルメシティ",
        "brand:wikidata": "Q11300647",
        "name": "グルメシティ",
        "name:en": "Gourmet City",
        "name:ja": "グルメシティ",
        "name:ja_rm": "Gurumeshithi",
        "shop": "supermarket",
        "source": "survey"
      }
    },
    {
      "type": "node",
      "id": 2057418222,
      "lat": 35.0746667,
      "lon": 135.787881,
      "tags": {
        "name": "エムジー",
        "shop": "supermarket",
        "source": "survey"
      }
    },
    {
      "type": "node",
      "id": 2068081526,
      "lat": 34.9625946,
      "lon": 135.7615792,
      "tags": {
        "brand": "業務スーパー",
        "brand:en": "Gyomu Super",
        "brand:ja": "業務スーパー",
        "brand:ja-Latn": "Gyōmu sūpā",
        "brand:wikidata": "Q105687460",
        "name": "業務スーパー",
        "name:en": "Gyomu Super",
        "name:ja": "業務スーパー",
        "name:ja-Latn": "Gyōmu sūpā",
        "name:ja_rm": "Gyomu Supa",
        "operator": "神戸物産",
        "shop": "supermarket"
      }
    },
    {
      "type": "node",
      "id": 2077213679,
      "lat": 34.9991123,
      "lon": 135.725198,
      "tags": {
        "brand": "業務スーパー",
        "name": "業務スーパー",
        "name:en": "Gyomu Super",
        "name:ja": "業務スーパー",
        "name:ja_rm": "Gyomu Supa",
        "operator": "神戸物産",
        "shop": "supermarket",
        "source": "survey"
      }
    },
    {
      "type": "node",
      "id": 2081018071,
      "lat": 35.044111,
      "lon": 135.7167934,
      "tags": {
        "name": "Marusho",
        "shop": "supermarket",
        "source": "survey"
      }
    },
    {
      "type": "node",
      "id": 2089715877,
      "lat": 35.0106686,
      "lon": 135.7252403,
      "tags": {
        "brand": "マツモト",
        "name": "マツモト",
        "name:en": "Matsumoto",
        "name:ja": "マツモト",
        "name:ja_rm": "Matumoto",
        "operator": "株式会社マツモト",
        "shop": "supermarket",
        "source": "survey"
      }
    },
    {
      "type": "node",
      "id": 2090168205,
      "lat": 34.9899715,
      "lon": 135.7245566,
      "tags": {
        "name": "A-PRICE",
        "shop": "supermarket",
        "source": "survey"
      }
    },
    {
      "type": "node",
      "id": 2099733295,
      "lat": 35.0442335,
      "lon": 135.7769386,
      "tags": {
        "name": "コープ下鴨",
        "shop": "supermarket",
        "source": "survey",
        "wheelchair": "yes"
      }
    },
    {
      "type": "node",
      "id": 2108455694,
      "lat": 35.0187842,
      "lon": 135.7359528,
      "tags": {
        "brand": "FRESCO",
        "name": "スーパーフレスコ",
        "name:en": "FRESCO",
        "name:ja": "スーパーフレスコ",
        "name:ja_rm": "Supa Furesuko",
        "operator": "ハートフレンド",
        "shop": "supermarket",
        "source": "survey"
      }
    },
    {
      "type": "node",
      "id": 2110511501,
      "lat": 35.0124892,
      "lon": 135.7418046,
      "tags": {
        "brand": "サンディ",
        "brand:en": "Sundi",
        "brand:ja": "サンディ",
        "brand:wikidata": "Q11305717",
        "name": "サンディ",
        "name:ja": "サンディ",
        "opening_hours": "Mo-Su 10:00-19:30",
        "shop": "supermarket",
        "source": "survey"
      }
    },
    {
      "type": "node",
      "id": 2110511701,
      "lat": 35.024352,
      "lon": 135.742604,
      "tags": {
        "brand": "FRESCO",
        "name": "スーパーフレスコ",
        "name:en": "FRESCO",
        "name:ja": "スーパーフレスコ",
        "name:ja_rm": "Supa Furesuko",
        "opening_hours": "24/7",
        "operator": "FRESCO",
        "shop": "supermarket",
        "source": "survey",
        "wheelchair": "yes"
      }
    },
    {
      "type": "node",
      "id": 2113428294,
      "lat": 34.9897318,
      "lon": 135.7320002,
      "tags": {
        "brand": "ライフ",
        "brand:en": "Life",
        "brand:ja": "ライフ",
        "brand:wikidata": "Q11346476",
        "brand:wikipedia": "ja:ライフコーポレーション",
        "name": "ライフ",
        "name:en": "Life",
        "name:ja": "ライフ",
        "name:ja_rm": "Raifu",
        "operator": "ライフコーポレーション",
        "shop": "supermarket",
        "source": "survey"
      }
    },
    {
      "type": "node",
      "id": 2118977604,
      "lat": 35.0107055,
      "lon": 135.7321763,
      "tags": {
        "brand": "FRESCO",
        "name": "スーパーフレスコ",
        "name:en": "FRESCO",
        "name:ja": "スーパーフレスコ",
        "name:ja_rm": "Supa Furesuko",
        "opening_hours": "24/7",
        "shop": "supermarket",
        "source": "survey"
      }
    },
    {
      "type": "node",
      "id": 2126071415,
      "lat": 35.0115612,
      "lon": 135.7726177,
      "tags": {
        "addr:city": "Kyoto",
        "branch": "川端店",
        "brand": "FRESCO",
        "name": "スーパーフレスコ",
        "name:en": "FRESCO",
        "name:ja": "スーパーフレスコ",
        "name:ja_rm": "Supa Furesuko",
        "opening_hours": "24/7",
        "phone": "+81 75-762-2461",
        "shop": "supermarket",
        "source": "survey"
      }
    },
    {
      "type": "node",
      "id": 2126071417,
      "lat": 35.0200656,
      "lon": 135.751571,
      "tags": {
        "addr:city": "上京区 (Kamigyo Ward)",
        "addr:housename": "西橋詰町",
        "addr:housenumber": "290",
        "addr:postcode": "602-8138",
        "addr:street": "堀川通 (Horikawa-dori);京都府道38号京都広河原美山線",
        "brand": "FRESCO",
        "name": "スーパーフレスコ",
        "name:en": "FRESCO",
        "name:ja": "スーパーフレスコ",
        "name:ja_rm": "Supa Furesuko",
        "opening_hours": "09:00-21:45",
        "operator": "株式会社ハートフレンド",
        "phone": "075-813-5931",
        "shop": "supermarket",
        "source": "survey",
        "website": "http://www.super-fresco.co.jp/shop/horikawa/"
      }
    },
    {
      "type": "node",
      "id": 2128974197,
      "lat": 35.0762334,
      "lon": 135.7878002,
      "tags": {
        "branch": "コープいわくら店",
        "name": "KYOTO COOP",
        "shop": "supermarket"
      }
    },
    {
      "type": "node",
      "id": 2254576272,
      "lat": 34.9421483,
      "lon": 135.6992059,
      "tags": {
        "branch": "向日町店",
        "contact:phone": "+81 75-931-1220",
        "level": "1",
        "name": "新鮮激安市場",
        "shop": "supermarket",
        "source": "survey, Bing 4/4/2011"
      }
    },
    {
      "type": "node",
      "id": 2259924900,
      "lat": 35.0340829,
      "lon": 135.7913946,
      "tags": {
        "brand": "FRESCO",
        "name": "スーパーフレスコ",
        "name:en": "FRESCO",
        "name:ja": "スーパーフレスコ",
        "name:ja_rm": "Supa Furesuko",
        "shop": "supermarket",
        "source": "survey"
      }
    },
    {
      "type": "node",
      "id": 2260184848,
      "lat": 35.023162,
      "lon": 135.7921114,
      "tags": {
        "brand": "FRESCO",
        "name": "スーパーフレスコ",
        "name:en": "FRESCO",
        "name:ja": "スーパーフレスコ",
        "name:ja_rm": "Supa Furesuko",
        "shop": "supermarket",
        "source": "survey"
      }
    },
    {
      "type": "node",
      "id": 2262605083,
      "lat": 35.0334607,
      "lon": 135.779559,
      "tags": {
        "branch": "さとのまえ",
        "name": "生鮮館",
        "shop": "supermarket",
        "source": "survey"
      }
    },
    {
      "type": "node",
      "id": 2262813584,
      "lat": 35.0174237,
      "lon": 135.7706408,
      "tags": {
        "brand": "FRESCO",
        "name": "スーパーフレスコ",
        "name:en": "FRESCO",
        "name:ja": "スーパーフレスコ",
        "name:ja_rm": "Supa Furesuko",
        "shop": "supermarket",
        "source": "survey"
      }
    },
    {
      "type": "node",
      "id": 2268261464,
      "lat": 35.0215166,
      "lon": 135.6977636,
      "tags": {
        "alt_name:en": "Co-op",
        "brand": "コープ",
        "brand:en": "CO・OP",
        "brand:ja": "コープ",
        "brand:wikidata": "Q11508615",
        "name": "コープ",
        "name:en": "CO・OP",
        "name:ja": "コープ",
        "official_name": "日本生活協同組合連合会",
        "official_name:en": "Japanese Consumers' Co-operative Union",
        "shop": "supermarket",
        "source": "survey"
      }
    },
    {
      "type": "node",
      "id": 2274867186,
      "lat": 35.017642,
      "lon": 135.778758,
      "tags": {
        "atm": "no",
        "delivery": "yes",
        "internet_access": "no",
        "name": "SUN PLAZA 熊野店",
        "phone": "+81-75-751-6868",
        "shop": "supermarket",
        "source": "survey",
        "wheelchair": "yes"
      }
    },
    {
      "type": "node",
      "id": 2323793185,
      "lat": 35.0056046,
      "lon": 135.6015918,
      "tags": {
        "brand": "マツモト",
        "name": "マツモト",
        "name:en": "Matsumoto",
        "name:ja": "マツモト",
        "name:ja_rm": "Matumoto",
        "shop": "supermarket"
      }
    },
    {
      "type": "node",
      "id": 2361381360,
      "lat": 35.0026608,
      "lon": 135.6997369,
      "tags": {
        "name": "フレンドマート",
        "shop": "supermarket",
        "source": "survey"
      }
    },
    {
      "type": "node",
      "id": 2361381367,
      "lat": 35.0033955,
      "lon": 135.6976333,
      "tags": {
        "brand": "業務スーパー",
        "name": "業務スーパー",
        "name:en": "Gyomu Super",
        "name:ja": "業務スーパー",
        "name:ja_rm": "Gyomu Supa",
        "operator": "神戸物産",
        "shop": "supermarket",
        "source": "survey"
      }
    },
    {
      "type": "node",
      "id": 2363128296,
      "lat": 35.002124,
      "lon": 135.6926819,
      "tags": {
        "brand": "FRESCO",
        "name": "スーパーフレスコ",
        "name:en": "FRESCO",
        "name:ja": "スーパーフレスコ",
        "name:ja_rm": "Supa Furesuko",
        "shop": "supermarket",
        "source": "survey"
      }
    },
    {
      "type": "node",
      "id": 2366459061,
      "lat": 35.0038101,
      "lon": 135.7549982,
      "tags": {
        "brand": "FRESCO",
        "name": "スーパーフレスコ",
        "name:en": "FRESCO",
        "name:ja": "スーパーフレスコ",
        "name:ja_rm": "Supa Furesuko",
        "opening_hours": "24/7",
        "shop": "supermarket",
        "source": "Survey",
        "toilets:wheelchair": "no",
        "wheelchair": "no"
      }
    },
    {
      "type": "node",
      "id": 2377073206,
      "lat": 35.0189287,
      "lon": 135.7097509,
      "tags": {
        "brand": "マツモト",
        "name": "マツモト",
        "name:en": "Matsumoto",
        "name:ja": "マツモト",
        "name:ja_rm": "Matumoto",
        "operator": "株式会社マツモト",
        "shop": "supermarket",
        "source": "survey",
        "wheelchair": "yes"
      }
    },
    {
      "type": "node",
      "id": 2377848741,
      "lat": 35.025236,
      "lon": 135.747649,
      "tags": {
        "atm": "no",
        "brand": "ライフ",
        "brand:en": "Life",
        "brand:ja": "ライフ",
        "brand:wikidata": "Q11346476",
        "name": "ライフ",
        "name:en": "Life",
        "name:ja": "ライフ",
        "opening_hours": "Mo-Su 09:00-22:00",
        "operator": "life",
        "shop": "supermarket",
        "source": "survey"
      }
    },
    {
      "type": "node",
      "id": 2378027546,
      "lat": 35.0274167,
      "lon": 135.7092559,
      "tags": {
        "name": "Friends Food",
        "shop": "supermarket",
        "source": "survey"
      }
    },
    {
      "type": "node",
      "id": 2389584487,
      "lat": 35.0274628,
      "lon": 135.7692624,
      "tags": {
        "name": "出町 輸入食品",
        "shop": "supermarket",
        "source": "survey"
      }
    },
    {
      "type": "node",
      "id": 2393959637,
      "lat": 34.9447275,
      "lon": 135.7509565,
      "tags": {
        "brand": "業務スーパー",
        "brand:en": "Gyomu Super",
        "brand:ja": "業務スーパー",
        "brand:ja-Latn": "Gyōmu sūpā",
        "brand:wikidata": "Q11590183",
        "name": "業務スーパー",
        "name:en": "Gyomu Super",
        "name:ja": "業務スーパー",
        "name:ja-Latn": "Gyōmu sūpā",
        "name:ja_rm": "Gyomu Supa",
        "operator": "神戸物産",
        "shop": "supermarket",
        "source": "survey"
      }
    },
    {
      "type": "node",
      "id": 2396271759,
      "lat": 35.0069842,
      "lon": 135.7199926,
      "tags": {
        "name": "フレンドマート",
        "shop": "supermarket",
        "source": "survey"
      }
    },
    {
      "type": "node",
      "id": 2554288261,
      "lat": 35.0087121,
      "lon": 135.5768686,
      "tags": {
        "brand": "業務スーパー",
        "name": "業務スーパー",
        "name:en": "Gyomu Super",
        "name:ja": "業務スーパー",
        "name:ja_rm": "Gyomu Supa",
        "operator": "神戸物産",
        "shop": "supermarket",
        "source": "survey"
      }
    },
    {
      "type": "node",
      "id": 2557113457,
      "lat": 35.0345851,
      "lon": 135.5501332,
      "tags": {
        "name": "やまむらや",
        "shop": "supermarket",
        "source": "survey"
      }
    },
    {
      "type": "node",
      "id": 2579565268,
      "lat": 35.0170585,
      "lon": 135.7513885,
      "tags": {
        "brand": "イズミヤ",
        "brand:en": "Izumiya",
        "brand:ja": "イズミヤ",
        "brand:wikidata": "Q11286632",
        "name": "イズミヤ",
        "name:en": "Izumiya",
        "name:ja": "イズミヤ",
        "opening_hours": "Mo-Su 09:00-00:00",
        "phone": "0758210001",
        "shop": "supermarket",
        "source": "survey",
        "wheelchair": "yes"
      }
    },
    {
      "type": "node",
      "id": 2590008542,
      "lat": 34.9834074,
      "lon": 135.6661384,
      "tags": {
        "branch": "桂坂店",
        "name": "デイリーカナート",
        "shop": "supermarket",
        "wheelchair": "yes"
      }
    },
    {
      "type": "node",
      "id": 2684549362,
      "lat": 35.024025,
      "lon": 135.751567,
      "tags": {
        "name": "八百 さる",
        "shop": "supermarket"
      }
    },
    {
      "type": "node",
      "id": 2692372708,
      "lat": 35.020161,
      "lon": 135.7514928,
      "tags": {
        "name": "アイハート",
        "shop": "supermarket"
      }
    },
    {
      "type": "node",
      "id": 2694605182,
      "lat": 34.965148,
      "lon": 135.6804315,
      "tags": {
        "name": "KYOTO COOP",
        "shop": "supermarket",
        "source": "survey"
      }
    },
    {
      "type": "node",
      "id": 2702082244,
      "lat": 34.9398068,
      "lon": 135.7616031,
      "tags": {
        "addr:city": "京都府京都市 伏見区下板橋町639",
        "addr:postcode": "612-8073",
        "name": "ハッピーテラダ伏見店",
        "shop": "supermarket"
      }
    },
    {
      "type": "node",
      "id": 2707014678,
      "lat": 34.8610939,
      "lon": 135.7126956,
      "tags": {
        "addr:block_number": "1",
        "addr:city": "八幡市",
        "addr:country": "JP",
        "addr:housenumber": "八幡一ノ坪23-1",
        "addr:neighbourhood": "23",
        "addr:postcode": "614-8043",
        "addr:province": "京都府",
        "addr:quarter": "八幡一ノ坪",
        "branch": "八幡",
        "branch:en": "Yawata",
        "brand": "イズミヤ",
        "brand:en": "Izumiya",
        "brand:ja": "イズミヤ",
        "brand:wikidata": "Q11286632",
        "brand:wikipedia": "ja:イズミヤ",
        "name": "イズミヤ",
        "name:en": "Izumiya",
        "name:ja": "イズミヤ",
        "opening_hours": "Mo-Su 09:00-21:00",
        "phone": "0759711285",
        "shop": "supermarket",
        "source": "survey",
        "website": "https://www.izumiya.co.jp/shop/101/"
      }
    },
    {
      "type": "node",
      "id": 2744633991,
      "lat": 35.0110623,
      "lon": 135.7565066,
      "tags": {
        "brand": "FRESCO",
        "check_date": "2024-12-03",
        "name": "スーパーフレスコ",
        "name:en": "FRESCO",
        "name:ja": "スーパーフレスコ",
        "name:ja_rm": "Supa Furesuko",
        "shop": "supermarket",
        "source": "survey"
      }
    },
    {
      "type": "node",
      "id": 2779392190,
      "lat": 35.0110319,
      "lon": 135.7153419,
      "tags": {
        "brand": "FRESCO",
        "name": "スーパーフレスコ",
        "name:en": "FRESCO",
        "name:ja": "スーパーフレスコ",
        "name:ja_rm": "Supa Furesuko",
        "shop": "supermarket",
        "source": "survey"
      }
    },
    {
      "type": "node",
      "id": 2784936556,
      "lat": 35.4471602,
      "lon": 135.350291,
      "tags": {
        "addr:city": "舞鶴市",
        "addr:neighbourhood": "467",
        "addr:postcode": "624-0905",
        "addr:province": "京都府",
        "addr:quarter": "福来",
        "name": "スーパーにしがき 福来店",
        "opening_hours": "Mo-Sa 09:30-20:00",
        "phone": "+81 0773 77 0303",
        "shop": "supermarket"
      }
    },
    {
      "type": "node",
      "id": 2792505327,
      "lat": 35.0282227,
      "lon": 135.7696765,
      "tags": {
        "brand": "FRESCO",
        "name": "スーパーフレスコ",
        "name:en": "FRESCO",
        "name:ja": "スーパーフレスコ",
        "name:ja_rm": "Supa Furesuko",
        "shop": "supermarket",
        "source": "survey"
      }
    },
    {
      "type": "node",
      "id": 2796441451,
      "lat": 35.0365627,
      "lon": 135.7433352,
      "tags": {
        "name": "エムジー",
        "name:ja": "エムジー",
        "opening_hours": "Mo-Su 09:30-21:00",
        "payment:cash": "yes",
        "payment:credit_cards": "yes",
        "payment:debit_cards": "yes",
        "shop": "supermarket",
        "source": "survey"
      }
    },
    {
      "type": "node",
      "id": 2796468790,
      "lat": 34.9900774,
      "lon": 135.7326324,
      "tags": {
        "brand": "FRESCO",
        "name": "スーパーフレスコ",
        "name:en": "FRESCO",
        "name:ja": "スーパーフレスコ",
        "name:ja_rm": "Supa Furesuko",
        "shop": "supermarket",
        "source": "survey"
      }
    },
    {
      "type": "node",
      "id": 2798389281,
      "lat": 35.4880021,
      "lon": 135.4375201,
      "tags": {
        "name": "ベルマート旬工房",
        "phone": "0773-62-9323",
        "shop": "supermarket"
      }
    },
    {
      "type": "node",
      "id": 2798862459,
      "lat": 35.0444228,
      "lon": 135.7916538,
      "tags": {
        "brand": "サンディ",
        "brand:en": "Sundi",
        "brand:ja": "サンディ",
        "brand:wikidata": "Q11305717",
        "name": "サンディ",
        "name:ja": "サンディ",
        "shop": "supermarket",
        "source": "survey"
      }
    },
    {
      "type": "node",
      "id": 2899220395,
      "lat": 35.0037569,
      "lon": 135.7502132,
      "tags": {
        "name": "モリタ屋",
        "shop": "supermarket",
        "source": "survey"
      }
    },
    {
      "type": "node",
      "id": 2935548505,
      "lat": 34.9268428,
      "lon": 135.6917226,
      "tags": {
        "level": "0",
        "name": "リバティ",
        "name:en": "Liberty",
        "opening_hours": "Mo-Su 09:00-21:00",
        "shop": "supermarket",
        "wheelchair": "yes"
      }
    },
    {
      "type": "node",
      "id": 2936377100,
      "lat": 34.9785754,
      "lon": 135.737911,
      "tags": {
        "level": "0",
        "name": "新鮮激安市場！",
        "shop": "supermarket"
      }
    },
    {
      "type": "node",
      "id": 2990646333,
      "lat": 34.9959772,
      "lon": 135.7557676,
      "tags": {
        "name": "フレスコ",
        "opening_hours": "24/7",
        "phone": "075-353-9751",
        "shop": "supermarket"
      }
    },
    {
      "type": "node",
      "id": 3016190380,
      "lat": 35.1094427,
      "lon": 135.4730734,
      "tags": {
        "name": "A・COOP",
        "shop": "supermarket"
      }
    },
    {
      "type": "node",
      "id": 3160561502,
      "lat": 34.933793,
      "lon": 135.7634423,
      "tags": {
        "name": "阪急オアシス",
        "shop": "supermarket",
        "source": "survey"
      }
    },
    {
      "type": "node",
      "id": 3161850472,
      "lat": 34.998962,
      "lon": 135.776982,
      "tags": {
        "name": "FRESCO",
        "opening_hours": "24/7",
        "shop": "supermarket"
      }
    },
    {
      "type": "node",
      "id": 3162457062,
      "lat": 35.0009878,
      "lon": 135.766728,
      "tags": {
        "branch": "四条寺町店",
        "brand": "業務スーパー",
        "brand:en": "Gyomu Super",
        "brand:ja": "業務スーパー",
        "brand:ja-Latn": "Gyōmu sūpā",
        "brand:wikidata": "Q11590183",
        "name": "業務スーパー",
        "name:en": "Gyomu Super",
        "name:ja": "業務スーパー",
        "name:ja-Latn": "Gyōmu sūpā",
        "opening_hours": "Mo-Su 09:00-22:00",
        "shop": "supermarket"
      }
    },
    {
      "type": "node",
      "id": 3162468261,
      "lat": 35.000608,
      "lon": 135.766717,
      "tags": {
        "name": "FRESCO",
        "opening_hours": "24/7",
        "shop": "supermarket"
      }
    },
    {
      "type": "node",
      "id": 3302144861,
      "lat": 34.995597,
      "lon": 135.766475,
      "tags": {
        "addr:block_number": "16-21",
        "addr:city": "京都市",
        "addr:province": "京都府",
        "addr:quarter": "五条通寺町西入御影堂町",
        "addr:suburb": "下京区",
        "name": "フレスコ五条大橋店",
        "opening_hours": "24/7",
        "phone": "+81 75 708 2921",
        "shop": "supermarket",
        "source": "Survey"
      }
    },
    {
      "type": "node",
      "id": 3506395929,
      "lat": 35.5122056,
      "lon": 135.101246,
      "tags": {
        "addr:housenumber": "5",
        "addr:postcode": "629-2414",
        "addr:street": "京都府道626号野田川加悦線",
        "name": "ウィル",
        "name:en": "Will",
        "name:ja": "加悦谷ショッピングプラザ ウィル",
        "opening_hours": "Mo-Su 09:30-20:00",
        "phone": "0772-42-7891",
        "shop": "supermarket",
        "source": "Bing"
      }
    },
    {
      "type": "node",
      "id": 3537793259,
      "lat": 34.9354519,
      "lon": 135.7456425,
      "tags": {
        "brand": "バロー",
        "brand:en": "Valor",
        "brand:ja": "バロー",
        "brand:wikidata": "Q11328346",
        "brand:wikipedia": "ja:バロー (チェーンストア)",
        "name": "バロー",
        "name:en": "Valor",
        "name:ja": "バロー",
        "shop": "supermarket",
        "source": "survey"
      }
    },
    {
      "type": "node",
      "id": 3576436969,
      "lat": 35.0079871,
      "lon": 135.7405211,
      "tags": {
        "name": "卸売ひろば タカギ",
        "shop": "supermarket"
      }
    },
    {
      "type": "node",
      "id": 3577949207,
      "lat": 34.9914085,
      "lon": 135.5900122,
      "tags": {
        "name": "マツモト",
        "opening_hours": "9:00-22:00",
        "shop": "supermarket"
      }
    },
    {
      "type": "node",
      "id": 3591682913,
      "lat": 35.027176,
      "lon": 135.791744,
      "tags": {
        "level": "0;1",
        "name": "マルギン",
        "shop": "supermarket",
        "source": "Survey"
      }
    },
    {
      "type": "node",
      "id": 3686518631,
      "lat": 34.992862,
      "lon": 135.73254,
      "tags": {
        "name": "セントラルスクエア",
        "shop": "supermarket",
        "toilets:wheelchair": "yes",
        "wheelchair": "yes"
      }
    },
    {
      "type": "node",
      "id": 3699520422,
      "lat": 35.5369159,
      "lon": 135.2018276,
      "tags": {
        "addr:block_number": "3",
        "addr:city": "宮津市",
        "addr:neighbourhood": "2160",
        "addr:postcode": "626-0041",
        "addr:province": "京都府",
        "addr:quarter": "鶴賀",
        "name": "にしがき宮津店",
        "opening_hours": "Mo-Sa 08:00-18:00",
        "phone": "+81 0772 22 8855",
        "shop": "supermarket",
        "source": "survey"
      }
    },
    {
      "type": "node",
      "id": 3742231290,
      "lat": 34.8987113,
      "lon": 135.8072905,
      "tags": {
        "branch": "三室戸店",
        "name": "ハッピー六原",
        "shop": "supermarket"
      }
    },
    {
      "type": "node",
      "id": 3803223281,
      "lat": 35.0100353,
      "lon": 135.4815286,
      "tags": {
        "name": "かね新",
        "shop": "supermarket"
      }
    },
    {
      "type": "node",
      "id": 3812545637,
      "lat": 34.957216,
      "lon": 135.7695416,
      "tags": {
        "branch": "藤森店",
        "brand": "マックスバリュ",
        "brand:en": "MaxValu",
        "brand:ja": "マックスバリュ",
        "brand:wikidata": "Q11340427",
        "name": "マックスバリュ",
        "name:en": "MaxValu",
        "name:ja": "マックスバリュ",
        "old_brand": "ダイエー",
        "old_brand:en": "daiei",
        "old_brand:ja": "ダイエー",
        "old_brand:wikidata": "Q11316644",
        "old_name": "ダイエー",
        "old_name:en": "Daiei",
        "old_name:ja": "ダイエー",
        "opening_hours": "07:00-24:00",
        "operator": "イオン株式会社",
        "shop": "supermarket",
        "wheelchair": "yes"
      }
    },
    {
      "type": "node",
      "id": 3974022152,
      "lat": 34.9375905,
      "lon": 135.7952322,
      "tags": {
        "check_date": "2024-09-20",
        "level": "0",
        "name": "フレンドマート",
        "operator": "平和堂",
        "shop": "supermarket"
      }
    },
    {
      "type": "node",
      "id": 4182359725,
      "lat": 34.8920618,
      "lon": 135.7940924,
      "tags": {
        "name": "フレンドマート",
        "shop": "supermarket"
      }
    },
    {
      "type": "node",
      "id": 4273144993,
      "lat": 34.9195137,
      "lon": 135.6972053,
      "tags": {
        "name": "業務スーパー長岡京店",
        "opening_hours": "9:00-20:00",
        "shop": "supermarket"
      }
    },
    {
      "type": "node",
      "id": 4273152096,
      "lat": 34.9167003,
      "lon": 135.6937874,
      "tags": {
        "level": "0",
        "name": "コープながおか",
        "operator": "生活協同組合",
        "shop": "supermarket"
      }
    },
    {
      "type": "node",
      "id": 4274049928,
      "lat": 34.916113,
      "lon": 135.68794,
      "tags": {
        "name": "Mandai 長岡京店",
        "opening_hours": "09:00-21:45",
        "shop": "supermarket"
      }
    },
    {
      "type": "node",
      "id": 4305625290,
      "lat": 34.9191902,
      "lon": 135.799863,
      "tags": {
        "addr:block_number": "10",
        "addr:city": "宇治市",
        "addr:neighbourhood": "南端",
        "addr:postcode": "611-0002",
        "addr:province": "京都府",
        "addr:quarter": "木幡",
        "alt_name": "フレスコ",
        "alt_name:ja": "フレスコ",
        "level": "0",
        "name": "FRESCO",
        "name:ja": "FRESCO",
        "name:ja-Hira": "ふれすこ",
        "name:ja-Latn": "Furesuko",
        "operator": "ハートフレンド",
        "phone": "+81 774 31 4881",
        "shop": "supermarket",
        "website": "https://www.super-fresco.co.jp/store/fresco/kyoto/uji/kohata/"
      }
    },
    {
      "type": "node",
      "id": 4315308190,
      "lat": 35.0110748,
      "lon": 135.7638748,
      "tags": {
        "name": "Fresco Oike",
        "shop": "supermarket"
      }
    },
    {
      "type": "node",
      "id": 4460449691,
      "lat": 34.9947742,
      "lon": 135.7249234,
      "tags": {
        "brand": "万代",
        "brand:en": "MANDAI",
        "brand:ja": "万代",
        "brand:wikidata": "Q11353756",
        "name": "万代",
        "name:en": "MANDAI",
        "name:ja": "万代",
        "shop": "supermarket"
      }
    },
    {
      "type": "node",
      "id": 4467398389,
      "lat": 35.008394,
      "lon": 135.7442315,
      "tags": {
        "name:en": "Fresco",
        "opening_hours": "Mo-Su 09:00-01:00",
        "shop": "supermarket"
      }
    },
    {
      "type": "node",
      "id": 4480787474,
      "lat": 34.850818,
      "lon": 135.8557066,
      "tags": {
        "addr:city": "Tsuzuki-gun",
        "addr:postcode": "610-0241",
        "addr:street": "Ujitawara-chō, Minami, Ine, 京都府綴喜郡宇治田原町大字南小字亥子",
        "name": "サンフレッシュ 宇治田原店",
        "name:en": "Sun Fresh Ujitawara Shop",
        "opening_hours": "09:00-21:00",
        "phone": "0774-88-6085",
        "shop": "supermarket",
        "website": "super-sunfresh.net"
      }
    },
    {
      "type": "node",
      "id": 4509722189,
      "lat": 34.9906658,
      "lon": 135.6944781,
      "tags": {
        "name": "マルシェ上桂",
        "name:ja": "マルシェ上桂",
        "shop": "supermarket"
      }
    },
    {
      "type": "node",
      "id": 4531051337,
      "lat": 34.9367035,
      "lon": 135.762465,
      "tags": {
        "name": "コープ桃山",
        "shop": "supermarket"
      }
    },
    {
      "type": "node",
      "id": 4547470990,
      "lat": 34.9972357,
      "lon": 135.7747822,
      "tags": {
        "name": "ハッピー六原",
        "name:ja": "ハッピー六原",
        "shop": "supermarket"
      }
    },
    {
      "type": "node",
      "id": 4581698727,
      "lat": 34.8511651,
      "lon": 135.7087688,
      "tags": {
        "addr:housenumber": "美濃山西ノ口3-1",
        "addr:postcode": "6148278",
        "addr:street": "山手幹線,京都府道284号八幡インター線",
        "internet_access": "wlan",
        "name": "ファミリーマート八幡美濃山店",
        "opening_hours": "24/7",
        "phone": "0759713030",
        "shop": "supermarket"
      }
    },
    {
      "type": "node",
      "id": 4590083829,
      "lat": 34.9887658,
      "lon": 135.7269918,
      "tags": {
        "brand": "サンディ",
        "brand:en": "Sundi",
        "brand:ja": "サンディ",
        "brand:wikidata": "Q11305717",
        "name": "サンディ",
        "name:ja": "サンディ",
        "shop": "supermarket",
        "source": "survey"
      }
    },
    {
      "type": "node",
      "id": 4592136078,
      "lat": 34.9750717,
      "lon": 135.7363217,
      "tags": {
        "name": "イオン京都洛南店",
        "shop": "supermarket"
      }
    },
    {
      "type": "node",
      "id": 4605170169,
      "lat": 34.9738413,
      "lon": 135.7502011,
      "tags": {
        "name": "PAKET",
        "name:ja": "いそかわ パケット十条店",
        "shop": "supermarket"
      }
    },
    {
      "type": "node",
      "id": 4708234927,
      "lat": 34.7140968,
      "lon": 135.8350132,
      "tags": {
        "addr:block_number": "1",
        "addr:city": "木津川市",
        "addr:housenumber": "5",
        "addr:neighbourhood": "8丁目",
        "addr:postcode": "6190215",
        "addr:province": "京都府",
        "addr:quarter": "梅美台",
        "branch": "梅美台店",
        "name": "中村屋",
        "opening_hours": "Mo-Su 09:00-21:00",
        "payment:cash": "yes",
        "payment:credit_cards": "yes",
        "phone": "0774-72-9800",
        "shop": "supermarket",
        "website": "https://nara-nakamuraya.site/tempo/"
      }
    },
    {
      "type": "node",
      "id": 4737178124,
      "lat": 34.7998235,
      "lon": 135.783506,
      "tags": {
        "name": "サンディ",
        "shop": "supermarket"
      }
    },
    {
      "type": "node",
      "id": 4791171125,
      "lat": 35.0254687,
      "lon": 135.7731768,
      "tags": {
        "name:en": "Life Supermarket",
        "shop": "supermarket"
      }
    },
    {
      "type": "node",
      "id": 4796442221,
      "lat": 35.0285651,
      "lon": 135.7790144,
      "tags": {
        "name": "¥100 Store (Can-do like)",
        "shop": "supermarket"
      }
    },
    {
      "type": "node",
      "id": 4824373722,
      "lat": 34.7457354,
      "lon": 135.7662502,
      "tags": {
        "branch": "精華店",
        "name": "ラ・ムー",
        "shop": "supermarket"
      }
    },
    {
      "type": "node",
      "id": 5003398021,
      "lat": 35.0075051,
      "lon": 135.7692388,
      "tags": {
        "addr:street": "六角通",
        "brand": "業務スーパー",
        "brand:en": "Gyomu Super",
        "brand:ja": "業務スーパー",
        "brand:ja-Latn": "Gyōmu sūpā",
        "brand:wikidata": "Q11590183",
        "name": "業務スーパー",
        "name:en": "Gyomu Super",
        "name:ja": "業務スーパー",
        "name:ja-Latn": "Gyōmu sūpā",
        "opening_hours": "Mo-Su 10:00-22:00",
        "phone": "752115959",
        "shop": "supermarket"
      }
    },
    {
      "type": "node",
      "id": 5004748822,
      "lat": 35.0161981,
      "lon": 135.7356924,
      "tags": {
        "addr:street": "太子道",
        "name": "業務スーパー",
        "name:ja": "業務スーパー",
        "opening_hours": "Mo-Su 10:00-20:00",
        "phone": "758138444",
        "shop": "supermarket"
      }
    },
    {
      "type": "node",
      "id": 5037296409,
      "lat": 34.8910407,
      "lon": 135.8036689,
      "tags": {
        "check_date": "2024-10-27",
        "name": "食品館アプロ 宇治店",
        "opening_hours": "09:30-21:00",
        "shop": "supermarket",
        "takeout": "only"
      }
    },
    {
      "type": "node",
      "id": 5135296450,
      "lat": 34.9791185,
      "lon": 135.7510667,
      "tags": {
        "brand": "FRESCO",
        "level": "0",
        "name": "スーパーフレスコ",
        "name:en": "FRESCO",
        "name:ja": "スーパーフレスコ",
        "name:ja_rm": "Supa Furesuko",
        "shop": "supermarket",
        "source": "bing,survey"
      }
    },
    {
      "type": "node",
      "id": 5148065548,
      "lat": 34.9108916,
      "lon": 135.7823641,
      "tags": {
        "name": "スーパーマツモト",
        "shop": "supermarket"
      }
    },
    {
      "type": "node",
      "id": 5188548021,
      "lat": 34.9977701,
      "lon": 135.7580336,
      "tags": {
        "name": "Mini Stop",
        "opening_hours": "24/7",
        "phone": "075-341-6616",
        "shop": "supermarket"
      }
    },
    {
      "type": "node",
      "id": 5209477424,
      "lat": 35.0172435,
      "lon": 135.7572976,
      "tags": {
        "branch": "丸太町店",
        "name": "フレスコ",
        "shop": "supermarket"
      }
    },
    {
      "type": "node",
      "id": 5218091722,
      "lat": 35.0085811,
      "lon": 135.7473676,
      "tags": {
        "brand": "西友",
        "brand:en": "Seiyu",
        "brand:ja": "西友",
        "brand:wikidata": "Q3108542",
        "name": "西友",
        "name:en": "Seiyu",
        "name:ja": "西友",
        "opening_hours": "Mo-Su 09:00-21:00",
        "shop": "supermarket",
        "wheelchair": "limited"
      }
    },
    {
      "type": "node",
      "id": 5279645083,
      "lat": 34.9823968,
      "lon": 135.7547282,
      "tags": {
        "branch": "京都店",
        "check_date": "2023-10-05",
        "name": "KOHYO",
        "shop": "supermarket",
        "website": "https://www.kohyo.co.jp/"
      }
    },
    {
      "type": "node",
      "id": 5334535138,
      "lat": 34.8567054,
      "lon": 135.7823439,
      "tags": {
        "name": "ドラッグユタカ城陽寺田店",
        "shop": "supermarket"
      }
    },
    {
      "type": "node",
      "id": 5334535974,
      "lat": 34.8561595,
      "lon": 135.7824262,
      "tags": {
        "name": "京都coop",
        "shop": "supermarket"
      }
    },
    {
      "type": "node",
      "id": 5367489353,
      "lat": 34.975473,
      "lon": 135.7060995,
      "tags": {
        "name": "スーパーマツモト",
        "opening_hours": "Mo-Su 09:00-22:00",
        "shop": "supermarket"
      }
    },
    {
      "type": "node",
      "id": 5369880031,
      "lat": 35.4682369,
      "lon": 135.4055179,
      "tags": {
        "name": "石田商店",
        "shop": "supermarket"
      }
    },
    {
      "type": "node",
      "id": 5369881248,
      "lat": 35.4693203,
      "lon": 135.4051338,
      "tags": {
        "addr:block_number": "1",
        "addr:city": "舞鶴市",
        "addr:neighbourhood": "20",
        "addr:postcode": "625-0041",
        "addr:province": "京都府",
        "addr:quarter": "溝尻中町",
        "brand": "業務スーパー",
        "brand:en": "Gyōmu sūpā",
        "brand:ja": "業務スーパー",
        "brand:wikidata": "Q11590183",
        "brand:wikipedia": "ja:神戸物産",
        "name": "業務スーパー",
        "name:en": "Gyōmu sūpā",
        "name:ja": "業務スーパー",
        "opening_hours": "Mo-Sa 09:00-21:00",
        "phone": "+81 0773 63 5290",
        "shop": "supermarket"
      }
    },
    {
      "type": "node",
      "id": 5382298524,
      "lat": 35.0093648,
      "lon": 135.7790033,
      "tags": {
        "addr:city": "東山区",
        "addr:neighbourhood": "６",
        "addr:province": "京都府",
        "addr:quarter": "三条通大橋東",
        "name": "島田食料品店",
        "name:en": "Shimada Grocery Store",
        "opening_hours": "Mo-Su 09:00-19:00",
        "shop": "supermarket"
      }
    },
    {
      "type": "node",
      "id": 5382328140,
      "lat": 35.0090094,
      "lon": 135.7789666,
      "tags": {
        "name": "野田屋川魚店",
        "name:en": "Nodaya River Fish Store",
        "shop": "supermarket"
      }
    },
    {
      "type": "node",
      "id": 5382328141,
      "lat": 35.0085646,
      "lon": 135.7788952,
      "tags": {
        "name": "阪本商店",
        "name:en": "Sakamoto Store",
        "shop": "supermarket"
      }
    },
    {
      "type": "node",
      "id": 5385239242,
      "lat": 35.3106531,
      "lon": 135.2789052,
      "tags": {
        "name": "三ッ丸ストア 下八田店",
        "shop": "supermarket"
      }
    },
    {
      "type": "node",
      "id": 5388918223,
      "lat": 35.3018149,
      "lon": 135.2497631,
      "tags": {
        "name": "フレッシュバザール 綾部幸通り店",
        "shop": "supermarket"
      }
    },
    {
      "type": "node",
      "id": 5389330037,
      "lat": 35.2987489,
      "lon": 135.2544934,
      "tags": {
        "name": "樋口商会",
        "shop": "supermarket"
      }
    },
    {
      "type": "node",
      "id": 5389330070,
      "lat": 35.2974414,
      "lon": 135.2587246,
      "tags": {
        "name": "いっぷく半月庵 丹の国店",
        "shop": "supermarket"
      }
    },
    {
      "type": "node",
      "id": 5389351725,
      "lat": 35.3037524,
      "lon": 135.2235984,
      "tags": {
        "name": "生鮮＆業務スーパー 綾部店",
        "shop": "supermarket"
      }
    },
    {
      "type": "node",
      "id": 5389351735,
      "lat": 35.29737,
      "lon": 135.2569347,
      "tags": {
        "name": "オサトマーケット",
        "shop": "supermarket"
      }
    },
    {
      "type": "node",
      "id": 5389351751,
      "lat": 35.3024482,
      "lon": 135.2577938,
      "tags": {
        "name": "バザールタウン綾部",
        "shop": "supermarket"
      }
    },
    {
      "type": "node",
      "id": 5442649661,
      "lat": 34.9596637,
      "lon": 135.683851,
      "tags": {
        "branch": "洛西福西店",
        "name": "マルシゲ",
        "name:en": "Marushige",
        "name:ja": "マルシゲ",
        "opening_hours": "Mo-Su 09:30-20:00",
        "phone": "+81 75 335 0771",
        "shop": "supermarket"
      }
    },
    {
      "type": "node",
      "id": 5475001935,
      "lat": 35.6784584,
      "lon": 135.0235346,
      "tags": {
        "addr:block_number": "46",
        "addr:city": "京丹後市",
        "addr:housenumber": "1",
        "addr:neighbourhood": "網野",
        "addr:postcode": "629-3101",
        "addr:province": "京都府",
        "addr:quarter": "網野町",
        "name": "フレッシュバザール 網野店",
        "opening_hours": "Mo-Sa 08:00-23:00",
        "operator": "さとうグループ",
        "phone": "+81 0772 79 3100",
        "shop": "supermarket"
      }
    },
    {
      "type": "node",
      "id": 5475020436,
      "lat": 35.6811027,
      "lon": 135.0281323,
      "tags": {
        "addr:block_number": "240",
        "addr:city": "京丹後市",
        "addr:neighbourhood": "網野",
        "addr:postcode": "629-3101",
        "addr:province": "京都府",
        "addr:quarter": "網野町",
        "name": "スーパーにしがき 網野店",
        "opening_hours": "Mo-Sa 09:30-20:00",
        "phone": "+81 0772 72 3939",
        "shop": "supermarket"
      }
    },
    {
      "type": "node",
      "id": 5477086121,
      "lat": 35.6860965,
      "lon": 135.0320706,
      "tags": {
        "name": "にしがき 北大路店",
        "shop": "supermarket"
      }
    },
    {
      "type": "node",
      "id": 5490029602,
      "lat": 34.9728783,
      "lon": 135.6964155,
      "tags": {
        "name": "ナチュラルプラス",
        "organic": "only",
        "shop": "supermarket"
      }
    },
    {
      "type": "node",
      "id": 5538553694,
      "lat": 35.0148085,
      "lon": 135.5838816,
      "tags": {
        "brand": "イオン",
        "brand:en": "AEON",
        "brand:ja": "イオン",
        "brand:wikidata": "Q11285951",
        "brand:wikipedia": "ja:イオン (店舗ブランド)",
        "name": "イオン",
        "name:en": "AEON",
        "name:ja": "イオン",
        "shop": "supermarket",
        "wikidata": "Q11286216",
        "wikipedia": "ja:イオン亀岡店"
      }
    },
    {
      "type": "node",
      "id": 5544805023,
      "lat": 34.8415308,
      "lon": 135.7192503,
      "tags": {
        "level": "1",
        "name": "三杉屋",
        "shop": "supermarket"
      }
    },
    {
      "type": "node",
      "id": 5560665289,
      "lat": 34.8283049,
      "lon": 135.7387904,
      "tags": {
        "name": "コープ京田辺",
        "shop": "supermarket"
      }
    },
    {
      "type": "node",
      "id": 5614774086,
      "lat": 34.9069472,
      "lon": 135.7197073,
      "tags": {
        "branch": "淀店",
        "brand": "業務スーパー",
        "brand:en": "Gyomu Super",
        "brand:ja": "業務スーパー",
        "brand:ja-Latn": "Gyōmu sūpā",
        "brand:wikidata": "Q11590183",
        "name": "業務スーパー",
        "name:en": "Gyomu Super",
        "name:ja": "業務スーパー",
        "name:ja-Latn": "Gyōmu sūpā",
        "shop": "supermarket"
      }
    },
    {
      "type": "node",
      "id": 5658155322,
      "lat": 35.5219192,
      "lon": 135.0972337,
      "tags": {
        "addr:block_number": "1",
        "addr:city": "与謝野町",
        "addr:county": "与謝郡",
        "addr:neighbourhood": "622",
        "addr:postcode": "629-2313",
        "addr:province": "京都府",
        "addr:quarter": "三河内",
        "name": "フレッシュバザール 野田川店",
        "name:en": "Fresh Bazaar Nodagawa Branch",
        "opening_hours": "Mo-Sa 08:00-00:00",
        "phone": "+81 0772 43 1800",
        "shop": "supermarket"
      }
    },
    {
      "type": "node",
      "id": 5660372822,
      "lat": 35.592822,
      "lon": 135.0931204,
      "tags": {
        "addr:block_number": "1532",
        "addr:city": "京丹後市",
        "addr:neighbourhood": "周枳",
        "addr:postcode": "629-2503",
        "addr:province": "京都府",
        "addr:quarter": "大宮町",
        "addr:street": "国道312号",
        "name": "スーパーにしがき 大宮バイパス店",
        "name:en": "Nishigaki Omiya Bypass Branch",
        "opening_hours": "Mo-Sa 09:30-21:00",
        "phone": "+81 0772 68 0011",
        "shop": "supermarket"
      }
    },
    {
      "type": "node",
      "id": 5660634743,
      "lat": 35.3131461,
      "lon": 135.1124149,
      "tags": {
        "addr:housenumber": "133",
        "addr:postcode": "620-0061",
        "addr:street": "花水木通り",
        "name": "ニシヤマ 荒河店",
        "name:en": "Nishiyama Araga Branch",
        "opening_hours": "Mo-Su 09:00-21:00",
        "phone": "0773-23-8000",
        "shop": "supermarket"
      }
    },
    {
      "type": "node",
      "id": 5711052522,
      "lat": 35.0076243,
      "lon": 135.7612486,
      "tags": {
        "name:en": "Kyoto Yaoichi Honkan",
        "shop": "supermarket"
      }
    },
    {
      "type": "node",
      "id": 5803741760,
      "lat": 34.9797315,
      "lon": 135.7036379,
      "tags": {
        "name": "フレスコ",
        "shop": "supermarket",
        "wheelchair": "yes"
      }
    },
    {
      "type": "node",
      "id": 5817256231,
      "lat": 34.8838693,
      "lon": 135.7693943,
      "tags": {
        "name": "フレンドマート伊勢田店",
        "shop": "supermarket"
      }
    },
    {
      "type": "node",
      "id": 5835835032,
      "lat": 35.4663243,
      "lon": 135.395384,
      "tags": {
        "addr:block_number": "8",
        "addr:city": "舞鶴市",
        "addr:neighbourhood": "12",
        "addr:postcode": "625-0057",
        "addr:province": "京都府",
        "addr:quarter": "南浜町",
        "branch": "エール東舞鶴店",
        "name": "平和堂",
        "name:en": "Heiwado",
        "opening_hours": "Mo-Sa 10:00-20:00",
        "phone": "+81 0773 66 0098",
        "shop": "supermarket"
      }
    },
    {
      "type": "node",
      "id": 5850429489,
      "lat": 34.9794716,
      "lon": 135.7014518,
      "tags": {
        "name": "サムソン",
        "shop": "supermarket"
      }
    },
    {
      "type": "node",
      "id": 5860975423,
      "lat": 34.9480832,
      "lon": 135.7678423,
      "tags": {
        "name": "フレスコ 墨染店",
        "shop": "supermarket"
      }
    },
    {
      "type": "node",
      "id": 5872813062,
      "lat": 34.7987034,
      "lon": 135.9054357,
      "tags": {
        "name": "スーパーかねた",
        "shop": "supermarket"
      }
    },
    {
      "type": "node",
      "id": 5892771286,
      "lat": 35.0084661,
      "lon": 135.749703,
      "tags": {
        "name:en": "Premarché Organics",
        "opening_hours": "Mo-Tu, Th-Sa 10:00-18:00",
        "shop": "supermarket"
      }
    },
    {
      "type": "node",
      "id": 5893763585,
      "lat": 35.6267468,
      "lon": 135.0704312,
      "tags": {
        "addr:block_number": "981",
        "addr:city": "京丹後市",
        "addr:neighbourhood": "杉谷",
        "addr:postcode": "627-0012",
        "addr:province": "京都府",
        "addr:quarter": "峰山町",
        "name": "スーパーにしがき 駅前店",
        "name:en": "NISHIGAKI",
        "opening_hours": "Mo-Sa 09:30-21:00",
        "phone": "+81 0772 62 4147",
        "shop": "supermarket"
      }
    },
    {
      "type": "node",
      "id": 5893974112,
      "lat": 34.7513305,
      "lon": 135.8707663,
      "tags": {
        "name": "サンフレッシュ 加茂店",
        "shop": "supermarket"
      }
    },
    {
      "type": "node",
      "id": 5893974889,
      "lat": 34.7580936,
      "lon": 135.8695665,
      "tags": {
        "name": "川越商店",
        "shop": "supermarket"
      }
    },
    {
      "type": "node",
      "id": 5917762992,
      "lat": 34.8529472,
      "lon": 135.8642779,
      "tags": {
        "name": "フレンドマート 宇治田原店",
        "shop": "supermarket"
      }
    },
    {
      "type": "node",
      "id": 5919991903,
      "lat": 34.9547768,
      "lon": 135.760373,
      "tags": {
        "name": "フレスコ",
        "shop": "supermarket"
      }
    },
    {
      "type": "node",
      "id": 5934491546,
      "lat": 34.9801118,
      "lon": 135.7066032,
      "tags": {
        "name": "デリカシェフ",
        "shop": "supermarket"
      }
    },
    {
      "type": "node",
      "id": 5985266086,
      "lat": 35.0140627,
      "lon": 135.7358937,
      "tags": {
        "name": "阪急オアシス",
        "opening_hours": "Mo-Su,PH 09:00-20:00",
        "shop": "supermarket"
      }
    },
    {
      "type": "node",
      "id": 6002060399,
      "lat": 35.0514193,
      "lon": 135.7780659,
      "tags": {
        "branch": "松ヶ崎店",
        "brand": "ライフ",
        "name": "ライフ",
        "name:en": "Life",
        "name:ja": "ライフ",
        "name:ja-Hira": "らいふ",
        "name:ja-Latn": "Raifu",
        "shop": "supermarket"
      }
    },
    {
      "type": "node",
      "id": 6015601658,
      "lat": 35.0340436,
      "lon": 135.7804283,
      "tags": {
        "name": "FRESCOmini",
        "shop": "supermarket"
      }
    },
    {
      "type": "node",
      "id": 6189906188,
      "lat": 34.9837212,
      "lon": 135.7741402,
      "tags": {
        "name:en": "Fresco",
        "opening_hours": "24/7",
        "shop": "supermarket"
      }
    },
    {
      "type": "node",
      "id": 6194599986,
      "lat": 35.0164204,
      "lon": 135.7884004,
      "tags": {
        "branch": "岡崎店",
        "name": "Fresco",
        "name:en": "Fresco",
        "shop": "supermarket"
      }
    },
    {
      "type": "node",
      "id": 6211880485,
      "lat": 35.0174167,
      "lon": 135.7697634,
      "tags": {
        "addr:housenumber": "536",
        "addr:postcode": "602-8072",
        "branch": "河原町丸太町店",
        "name": "ファーマーズ",
        "name:en": "Farmers",
        "name:ja": "ファーマーズ",
        "opening_hours": "Mo-Su 08:00-21:00",
        "organic": "only",
        "phone": "+81 75 212 6340",
        "shop": "supermarket"
      }
    },
    {
      "type": "node",
      "id": 6239076603,
      "lat": 35.0292544,
      "lon": 135.7583267,
      "tags": {
        "level": "0",
        "name": "Fresco",
        "name:ja": "フレスコ",
        "shop": "supermarket"
      }
    },
    {
      "type": "node",
      "id": 6284081896,
      "lat": 34.8844612,
      "lon": 135.7840338,
      "tags": {
        "name": "コープ宇治神明",
        "shop": "supermarket"
      }
    },
    {
      "type": "node",
      "id": 6342820516,
      "lat": 34.7573153,
      "lon": 135.936712,
      "tags": {
        "name": "堀商店",
        "shop": "supermarket"
      }
    },
    {
      "type": "node",
      "id": 6347037486,
      "lat": 34.8957431,
      "lon": 135.7469276,
      "tags": {
        "name": "西川羽毛布団",
        "shop": "supermarket"
      }
    },
    {
      "type": "node",
      "id": 6354764290,
      "lat": 35.0713548,
      "lon": 135.5337557,
      "tags": {
        "name": "マツモト",
        "shop": "supermarket"
      }
    },
    {
      "type": "node",
      "id": 6354770086,
      "lat": 35.1136493,
      "lon": 135.4787947,
      "tags": {
        "name": "フレッシュバザール",
        "shop": "supermarket"
      }
    },
    {
      "type": "node",
      "id": 6354779788,
      "lat": 35.0023021,
      "lon": 135.5973232,
      "tags": {
        "name": "業務スーパー",
        "shop": "supermarket"
      }
    },
    {
      "type": "node",
      "id": 6377844886,
      "lat": 35.0254856,
      "lon": 135.7732319,
      "tags": {
        "name": "Suoermercato con roba pronta",
        "shop": "supermarket"
      }
    },
    {
      "type": "node",
      "id": 6413436186,
      "lat": 35.0328518,
      "lon": 135.7789076,
      "tags": {
        "name": "Spesa cibo Thefye",
        "shop": "supermarket"
      }
    },
    {
      "type": "node",
      "id": 6427660485,
      "lat": 35.0426691,
      "lon": 135.7679663,
      "tags": {
        "name": "Grace Tanaka",
        "shop": "supermarket"
      }
    },
    {
      "type": "node",
      "id": 6434758725,
      "lat": 34.8581902,
      "lon": 135.763153,
      "tags": {
        "name": "フレッシュバザール",
        "shop": "supermarket"
      }
    },
    {
      "type": "node",
      "id": 6461697406,
      "lat": 35.0084322,
      "lon": 135.7609852,
      "tags": {
        "addr:street": "東洞院通",
        "name:en": "Cocolo",
        "opening_hours": "Mo, We-Sa 11:00-19:00; Su 11:00-18:00",
        "shop": "supermarket"
      }
    },
    {
      "type": "node",
      "id": 6461697786,
      "lat": 35.0344484,
      "lon": 135.7705294,
      "tags": {
        "name:en": "Organic Vege Annex",
        "opening_hours": "Mo-Sa 10:30-19:00; Su 10:30-17:00",
        "shop": "supermarket"
      }
    },
    {
      "type": "node",
      "id": 6470546388,
      "lat": 34.8992938,
      "lon": 135.7823199,
      "tags": {
        "name": "スーパーマツモト",
        "shop": "supermarket"
      }
    },
    {
      "type": "node",
      "id": 6703063186,
      "lat": 35.00267,
      "lon": 135.7584964,
      "tags": {
        "name:en": "Quality Food Supermarket",
        "opening_hours": "Mo-Su 09:00-22:00",
        "shop": "supermarket"
      }
    },
    {
      "type": "node",
      "id": 6798372159,
      "lat": 34.9231477,
      "lon": 135.6992689,
      "tags": {
        "level": "0",
        "name": "フレンドマート平和堂",
        "name:en": "Friend Mart Heiwa-do",
        "shop": "supermarket",
        "wheelchair": "yes"
      }
    },
    {
      "type": "node",
      "id": 6816662887,
      "lat": 35.0303769,
      "lon": 135.7687146,
      "tags": {
        "name": "アイハート",
        "shop": "supermarket",
        "wheelchair": "limited"
      }
    },
    {
      "type": "node",
      "id": 6816666087,
      "lat": 35.0303369,
      "lon": 135.7693303,
      "tags": {
        "name": "ゑびす屋",
        "shop": "supermarket",
        "wheelchair": "limited"
      }
    },
    {
      "type": "node",
      "id": 6873140869,
      "lat": 34.9849782,
      "lon": 135.692751,
      "tags": {
        "name": "フレスコ",
        "shop": "supermarket"
      }
    },
    {
      "type": "node",
      "id": 6875434869,
      "lat": 34.9804495,
      "lon": 135.7079637,
      "tags": {
        "name": "サンディ桂店",
        "shop": "supermarket"
      }
    },
    {
      "type": "node",
      "id": 6968290585,
      "lat": 35.1736239,
      "lon": 135.6296659,
      "tags": {
        "name:en": "Mini Market",
        "shop": "supermarket"
      }
    },
    {
      "type": "node",
      "id": 6968290685,
      "lat": 35.1561572,
      "lon": 135.6333665,
      "tags": {
        "name:en": "Farmer’s Market",
        "shop": "supermarket"
      }
    },
    {
      "type": "node",
      "id": 6984184561,
      "lat": 35.2991984,
      "lon": 135.1260556,
      "tags": {
        "name": "芦田源太郎商店",
        "shop": "supermarket"
      }
    },
    {
      "type": "node",
      "id": 6984191887,
      "lat": 35.2983055,
      "lon": 135.1115202,
      "tags": {
        "addr:block_number": "40",
        "addr:city": "福知山市",
        "addr:neighbourhood": "115",
        "addr:postcode": "620-0055",
        "addr:province": "京都府",
        "addr:quarter": "篠尾長ヶ坪",
        "name": "フレッシュバザール フレスポ 福知山店",
        "opening_hours": "Mo-Sa 08:00-24:00",
        "phone": "+81 0773 23 0011",
        "shop": "supermarket"
      }
    },
    {
      "type": "node",
      "id": 6984193300,
      "lat": 35.2996654,
      "lon": 135.1242293,
      "tags": {
        "name": "奥田米穀店",
        "shop": "supermarket"
      }
    },
    {
      "type": "node",
      "id": 6986458589,
      "lat": 35.3002613,
      "lon": 135.1225843,
      "tags": {
        "name": "岸晴食料品店",
        "shop": "supermarket"
      }
    },
    {
      "type": "node",
      "id": 6986458602,
      "lat": 35.3038205,
      "lon": 135.1247827,
      "tags": {
        "name": "米穀店サトウ",
        "shop": "supermarket"
      }
    },
    {
      "type": "node",
      "id": 6986472000,
      "lat": 35.3017785,
      "lon": 135.1234853,
      "tags": {
        "name": "tomtom natural market",
        "shop": "supermarket"
      }
    },
    {
      "type": "node",
      "id": 6989073190,
      "lat": 35.3091412,
      "lon": 135.1135867,
      "tags": {
        "name": "フレッシュ・メゾン 福知山和久市店",
        "shop": "supermarket"
      }
    },
    {
      "type": "node",
      "id": 6989078686,
      "lat": 35.2936416,
      "lon": 135.1343706,
      "tags": {
        "addr:city": "福知山市",
        "addr:neighbourhood": "2641",
        "addr:postcode": "620-0000",
        "addr:province": "京都府",
        "addr:quarter": "堀",
        "brand": "業務スーパー",
        "brand:en": "Gyōmu sūpā",
        "brand:ja": "業務スーパー",
        "brand:wikidata": "Q11590183",
        "brand:wikipedia": "ja:神戸物産",
        "name": "業務スーパー",
        "name:en": "Gyōmu sūpā",
        "name:ja": "業務スーパー",
        "opening_hours": "Mo-Sa 09:00-21:00",
        "phone": "+81 0773 23 4309",
        "shop": "supermarket"
      }
    },
    {
      "type": "node",
      "id": 7024778807,
      "lat": 34.9839162,
      "lon": 135.695076,
      "tags": {
        "name": "ショップ5条",
        "shop": "supermarket"
      }
    },
    {
      "type": "node",
      "id": 7025254593,
      "lat": 34.8554379,
      "lon": 135.7777165,
      "tags": {
        "name": "業務スーパー 城陽店",
        "shop": "supermarket"
      }
    },
    {
      "type": "node",
      "id": 7026068818,
      "lat": 34.9908525,
      "lon": 135.7022189,
      "tags": {
        "name": "フレスコ",
        "shop": "supermarket"
      }
    },
    {
      "type": "node",
      "id": 7075558052,
      "lat": 35.5644698,
      "lon": 135.1502451,
      "tags": {
        "addr:city": "与謝野町",
        "addr:county": "与謝郡",
        "addr:neighbourhood": "2273",
        "addr:postcode": "629-2262",
        "addr:province": "京都府",
        "addr:quarter": "岩滝",
        "name": "スーパーにしがき岩滝店",
        "opening_hours": "Mo-Sa 09:30-19:00",
        "phone": "+81 0772 46 5000",
        "shop": "supermarket"
      }
    },
    {
      "type": "node",
      "id": 7075597913,
      "lat": 35.5385723,
      "lon": 135.1293423,
      "tags": {
        "addr:city": "与謝郡与謝野町",
        "addr:neighbourhood": "969",
        "addr:postcode": "629-2303",
        "addr:province": "京都府",
        "addr:quarter": "石川",
        "name": "スーパーにしがき石川店",
        "opening_hours": "Mo-Sa 09:30-21:00",
        "phone": "+81 0772 42 0055",
        "shop": "supermarket"
      }
    },
    {
      "type": "node",
      "id": 7075631350,
      "lat": 35.5405468,
      "lon": 135.1306512,
      "tags": {
        "addr:block_number": "1",
        "addr:city": "与謝野町",
        "addr:county": "与謝郡",
        "addr:neighbourhood": "1566",
        "addr:postcode": "629-2303",
        "addr:province": "京都府",
        "addr:quarter": "石川",
        "name": "フレッシュバザール 与謝野石川店",
        "opening_hours": "Mo-Sa 08:00-00:00",
        "phone": "+81 0772 42 1700",
        "shop": "supermarket"
      }
    },
    {
      "type": "node",
      "id": 7075699687,
      "lat": 35.5122431,
      "lon": 135.1009162,
      "tags": {
        "addr:city": "与謝野町温江",
        "addr:county": "与謝郡",
        "addr:neighbourhood": "5",
        "addr:postcode": "629-2413",
        "addr:province": "京都府",
        "addr:quarter": "温江",
        "brand": "業務スーパー",
        "brand:en": "Gyomu Super",
        "brand:ja": "業務スーパー",
        "brand:ja-Latn": "Gyōmu sūpā",
        "brand:wikidata": "Q11590183",
        "brand:wikipedia": "ja:神戸物産",
        "name": "業務スーパー",
        "name:en": "Gyomu Super",
        "name:ja": "業務スーパー",
        "name:ja-Latn": "Gyōmu sūpā",
        "opening_hours": "Mo-Sa 09:30-20:00",
        "phone": "+81 0772 44 0030",
        "shop": "supermarket"
      }
    },
    {
      "type": "node",
      "id": 7075728967,
      "lat": 35.5805861,
      "lon": 135.0973543,
      "tags": {
        "addr:block_number": "155",
        "addr:city": "京丹後市",
        "addr:neighbourhood": "口大野",
        "addr:postcode": "629-2501",
        "addr:province": "京都府",
        "addr:quarter": "大宮町",
        "name": "スーパーにしがき 大宮店",
        "opening_hours": "Mo-Sa 09:30-19:00",
        "phone": "+81 0772 64 4600",
        "shop": "supermarket"
      }
    },
    {
      "type": "node",
      "id": 7075746785,
      "lat": 35.6097408,
      "lon": 135.0694379,
      "tags": {
        "addr:block_number": "919",
        "addr:city": "京丹後市",
        "addr:neighbourhood": "菅",
        "addr:postcode": "627-0041",
        "addr:province": "京都府",
        "addr:quarter": "峰山町",
        "name": "スーパーにしがき 長岡店",
        "opening_hours": "Mo-Sa 07:00-22:00",
        "phone": "+81 0772 62 4555",
        "shop": "supermarket"
      }
    },
    {
      "type": "node",
      "id": 7075748388,
      "lat": 35.6591316,
      "lon": 135.0891816,
      "tags": {
        "addr:block_number": "3473",
        "addr:city": "京丹後市",
        "addr:postcode": "627-0111",
        "addr:province": "京都府",
        "addr:quarter": "弥栄町溝谷",
        "branch": "弥栄店",
        "name": "スーパーにしがき 弥栄店",
        "opening_hours": "Mo-Sa 09:30-20:00",
        "phone": "+81 0772 65 2525",
        "shop": "supermarket"
      }
    },
    {
      "type": "node",
      "id": 7076752499,
      "lat": 35.6168939,
      "lon": 135.0758958,
      "tags": {
        "addr:block_number": "182",
        "addr:city": "京丹後市",
        "addr:neighbourhood": "荒山",
        "addr:postcode": "627-0004",
        "addr:province": "京都府",
        "addr:quarter": "峰山町",
        "name": "フレッシュバザール 峰山パーク店",
        "opening_hours": "Mo-Sa 08:00-24:00",
        "operator": "さとうグループ",
        "phone": "+81 0772 62 5600",
        "shop": "supermarket"
      }
    },
    {
      "type": "node",
      "id": 7076771482,
      "lat": 35.6082124,
      "lon": 135.08276,
      "tags": {
        "addr:block_number": "1",
        "addr:city": "京丹後市",
        "addr:neighbourhood": "1606",
        "addr:postcode": "627-0005",
        "addr:province": "京都府",
        "addr:quarter": "峰山町新町",
        "name": "エール 峰山店",
        "opening_hours": "Mo-Sa 10:00-20:00",
        "operator": "平和堂",
        "phone": "+81 0772 62 0084",
        "shop": "supermarket"
      }
    },
    {
      "type": "node",
      "id": 7078215723,
      "lat": 35.5809218,
      "lon": 134.9660594,
      "tags": {
        "addr:block_number": "116",
        "addr:city": "京丹後市",
        "addr:neighbourhood": "佐野",
        "addr:postcode": "629-3562",
        "addr:province": "京都府",
        "addr:quarter": "久美浜町",
        "name": "ジョイクックおくだ",
        "opening_hours": "Mo-Sa 07:00-21:00",
        "operator": "全日食チェーン",
        "phone": "+81 0772 84 0401",
        "shop": "supermarket"
      }
    },
    {
      "type": "node",
      "id": 7094141618,
      "lat": 35.5392983,
      "lon": 135.1933865,
      "tags": {
        "addr:block_number": "外",
        "addr:city": "宮津市",
        "addr:neighbourhood": "3012",
        "addr:postcode": "626-0012",
        "addr:province": "京都府",
        "addr:quarter": "浜町",
        "name": "さとう 宮津店",
        "opening_hours": "Mo-Sa 09:00-21:30",
        "operator": "さとうグループ",
        "phone": "+81 0772 25 3100",
        "shop": "supermarket"
      }
    },
    {
      "type": "node",
      "id": 7095055645,
      "lat": 35.4292182,
      "lon": 135.3257327,
      "tags": {
        "addr:block_number": "4",
        "addr:city": "舞鶴市",
        "addr:neighbourhood": "15",
        "addr:postcode": "624-0823",
        "addr:province": "京都府",
        "addr:quarter": "京田",
        "name": "フレッシュバザール 舞鶴京田店",
        "opening_hours": "Mo-Sa 08:00-22:00",
        "phone": "+81 0773 75 0011",
        "shop": "supermarket"
      }
    },
    {
      "type": "node",
      "id": 7095098110,
      "lat": 35.4618957,
      "lon": 135.4075035,
      "tags": {
        "addr:block_number": "2",
        "addr:city": "舞鶴市",
        "addr:neighbourhood": "1092",
        "addr:postcode": "625-0035",
        "addr:province": "京都府",
        "addr:quarter": "溝尻",
        "branch": "東舞鶴店",
        "name": "にしがき",
        "opening_hours": "Mo-Sa 09:30-20:00",
        "phone": "+81 0773 64 3955",
        "shop": "supermarket"
      }
    },
    {
      "type": "node",
      "id": 7095104144,
      "lat": 35.4399561,
      "lon": 135.3315461,
      "tags": {
        "addr:block_number": "5",
        "addr:city": "舞鶴市",
        "addr:neighbourhood": "200",
        "addr:postcode": "624-0816",
        "addr:province": "京都府",
        "addr:quarter": "伊佐津",
        "branch": "舞鶴店",
        "name": "バザールタウン",
        "opening_hours": "Mo-Sa 09:00-21:45",
        "phone": "+81 0773 78 3300",
        "shop": "supermarket"
      }
    },
    {
      "type": "node",
      "id": 7095712840,
      "lat": 35.3167128,
      "lon": 135.1012105,
      "tags": {
        "addr:block_number": "8",
        "addr:city": "福知山市",
        "addr:neighbourhood": "79",
        "addr:postcode": "620-0922",
        "addr:province": "京都府",
        "addr:quarter": "岩井",
        "brand": "イオン",
        "brand:en": "AEON",
        "brand:ja": "イオン",
        "brand:wikidata": "Q11285951",
        "brand:wikipedia": "ja:イオン (店舗ブランド)",
        "name": "イオン",
        "name:en": "AEON",
        "name:ja": "イオン",
        "opening_hours": "Mo-Sa 08:00-22:00",
        "phone": "+81 0773 25 3400",
        "shop": "supermarket"
      }
    },
    {
      "type": "node",
      "id": 7095714182,
      "lat": 35.2899871,
      "lon": 135.1366586,
      "tags": {
        "addr:block_number": "2",
        "addr:city": "福知山市",
        "addr:neighbourhood": "2155",
        "addr:postcode": "620-0000",
        "addr:province": "京都府",
        "addr:quarter": "堀",
        "name": "バザールタウン 福知山",
        "opening_hours": "Mo-Sa 09:00-24:00",
        "phone": "+81 0773 24 0310",
        "shop": "supermarket"
      }
    },
    {
      "type": "node",
      "id": 7095764682,
      "lat": 35.2960093,
      "lon": 135.115556,
      "tags": {
        "addr:block_number": "26",
        "addr:city": "福知山市",
        "addr:neighbourhood": "3",
        "addr:postcode": "620-0940",
        "addr:province": "京都府",
        "addr:quarter": "駅南町",
        "brand": "業務スーパー",
        "brand:en": "Gyomu Super",
        "brand:ja": "業務スーパー",
        "brand:ja-Latn": "Gyōmu sūpā",
        "brand:wikidata": "Q11590183",
        "brand:wikipedia": "ja:神戸物産",
        "name": "業務スーパー",
        "name:en": "Gyomu Super",
        "name:ja": "業務スーパー",
        "name:ja-Latn": "Gyōmu sūpā",
        "opening_hours": "Mo-Sa 09:00-22:00",
        "phone": "+81 0773 23 6678",
        "shop": "supermarket"
      }
    },
    {
      "type": "node",
      "id": 7095790037,
      "lat": 35.2981312,
      "lon": 135.1215619,
      "tags": {
        "addr:city": "福知山市",
        "addr:neighbourhood": "213",
        "addr:postcode": "620-0045",
        "addr:province": "京都府",
        "addr:quarter": "駅前町",
        "name": "フレッシュバザール 福知山お城通り店",
        "opening_hours": "Mo-Sa 08:00-24:00",
        "operator": "さとうグループ",
        "phone": "+81 0773 23 0001",
        "shop": "supermarket"
      }
    },
    {
      "type": "node",
      "id": 7095824108,
      "lat": 35.2967449,
      "lon": 135.154648,
      "tags": {
        "addr:city": "福知山市",
        "addr:neighbourhood": "230",
        "addr:postcode": "620-0866",
        "addr:province": "京都府",
        "addr:quarter": "前田新町",
        "brand": "業務スーパー",
        "brand:en": "Gyōmu sūpā",
        "brand:ja": "業務スーパー",
        "brand:wikidata": "Q11590183",
        "brand:wikipedia": "ja:神戸物産",
        "name": "業務スーパー",
        "name:en": "Gyōmu sūpā",
        "name:ja": "業務スーパー",
        "opening_hours": "Mo-Sa 09:00-21:00",
        "phone": "+81 0773 27 7106",
        "shop": "supermarket"
      }
    },
    {
      "type": "node",
      "id": 7108805485,
      "lat": 35.0264068,
      "lon": 135.7321668,
      "tags": {
        "name": "長文屋",
        "opening_hours": "We, Fr-Mo 10:00-18:00",
        "phone": "075-467-0217",
        "shop": "supermarket"
      }
    },
    {
      "type": "node",
      "id": 7169131503,
      "lat": 35.736598,
      "lon": 135.0923283,
      "tags": {
        "shop": "supermarket"
      }
    },
    {
      "type": "node",
      "id": 7297012512,
      "lat": 34.8396301,
      "lon": 135.7736392,
      "tags": {
        "name": "スーパー山田屋",
        "shop": "supermarket"
      }
    },
    {
      "type": "node",
      "id": 7392657904,
      "lat": 34.8565127,
      "lon": 135.696698,
      "tags": {
        "brand": "業務スーパー",
        "brand:en": "Gyōmu sūpā",
        "brand:ja": "業務スーパー",
        "level": "0",
        "name": "業務スーパー",
        "name:en": "Gyōmu sūpā",
        "name:ja": "業務スーパー",
        "shop": "supermarket"
      }
    },
    {
      "type": "node",
      "id": 7392657905,
      "lat": 34.8595088,
      "lon": 135.6964422,
      "tags": {
        "level": "0",
        "name": "スーパー中川",
        "name:en": "Super Nakagawa",
        "name:ja": "スーパー中川",
        "shop": "supermarket"
      }
    },
    {
      "type": "node",
      "id": 7466396321,
      "lat": 35.0173831,
      "lon": 135.686043,
      "tags": {
        "branch": "SAGA店",
        "name": "フレスコ",
        "opening_hours": "Mo-Su 09:00-21:00",
        "shop": "supermarket"
      }
    },
    {
      "type": "node",
      "id": 7475279267,
      "lat": 35.0173765,
      "lon": 135.6891245,
      "tags": {
        "name": "エムジー",
        "shop": "supermarket"
      }
    },
    {
      "type": "node",
      "id": 7701693655,
      "lat": 35.5956077,
      "lon": 135.090847,
      "tags": {
        "addr:block_number": "河辺",
        "addr:city": "京丹後市",
        "addr:housenumber": "3759-2",
        "addr:postcode": "629-2502",
        "addr:province": "京都府",
        "addr:quarter": "大宮町",
        "description": "カー用品店。オイル交換・タイヤ交換・車検・板金\n",
        "name": "オートバックス・丹後大宮店",
        "operator": "G-7・オート・サービス",
        "shop": "supermarket"
      }
    },
    {
      "type": "node",
      "id": 7741409377,
      "lat": 35.6246103,
      "lon": 135.0570741,
      "tags": {
        "name": "おかけん",
        "shop": "supermarket"
      }
    },
    {
      "type": "node",
      "id": 7776608591,
      "lat": 35.6252803,
      "lon": 135.0579,
      "tags": {
        "name": "花野屋食料品店",
        "shop": "supermarket"
      }
    },
    {
      "type": "node",
      "id": 8094026007,
      "lat": 34.9510728,
      "lon": 135.8111519,
      "tags": {
        "addr:block_number": "1",
        "addr:city": "京都市",
        "addr:housenumber": "37",
        "addr:postcode": "601-1375",
        "addr:province": "京都府",
        "addr:quarter": "醍醐高畑町",
        "addr:suburb": "伏見区",
        "check_date": "2023-11-19",
        "level": "0;1;2",
        "name": "アルプラザ醍醐",
        "operator": "平和堂",
        "shop": "supermarket"
      }
    },
    {
      "type": "node",
      "id": 8194436203,
      "lat": 35.0081114,
      "lon": 135.5839893,
      "tags": {
        "name": "マツモト",
        "shop": "supermarket"
      }
    },
    {
      "type": "node",
      "id": 8196556919,
      "lat": 35.0224143,
      "lon": 135.5902885,
      "tags": {
        "name": "かさや",
        "shop": "supermarket"
      }
    },
    {
      "type": "node",
      "id": 8220143426,
      "lat": 34.8332227,
      "lon": 135.7263614,
      "tags": {
        "name": "カルディコーヒーファーム",
        "shop": "supermarket"
      }
    },
    {
      "type": "node",
      "id": 8440149616,
      "lat": 35.0089823,
      "lon": 135.7697617,
      "tags": {
        "name": "明治屋",
        "shop": "supermarket"
      }
    },
    {
      "type": "node",
      "id": 8556300562,
      "lat": 34.9757677,
      "lon": 135.823504,
      "tags": {
        "check_date": "2024-08-11",
        "name": "マツヤスーパー",
        "shop": "supermarket"
      }
    },
    {
      "type": "node",
      "id": 8840590125,
      "lat": 34.9336886,
      "lon": 135.7585624,
      "tags": {
        "brand": "業務スーパー",
        "brand:en": "Gyomu Super",
        "brand:ja": "業務スーパー",
        "brand:ja-Latn": "Gyōmu sūpā",
        "brand:wikidata": "Q11590183",
        "name": "業務スーパー",
        "name:en": "Gyomu Super",
        "name:ja": "業務スーパー",
        "name:ja-Latn": "Gyōmu sūpā",
        "shop": "supermarket"
      }
    },
    {
      "type": "node",
      "id": 9069244377,
      "lat": 35.0379077,
      "lon": 135.753031,
      "tags": {
        "addr:city": "京都市",
        "addr:housenumber": "10",
        "addr:province": "京都府",
        "addr:quarter": "紫野宮東町",
        "addr:suburb": "北区",
        "branch": "紫明店",
        "name": "生鮮館なかむら",
        "opening_hours": "9:00-21:00",
        "phone": "075-431-4158",
        "shop": "supermarket",
        "website": "https://seisenkan-nakamura.co.jp/shop/shimei/"
      }
    },
    {
      "type": "node",
      "id": 9206866063,
      "lat": 35.1800763,
      "lon": 135.3745516,
      "tags": {
        "name": "サンダイコー",
        "shop": "supermarket"
      }
    },
    {
      "type": "node",
      "id": 9247317573,
      "lat": 34.8540696,
      "lon": 135.7788128,
      "tags": {
        "name": "サンディ城陽店",
        "shop": "supermarket"
      }
    },
    {
      "type": "node",
      "id": 9247317575,
      "lat": 34.8211758,
      "lon": 135.7699929,
      "tags": {
        "name": "スーパー山田屋",
        "shop": "supermarket"
      }
    },
    {
      "type": "node",
      "id": 9438112537,
      "lat": 34.7312208,
      "lon": 135.8411146,
      "tags": {
        "shop": "supermarket"
      }
    },
    {
      "type": "node",
      "id": 9472099815,
      "lat": 35.0284157,
      "lon": 135.7754836,
      "tags": {
        "shop": "supermarket"
      }
    },
    {
      "type": "node",
      "id": 9529197203,
      "lat": 34.9479739,
      "lon": 135.7701293,
      "tags": {
        "name": "チャコルマート墨染",
        "shop": "supermarket"
      }
    },
    {
      "type": "node",
      "id": 9545118372,
      "lat": 34.8846218,
      "lon": 135.7813275,
      "tags": {
        "name": "新鮮激安市場",
        "shop": "supermarket"
      }
    },
    {
      "type": "node",
      "id": 9704612017,
      "lat": 34.9464798,
      "lon": 135.7476526,
      "tags": {
        "name": "A-プライス",
        "shop": "supermarket"
      }
    },
    {
      "type": "node",
      "id": 9748399676,
      "lat": 34.736813,
      "lon": 135.8229232,
      "tags": {
        "name": "フレスコ",
        "shop": "supermarket"
      }
    },
    {
      "type": "node",
      "id": 9846349401,
      "lat": 35.0157783,
      "lon": 135.7671433,
      "tags": {
        "name": "ZERO WASTE KYOTO",
        "organic": "yes",
        "shop": "supermarket"
      }
    },
    {
      "type": "node",
      "id": 10030844668,
      "lat": 35.0375946,
      "lon": 135.7590381,
      "tags": {
        "name": "Howdy",
        "shop": "supermarket"
      }
    },
    {
      "type": "node",
      "id": 10286440079,
      "lat": 34.7466544,
      "lon": 135.770824,
      "tags": {
        "brand": "ドン・キホーテ",
        "brand:en": "Don Quijote",
        "brand:ja": "ドン・キホーテ",
        "brand:wikidata": "Q1185381",
        "name": "MEGAドン・キホーテUNY",
        "name:en": "MEGA Don Quijote UNY",
        "name:ja": "MEGAドン・キホーテUNY",
        "opening_hours": "24/7",
        "operator": "UDリテール",
        "operator:en": "UD Retail",
        "operator:ja": "UDリテール",
        "operator:wikidata": "Q65232987",
        "shop": "supermarket",
        "short_name": "MEGAドンキ",
        "short_name:en": "MegaDonki",
        "short_name:ja": "MEGAドンキ"
      }
    },
    {
      "type": "node",
      "id": 10316134509,
      "lat": 34.9585855,
      "lon": 135.7680811,
      "tags": {
        "name": "JA",
        "shop": "supermarket"
      }
    },
    {
      "type": "node",
      "id": 10642469691,
      "lat": 34.9572336,
      "lon": 135.7692435,
      "tags": {
        "shop": "supermarket"
      }
    },
    {
      "type": "node",
      "id": 10693145917,
      "lat": 35.0440204,
      "lon": 135.7583668,
      "tags": {
        "name": "オーガニックプラザ",
        "name:en": "Organic Plaza",
        "organic": "only",
        "payment:cash": "yes",
        "payment:credit_cards": "yes",
        "payment:debit_cards": "yes",
        "shop": "supermarket"
      }
    },
    {
      "type": "node",
      "id": 10693145921,
      "lat": 35.0449259,
      "lon": 135.7584453,
      "tags": {
        "name": "KOHYO",
        "shop": "supermarket"
      }
    },
    {
      "type": "node",
      "id": 10801257344,
      "lat": 35.0257459,
      "lon": 135.7426227,
      "tags": {
        "brand": "イズミヤ",
        "brand:en": "Izumiya",
        "brand:ja": "イズミヤ",
        "brand:wikidata": "Q11286632",
        "name": "イズミヤ",
        "name:en": "Izumiya",
        "name:ja": "イズミヤ",
        "shop": "supermarket"
      }
    },
    {
      "type": "node",
      "id": 11005200215,
      "lat": 35.045952,
      "lon": 135.792087,
      "tags": {
        "name:ja": "業務スーパー北白川店",
        "shop": "supermarket"
      }
    },
    {
      "type": "node",
      "id": 11005200216,
      "lat": 35.0497876,
      "lon": 135.7915842,
      "tags": {
        "branch": "京都修学院小町",
        "name": "イオンスタイル",
        "name:en": "AEON STYLE",
        "name:ja": "イオンスタイル",
        "not:brand:wikidata": "Q11285951",
        "operator": "イオンリテール株式会社",
        "payment:cash": "yes",
        "payment:credit_cards": "yes",
        "payment:icsf": "yes",
        "payment:waon": "yes",
        "shop": "supermarket"
      }
    },
    {
      "type": "node",
      "id": 11034011747,
      "lat": 34.9631343,
      "lon": 135.7032228,
      "tags": {
        "branch": "洛西口駅店",
        "brand": "FRESCO",
        "check_date": "2023-07-08",
        "name": "スーパーフレスコ",
        "name:en": "Fresco",
        "name:ja": "スーパーフレスコ",
        "name:ja-Hira": "すーぱーふれすこ",
        "name:ja-Latn": "Sūpā Furesuko",
        "operator": "(株)ハートフレンド",
        "shop": "supermarket"
      }
    },
    {
      "type": "node",
      "id": 11054216043,
      "lat": 34.9764527,
      "lon": 135.7339462,
      "tags": {
        "brand": "サンディ",
        "brand:en": "Sundi",
        "brand:ja": "サンディ",
        "brand:wikidata": "Q11305717",
        "name": "サンディ",
        "name:ja": "サンディ",
        "opening_hours": "Mo-Su 10:00-19:30",
        "shop": "supermarket"
      }
    },
    {
      "type": "node",
      "id": 11077840924,
      "lat": 35.2043666,
      "lon": 135.7205011,
      "tags": {
        "name": "おーらい黒田屋",
        "shop": "supermarket"
      }
    },
    {
      "type": "node",
      "id": 11137495688,
      "lat": 34.8006431,
      "lon": 135.8150307,
      "tags": {
        "addr:block_number": "8",
        "addr:city": "井手町",
        "addr:county": "綴喜郡",
        "addr:neighbourhood": "東高月",
        "addr:postcode": "6100302",
        "addr:province": "京都府",
        "addr:quarter": "井手",
        "contact:facebook": "https://www.facebook.com/teoterasuide",
        "name": "テオテラスいで",
        "opening_hours": "Tu-Sa 8:00-16:00",
        "operator": "株式会社まちづくり井手",
        "payment:cash": "yes",
        "payment:credit_cards": "yes",
        "phone": "0774-82-5600",
        "shop": "supermarket",
        "website": "https://teoterasuide.jp/",
        "wikipedia": "ja:テオテラスいで"
      }
    },
    {
      "type": "node",
      "id": 11221700119,
      "lat": 34.8791915,
      "lon": 135.705201,
      "tags": {
        "name": "スーパーマーケットKOHYO",
        "shop": "supermarket"
      }
    },
    {
      "type": "node",
      "id": 11237683300,
      "lat": 35.2748901,
      "lon": 135.550463,
      "tags": {
        "name": "ヤマヨストアー",
        "shop": "supermarket",
        "source": "survey"
      }
    },
    {
      "type": "node",
      "id": 11258983825,
      "lat": 35.0038412,
      "lon": 135.7542766,
      "tags": {
        "addr:city": "京都市",
        "addr:neighbourhood": "蟷螂山町",
        "addr:province": "京都府",
        "addr:quarter": "四條通",
        "addr:suburb": "中京区",
        "branch": "四条堀川店",
        "brand": "ライフ",
        "brand:en": "Life",
        "brand:ja": "ライフ",
        "brand:wikidata": "Q11346476",
        "level": "1",
        "name": "ライフ",
        "name:en": "Life",
        "name:ja": "ライフ",
        "opening_hours": "-2400",
        "payment:cash": "yes",
        "shop": "supermarket"
      }
    },
    {
      "type": "node",
      "id": 11271654069,
      "lat": 35.003424,
      "lon": 135.7454392,
      "tags": {
        "name:en": "LIFE Supermarket",
        "shop": "supermarket"
      }
    },
    {
      "type": "node",
      "id": 11443473814,
      "lat": 35.0441746,
      "lon": 135.7583637,
      "tags": {
        "name": "Jupiter",
        "payment:cash": "yes",
        "payment:credit_cards": "yes",
        "payment:debit_cards": "yes",
        "shop": "supermarket"
      }
    },
    {
      "type": "node",
      "id": 11524412872,
      "lat": 34.9165031,
      "lon": 135.7829229,
      "tags": {
        "name": "ロピア宇治店",
        "shop": "supermarket"
      }
    },
    {
      "type": "node",
      "id": 11555394307,
      "lat": 35.0109105,
      "lon": 135.6976148,
      "tags": {
        "name:en": "Coremo - Sagano",
        "name:ja": "コレモ 嵯峨野店",
        "shop": "supermarket"
      }
    },
    {
      "type": "node",
      "id": 11664417869,
      "lat": 35.0088836,
      "lon": 135.7648474,
      "tags": {
        "name:en": "Ikeuchi Organic Kyoto Store",
        "shop": "supermarket"
      }
    },
    {
      "type": "node",
      "id": 11816429168,
      "lat": 34.7166046,
      "lon": 135.8359549,
      "tags": {
        "addr:block_number": "1",
        "addr:city": "木津川市",
        "addr:housenumber": "1",
        "addr:neighbourhood": "1",
        "addr:postcode": "6190215",
        "addr:province": "京都府",
        "addr:quarter": "梅美台",
        "branch": "木津川店",
        "brand": "バロー",
        "brand:en": "Valor",
        "brand:ja": "バロー",
        "brand:wikidata": "Q11328346",
        "name": "バロー",
        "name:en": "Valor",
        "name:ja": "バロー",
        "opening_hours": "Mo-Fr 10:00-21:00; Sa-Su 9:30-21:00",
        "phone": "0774-75-2666",
        "shop": "supermarket",
        "website": "https://valor.jp/stores/2537/"
      }
    },
    {
      "type": "node",
      "id": 11953794792,
      "lat": 35.0043005,
      "lon": 135.7208757,
      "tags": {
        "brand": "イオン",
        "brand:en": "AEON",
        "brand:ja": "イオン",
        "brand:wikidata": "Q11285951",
        "name": "イオン",
        "name:en": "AEON",
        "name:ja": "イオン",
        "shop": "supermarket"
      }
    },
    {
      "type": "node",
      "id": 12073565370,
      "lat": 34.9437124,
      "lon": 135.8013944,
      "tags": {
        "check_date": "2024-10-03",
        "internet_access": "no",
        "name": "Sandy",
        "name:ja": "サンディ",
        "opening_hours": "10:00-19:30",
        "payment:cash": "yes",
        "payment:credit_cards": "yes",
        "payment:debit_cards": "yes",
        "shop": "supermarket",
        "wheelchair": "yes"
      }
    },
    {
      "type": "node",
      "id": 12136147787,
      "lat": 34.9318846,
      "lon": 135.7990207,
      "tags": {
        "name": "新鮮激安市場！六地蔵店",
        "shop": "supermarket"
      }
    },
    {
      "type": "node",
      "id": 12153543914,
      "lat": 35.0291183,
      "lon": 135.7400189,
      "tags": {
        "name": "Kohyo",
        "shop": "supermarket"
      }
    },
    {
      "type": "node",
      "id": 12163160879,
      "lat": 34.9398458,
      "lon": 135.8026448,
      "tags": {
        "check_date": "2024-09-08",
        "name": "Coremo",
        "name:ja": "コレモフレスコ",
        "opening_hours": "10:00-20:00",
        "shop": "supermarket"
      }
    },
    {
      "type": "node",
      "id": 12189261503,
      "lat": 35.0200481,
      "lon": 135.7515679,
      "tags": {
        "name": "フレスコ",
        "name:ja": "フレスコ",
        "name:ja-Latn": "Fresco",
        "shop": "supermarket"
      }
    },