{
  "version": 0.6,
  "generator": "Overpass API 0.7.62.8 e802775f",
  "osm3s": {
    "timestamp_osm_base": "2025-10-15T12:19:12Z",
    "timestamp_areas_base": "2025-10-15T04:02:15Z",
    "copyright": "The data included in this document is from www.openstreetmap.org. The data is made available under ODbL."
  },
  "elements": [
    {
      "type": "node",
      "id": 260541182,
      "lat": 35.9326232,
      "lon": 139.6217159,
      "tags": {
        "brand": "イトーヨーカドー",
        "brand:en": "Ito-Yokado",
        "brand:ja": "イトーヨーカドー",
        "brand:wikidata": "Q3088746",
        "name": "イトーヨーカドー",
        "name:en": "Ito-Yokado",
        "name:ja": "イトーヨーカドー",
        "opening_hours": "10:00-21:00",
        "shop": "supermarket"
      }
    },
    {
      "type": "node",
      "id": 299216551,
      "lat": 35.8585701,
      "lon": 139.6589849,
      "tags": {
        "brand": "ヤオコー",
        "brand:en": "Yaoko",
        "brand:ja": "ヤオコー",
        "brand:wikidata": "Q11344967",
        "name": "ヤオコー",
        "name:en": "Yaoko",
        "name:ja": "ヤオコー",
        "shop": "supermarket",
        "toilets:wheelchair": "yes",
        "wheelchair": "yes"
      }
    },
    {
      "type": "node",
      "id": 703687900,
      "lat": 35.7855556,
      "lon": 139.6238437,
      "tags": {
        "name": "ジェーソン",
        "operator": "ジェーソン",
        "shop": "supermarket"
      }
    },
    {
      "type": "node",
      "id": 747847651,
      "lat": 35.8549139,
      "lon": 139.887184,
      "tags": {
        "name": "おっ母さん食品館",
        "shop": "supermarket"
      }
    },
    {
      "type": "node",
      "id": 780633738,
      "lat": 36.1686372,
      "lon": 139.5398083,
      "tags": {
        "brand": "ヤオコー",
        "brand:en": "Yaoko",
        "brand:ja": "ヤオコー",
        "brand:wikidata": "Q11344967",
        "brand:wikipedia": "ja:ヤオコー",
        "name": "ヤオコー",
        "name:en": "Yaoko",
        "name:ja": "ヤオコー",
        "name:ja_rm": "Yaoko",
        "shop": "supermarket"
      }
    },
    {
      "type": "node",
      "id": 785556892,
      "lat": 36.1673573,
      "lon": 139.5420021,
      "tags": {
        "branch": "本店",
        "name": "スーパーケンゾー",
        "name:en": "KENZO",
        "shop": "supermarket"
      }
    },
    {
      "type": "node",
      "id": 863201575,
      "lat": 36.2041101,
      "lon": 139.4203532,
      "tags": {
        "name": "天王店",
        "shop": "supermarket"
      }
    },
    {
      "type": "node",
      "id": 942174840,
      "lat": 36.2302726,
      "lon": 139.168905,
      "tags": {
        "name": "ビッグマーケット本庄",
        "shop": "supermarket"
      }
    },
    {
      "type": "node",
      "id": 942174843,
      "lat": 36.2379835,
      "lon": 139.1632316,
      "tags": {
        "shop": "supermarket"
      }
    },
    {
      "type": "node",
      "id": 942180664,
      "lat": 36.2477832,
      "lon": 139.1528665,
      "tags": {
        "branch": "上里店",
        "brand": "とりせん",
        "brand:en": "Torisen",
        "brand:ja": "とりせん",
        "brand:wikidata": "Q11273505",
        "brand:wikipedia": "ja:とりせん",
        "name": "とりせん",
        "name:en": "Torisen",
        "name:ja": "とりせん",
        "shop": "supermarket"
      }
    },
    {
      "type": "node",
      "id": 942180667,
      "lat": 36.2573802,
      "lon": 139.1579937,
      "tags": {
        "brand": "ベイシア",
        "brand:en": "Beisia",
        "brand:ja": "ベイシア",
        "brand:wikidata": "Q11336776",
        "brand:wikipedia": "ja:ベイシア",
        "name": "ベイシア",
        "name:en": "Beisia",
        "name:ja": "ベイシア",
        "shop": "supermarket"
      }
    },
    {
      "type": "node",
      "id": 953508267,
      "lat": 35.8241483,
      "lon": 139.8790808,
      "tags": {
        "addr:housenumber": "埼玉県三郷市中央１丁目３−１",
        "addr:postcode": "341-0038",
        "brand": "マルエツ",
        "brand:en": "Maruetsu",
        "brand:ja": "マルエツ",
        "brand:wikidata": "Q11341197",
        "brand:wikipedia": "ja:マルエツ",
        "name": "マルエツ",
        "name:en": "Maruetsu",
        "name:ja": "マルエツ",
        "phone": "+81 48-953-7701",
        "shop": "supermarket",
        "website": "https://www.maruetsu.co.jp/"
      }
    },
    {
      "type": "node",
      "id": 966976077,
      "lat": 36.1707143,
      "lon": 139.5287879,
      "tags": {
        "name": "ノールケンゾー",
        "name:en": "KENZO",
        "shop": "supermarket"
      }
    },
    {
      "type": "node",
      "id": 1065004226,
      "lat": 35.8536625,
      "lon": 139.6287055,
      "tags": {
        "name": "ジェーソン",
        "shop": "supermarket"
      }
    },
    {
      "type": "node",
      "id": 1095873199,
      "lat": 35.7775914,
      "lon": 139.6207206,
      "tags": {
        "name": "ユネスコ和光店",
        "name:en": "UNESCO",
        "shop": "supermarket"
      }
    },
    {
      "type": "node",
      "id": 1225438397,
      "lat": 36.0022345,
      "lon": 139.5699048,
      "tags": {
        "branch": "桶川店",
        "brand": "ヨークマート",
        "brand:en": "YorkMart",
        "brand:ja": "ヨークマート",
        "brand:wikidata": "Q11346201",
        "name": "ヨークマート",
        "name:en": "YorkMart",
        "name:ja": "ヨークマート",
        "name:ja_rm": "Yorkmart",
        "opening_hours": "Mo-Su 10:00-22:00",
        "operator": "ヨークマート",
        "shop": "supermarket",
        "source": "Bing 2010, (URL)",
        "website": "http://www.yorkmart.com/"
      }
    },
    {
      "type": "node",
      "id": 1373620789,
      "lat": 35.7989752,
      "lon": 139.5675804,
      "tags": {
        "branch": "新座店",
        "brand": "ヤオコー",
        "brand:en": "Yaoko",
        "brand:ja": "ヤオコー",
        "brand:wikidata": "Q11344967",
        "name": "ヤオコー",
        "name:en": "Yaoko",
        "name:ja": "ヤオコー",
        "name:ja-Hira": "やおこー",
        "name:ja-Latn": "Yaokō",
        "shop": "supermarket",
        "wheelchair": "yes"
      }
    },
    {
      "type": "node",
      "id": 1373620790,
      "lat": 35.802278,
      "lon": 139.571051,
      "tags": {
        "branch": "新座店",
        "brand": "西友",
        "brand:en": "Seiyu",
        "brand:ja": "西友",
        "brand:wikidata": "Q3108542",
        "name": "西友",
        "name:en": "Seiyu",
        "name:ja": "西友",
        "opening_hours": "24/7",
        "shop": "supermarket",
        "wheelchair": "yes"
      }
    },
    {
      "type": "node",
      "id": 1400407087,
      "lat": 35.9723855,
      "lon": 139.5886965,
      "tags": {
        "brand": "イトーヨーカドー",
        "brand:en": "Ito-Yokado",
        "brand:ja": "イトーヨーカドー",
        "brand:wikidata": "Q3088746",
        "name": "イトーヨーカドー",
        "name:en": "Ito-Yokado",
        "name:ja": "イトーヨーカドー",
        "name:ja_rm": "Itoh-yohka-do",
        "shop": "supermarket"
      }
    },
    {
      "type": "node",
      "id": 1435350370,
      "lat": 36.0423041,
      "lon": 139.3160962,
      "tags": {
        "branch": "嵐山バイパス店",
        "brand": "ヤオコー",
        "brand:en": "Yaoko",
        "brand:ja": "ヤオコー",
        "brand:wikidata": "Q11344967",
        "name": "ヤオコー",
        "name:en": "Yaoko",
        "name:ja": "ヤオコー",
        "name:ja-Hira": "やおこー",
        "name:ja-Latn": "Yaokō",
        "shop": "supermarket"
      }
    },
    {
      "type": "node",
      "id": 1498791251,
      "lat": 35.8039206,
      "lon": 139.862271,
      "tags": {
        "brand": "いなげや",
        "brand:en": "Inageya",
        "brand:ja": "いなげや",
        "brand:wikidata": "Q17193392",
        "brand:wikipedia": "ja:いなげや",
        "name": "いなげや",
        "name:en": "Inageya",
        "name:ja": "いなげや",
        "shop": "supermarket"
      }
    },
    {
      "type": "node",
      "id": 1626570654,
      "lat": 35.7971938,
      "lon": 139.8806739,
      "tags": {
        "name": "セレクション",
        "shop": "supermarket"
      }
    },
    {
      "type": "node",
      "id": 1636721693,
      "lat": 35.8162724,
      "lon": 139.6748579,
      "tags": {
        "alt_name:en": "Acolle",
        "brand": "アコレ",
        "brand:en": "A・Colle",
        "brand:ja": "アコレ",
        "brand:wikidata": "Q11283128",
        "brand:wikipedia": "ja:アコレ",
        "name": "アコレ",
        "name:en": "A・Colle",
        "name:ja": "アコレ",
        "shop": "supermarket",
        "source": "Bing"
      }
    },
    {
      "type": "node",
      "id": 1637959273,
      "lat": 35.8066715,
      "lon": 139.6714045,
      "tags": {
        "name": "スーパーバリュー戸田店",
        "shop": "supermarket",
        "source": "Bing"
      }
    },
    {
      "type": "node",
      "id": 1639257594,
      "lat": 35.9462976,
      "lon": 139.3144513,
      "tags": {
        "addr:block_number": "14",
        "addr:city": "毛呂山町",
        "addr:county": "入間郡",
        "addr:housenumber": "6",
        "addr:neighbourhood": "2",
        "addr:postcode": "350-0465",
        "addr:province": "埼玉県",
        "addr:quarter": "岩井西",
        "branch": "毛呂店",
        "brand": "いなげや",
        "brand:en": "Inageya",
        "brand:ja": "いなげや",
        "brand:wikidata": "Q17193392",
        "brand:wikipedia": "ja:いなげや",
        "level": "0",
        "name": "いなげや",
        "name:en": "Inageya",
        "name:ja": "いなげや",
        "name:ja-Hira": "いなげや",
        "name:ja-Latn": "Inageya",
        "opening_hours": "PH,Mo-Su 09:00-21:30",
        "operator": "株式会社いなげや",
        "phone": "+81-49-295-2111",
        "shop": "supermarket",
        "website": "https://stores.inageya.co.jp/store/?s=099",
        "wheelchair": "limited"
      }
    },
    {
      "type": "node",
      "id": 1639257597,
      "lat": 35.9422686,
      "lon": 139.3140762,
      "tags": {
        "brand": "ライフ",
        "brand:en": "Life",
        "brand:ja": "ライフ",
        "brand:wikidata": "Q11346476",
        "name": "ライフ",
        "name:en": "Life",
        "name:ja": "ライフ",
        "operator": "株式会社ライフコーポレーション",
        "shop": "supermarket"
      }
    },
    {
      "type": "node",
      "id": 1642989371,
      "lat": 35.8878811,
      "lon": 139.6588671,
      "tags": {
        "name": "木崎食肉卸売センターMEAT meet",
        "shop": "supermarket",
        "source": "Survey"
      }
    },
    {
      "type": "node",
      "id": 1643002522,
      "lat": 35.8882743,
      "lon": 139.650577,
      "tags": {
        "name": "さいたまコープ",
        "shop": "supermarket",
        "source": "Survey"
      }
    },
    {
      "type": "node",
      "id": 1692034114,
      "lat": 35.9449415,
      "lon": 139.3954548,
      "tags": {
        "name": "クック-Y",
        "opening_hours": "08:00-20:00",
        "phone": "+81 492874612",
        "shop": "supermarket"
      }
    },
    {
      "type": "node",
      "id": 1705528432,
      "lat": 35.8432554,
      "lon": 139.7441257,
      "tags": {
        "name": "西友 川口赤山店",
        "shop": "supermarket"
      }
    },
    {
      "type": "node",
      "id": 1716668543,
      "lat": 35.8598343,
      "lon": 139.5143002,
      "tags": {
        "brand": "イオン",
        "brand:en": "AEON",
        "brand:ja": "イオン",
        "brand:wikidata": "Q11285951",
        "name": "イオン",
        "name:en": "AEON",
        "name:ja": "イオン",
        "name:ja_rm": "Ion",
        "shop": "supermarket",
        "wheelchair": "yes"
      }
    },
    {
      "type": "node",
      "id": 1730794136,
      "lat": 35.8455706,
      "lon": 139.6465354,
      "tags": {
        "alt_name": "マルエツ",
        "name": "Maruetsu",
        "shop": "supermarket"
      }
    },
    {
      "type": "node",
      "id": 1730796892,
      "lat": 35.8470456,
      "lon": 139.6480936,
      "tags": {
        "brand": "オリンピック",
        "brand:en": "Olympic",
        "brand:ja": "オリンピック",
        "brand:wikidata": "Q11292764",
        "brand:wikipedia": "ja:Olympicグループ",
        "name": "オリンピック",
        "name:en": "Olympic",
        "name:ja": "オリンピック",
        "shop": "supermarket"
      }
    },
    {
      "type": "node",
      "id": 1733715110,
      "lat": 35.8603269,
      "lon": 139.6555468,
      "tags": {
        "brand": "イトーヨーカドー",
        "brand:en": "Ito-Yokado",
        "brand:ja": "イトーヨーカドー",
        "brand:wikidata": "Q3088746",
        "brand:wikipedia": "en:Ito-Yokado",
        "int_name": "Ito-Yokado",
        "name": "イトーヨーカドー",
        "name:en": "Ito-Yokado",
        "name:ja": "イトーヨーカドー",
        "name:ja_rm": "Itoh-yohka-do",
        "operator": "イトーヨーカ堂",
        "shop": "supermarket",
        "source": "Bing 2007"
      }
    },
    {
      "type": "node",
      "id": 1736210049,
      "lat": 36.0302522,
      "lon": 139.7334584,
      "tags": {
        "addr:housenumber": "カスミ 杉戸店",
        "brand": "カスミ",
        "brand:en": "Kasumi",
        "brand:ja": "カスミ",
        "brand:wikidata": "Q11294160",
        "name": "カスミ",
        "name:en": "Kasumi",
        "name:ja": "カスミ",
        "name:ja_rm": "Kasumi",
        "shop": "supermarket",
        "source": "knowledge"
      }
    },
    {
      "type": "node",
      "id": 1740570696,
      "lat": 35.9710247,
      "lon": 139.7522777,
      "tags": {
        "name": "生協 (COOP)",
        "shop": "supermarket"
      }
    },
    {
      "type": "node",
      "id": 1740619819,
      "lat": 35.9737493,
      "lon": 139.7450462,
      "tags": {
        "name": "ジョイフーズ",
        "shop": "supermarket"
      }
    },
    {
      "type": "node",
      "id": 1740687464,
      "lat": 35.9726487,
      "lon": 139.7528434,
      "tags": {
        "name": "TAIRAYA",
        "shop": "supermarket"
      }
    },
    {
      "type": "node",
      "id": 1747664940,
      "lat": 35.838421,
      "lon": 139.359578,
      "tags": {
        "branch": "入間仏子店",
        "brand": "Big-A",
        "brand:en": "Big-A",
        "brand:ja": "ビッグ・エー",
        "brand:wikidata": "Q11330804",
        "name": "Big-A",
        "name:en": "Big-A",
        "name:ja": "ビッグ・エー",
        "shop": "supermarket"
      }
    },
    {
      "type": "node",
      "id": 1747664956,
      "lat": 35.8399972,
      "lon": 139.3568138,
      "tags": {
        "branch": "入間仏子店",
        "brand": "ヤオコー",
        "brand:en": "Yaoko",
        "brand:ja": "ヤオコー",
        "brand:wikidata": "Q11344967",
        "name": "ヤオコー",
        "name:en": "Yaoko",
        "name:ja": "ヤオコー",
        "shop": "supermarket"
      }
    },
    {
      "type": "node",
      "id": 1768469391,
      "lat": 35.8586522,
      "lon": 139.7534576,
      "tags": {
        "name": "フードガーデン戸塚安行駅店",
        "shop": "supermarket"
      }
    },
    {
      "type": "node",
      "id": 1768481643,
      "lat": 35.867507,
      "lon": 139.7524206,
      "tags": {
        "brand": "コモディイイダ",
        "brand:en": "Comodi-iida",
        "brand:ja": "コモディイイダ",
        "brand:wikidata": "Q11302699",
        "brand:wikipedia": "ja:コモディイイダ",
        "name": "コモディイイダ",
        "name:en": "Comodi-iida",
        "name:ja": "コモディイイダ",
        "shop": "supermarket"
      }
    },
    {
      "type": "node",
      "id": 1779224947,
      "lat": 35.9178202,
      "lon": 139.589769,
      "tags": {
        "name": "イオン大宮西店",
        "name:en": "AEON",
        "shop": "supermarket"
      }
    },
    {
      "type": "node",
      "id": 1779226098,
      "lat": 35.9232494,
      "lon": 139.6099549,
      "tags": {
        "branch": "大宮店",
        "brand": "イオン",
        "brand:en": "AEON",
        "brand:ja": "イオン",
        "brand:wikidata": "Q11285951",
        "name": "イオン",
        "name:en": "AEON",
        "name:ja": "イオン",
        "opening_hours": "Mo-Su,PH 07:00-23:00",
        "shop": "supermarket",
        "wikidata": "Q11286253",
        "wikipedia": "ja:イオン大宮店"
      }
    },
    {
      "type": "node",
      "id": 1780427027,
      "lat": 35.8653033,
      "lon": 139.3984123,
      "tags": {
        "name": "ジャパン 狭山店",
        "shop": "supermarket"
      }
    },
    {
      "type": "node",
      "id": 1781279578,
      "lat": 35.8629964,
      "lon": 139.3989804,
      "tags": {
        "branch": "狭山広瀬東店 (Big A)",
        "brand": "Big-A",
        "brand:en": "Big-A",
        "brand:ja": "ビッグ・エー",
        "brand:wikidata": "Q11330804",
        "name": "Big-A",
        "name:en": "Big-A",
        "name:ja": "ビッグ・エー",
        "opening_hours": "24/7",
        "shop": "supermarket"
      }
    },
    {
      "type": "node",
      "id": 1787433675,
      "lat": 35.8394567,
      "lon": 139.7979111,
      "tags": {
        "level": "0",
        "name": "ベルクス草加松原店",
        "name:en": "BELX Soka Matsubara Store",
        "phone": "+81 48 944 8719",
        "shop": "supermarket",
        "wheelchair": "yes"
      }
    },
    {
      "type": "node",
      "id": 1855501660,
      "lat": 35.9499605,
      "lon": 139.6941449,
      "tags": {
        "brand": "マルエツ",
        "brand:en": "Maruetsu",
        "brand:ja": "マルエツ",
        "brand:wikidata": "Q11341197",
        "brand:wikipedia": "ja:マルエツ",
        "level": "-1",
        "name": "マルエツ岩槻駅前店",
        "name:en": "Maruetsu",
        "name:ja": "マルエツ",
        "shop": "supermarket",
        "wheelchair": "yes"
      }
    },
    {
      "type": "node",
      "id": 1873974471,
      "lat": 35.9095071,
      "lon": 139.6652369,
      "tags": {
        "branch": "大宮南中野店",
        "brand": "ヨークマート",
        "brand:en": "YorkMart",
        "brand:ja": "ヨークマート",
        "brand:wikidata": "Q11346201",
        "name": "ヨークマート",
        "name:en": "YorkMart",
        "name:ja": "ヨークマート",
        "name:ja_rm": "Yorkmart",
        "opening_hours": "Mo-Su 10:00-22:00",
        "operator": "ヨークマート",
        "shop": "supermarket",
        "source": "Bing 2010, (URL)",
        "website": "http://www.yorkmart.com/"
      }
    },
    {
      "type": "node",
      "id": 1873988366,
      "lat": 35.8800885,
      "lon": 139.6907117,
      "tags": {
        "name": "コモディイイダ",
        "shop": "supermarket"
      }
    },
    {
      "type": "node",
      "id": 1873993748,
      "lat": 35.8832614,
      "lon": 139.6879898,
      "tags": {
        "branch": "東岩槻店",
        "brand": "ヨークマート",
        "name": "ヨークマート (YorkMart)",
        "name:en": "YorkMart",
        "name:ja": "ヨークマート",
        "name:ja_rm": "Yorkmart",
        "opening_hours": "Mo-Su 10:00-22:00",
        "operator": "ヨークマート",
        "shop": "supermarket",
        "source": "Bing 2010",
        "website": "http://www.yorkmart.com/"
      }
    },
    {
      "type": "node",
      "id": 1874011813,
      "lat": 35.8577274,
      "lon": 139.7053342,
      "tags": {
        "branch": "柳崎店",
        "brand": "ヨークマート",
        "brand:en": "YorkMart",
        "brand:ja": "ヨークマート",
        "brand:wikidata": "Q11346201",
        "name": "ヨークマート",
        "name:en": "YorkMart",
        "name:ja": "ヨークマート",
        "name:ja_rm": "Yorkmart",
        "opening_hours": "Mo-Su 10:00-22:00",
        "operator": "ヨークマート",
        "shop": "supermarket",
        "source": "Bing 2010, (URL)",
        "website": "http://www.yorkmart.com/"
      }
    },
    {
      "type": "node",
      "id": 1874402604,
      "lat": 35.8398269,
      "lon": 139.7044847,
      "tags": {
        "branch": "芝前川店",
        "brand": "ヨークマート",
        "brand:en": "YorkMart",
        "brand:ja": "ヨークマート",
        "brand:wikidata": "Q11346201",
        "name": "ヨークマート",
        "name:en": "YorkMart",
        "name:ja": "ヨークマート",
        "name:ja_rm": "Yorkmart",
        "opening_hours": "Mo-Su 10:00-22:00",
        "operator": "ヨークマート",
        "shop": "supermarket",
        "source": "Bing 2010, (URL)",
        "website": "http://www.yorkmart.com/"
      }
    },
    {
      "type": "node",
      "id": 1874452705,
      "lat": 35.8042217,
      "lon": 139.6980461,
      "tags": {
        "branch": "フードセントラル",
        "brand": "ヨークマート",
        "brand:en": "YorkMart",
        "brand:ja": "ヨークマート",
        "brand:wikidata": "Q11346201",
        "name": "ヨークマート",
        "name:en": "YorkMart",
        "name:ja": "ヨークマート",
        "name:ja_rm": "Yorkmart",
        "opening_hours": "Mo-Su 10:00-22:00",
        "operator": "ヨークマート",
        "shop": "supermarket",
        "source": "Bing 2010",
        "website": "http://www.yorkmart.com/"
      }
    },
    {
      "type": "node",
      "id": 1874511228,
      "lat": 35.8268653,
      "lon": 139.811917,
      "tags": {
        "branch": "草加店",
        "brand": "ヨークマート",
        "name": "ヨークマート (YorkMart)",
        "name:en": "YorkMart",
        "name:ja": "ヨークマート",
        "name:ja_rm": "Yorkmart",
        "opening_hours": "Mo-Su 10:00-22:00",
        "operator": "ヨークマート",
        "shop": "supermarket",
        "source": "Bing 2010, (URL)",
        "website": "http://www.yorkmart.com/"
      }
    },
    {
      "type": "node",
      "id": 1874521368,
      "lat": 35.8834689,
      "lon": 139.7838159,
      "tags": {
        "branch": "越谷赤山店",
        "brand": "ヨークマート",
        "name": "ヨークマート (YorkMart)",
        "name:en": "YorkMart",
        "name:ja": "ヨークマート",
        "name:ja_rm": "Yorkmart",
        "opening_hours": "Mo-Su 10:00-22:00",
        "operator": "ヨークマート",
        "shop": "supermarket",
        "source": "Bing 2010, (URL)",
        "website": "http://www.yorkmart.com/"
      }
    },
    {
      "type": "node",
      "id": 1874563657,
      "lat": 35.8852096,
      "lon": 139.7839487,
      "tags": {
        "name": "ビックエー",
        "name:en": "Big-A",
        "shop": "supermarket"
      }
    },
    {
      "type": "node",
      "id": 1874582868,
      "lat": 36.0598282,
      "lon": 139.7247977,
      "tags": {
        "branch": "幸手店",
        "brand": "ヨークマート",
        "brand:en": "YorkMart",
        "brand:ja": "ヨークマート",
        "brand:wikidata": "Q11346201",
        "name": "ヨークマート",
        "name:en": "YorkMart",
        "name:ja": "ヨークマート",
        "name:ja_rm": "Yorkmart",
        "opening_hours": "Mo-Su 10:00-22:00",
        "operator": "ヨークマート",
        "shop": "supermarket",
        "source": "Bing 2010, (URL)",
        "website": "http://www.yorkmart.com/"
      }
    },
    {
      "type": "node",
      "id": 1874599931,
      "lat": 36.0741839,
      "lon": 139.6136764,
      "tags": {
        "branch": "フードセントラル モラージュ菖蒲店",
        "brand": "ヨークマート",
        "brand:en": "YorkMart",
        "brand:ja": "ヨークマート",
        "brand:wikidata": "Q11346201",
        "name": "ヨークマート",
        "name:en": "YorkMart",
        "name:ja": "ヨークマート",
        "name:ja_rm": "Yorkmart",
        "opening_hours": "Mo-Su 10:00-22:00",
        "operator": "ヨークマート",
        "shop": "supermarket",
        "source": "Bing 2010, (URL)",
        "website": "http://www.yorkmart.com/"
      }
    },
    {
      "type": "node",
      "id": 1874604757,
      "lat": 35.8221139,
      "lon": 139.3963941,
      "tags": {
        "branch": "入間店",
        "brand": "ヨークマート",
        "brand:en": "YorkMart",
        "brand:ja": "ヨークマート",
        "brand:wikidata": "Q11346201",
        "name": "ヨークマート",
        "name:en": "YorkMart",
        "name:ja": "ヨークマート",
        "name:ja_rm": "Yorkmart",
        "opening_hours": "Mo-Su 10:00-22:00",
        "operator": "ヨークマート",
        "shop": "supermarket",
        "source": "Bing 2010, (URL)",
        "website": "http://www.yorkmart.com/"
      }
    },
    {
      "type": "node",
      "id": 1875345392,
      "lat": 36.2209805,
      "lon": 139.3812598,
      "tags": {
        "brand": "カスミ",
        "name": "カスミ",
        "name:en": "KASUMI",
        "name:ja": "カスミ 妻沼店",
        "name:ja_rm": "Kasumi",
        "shop": "supermarket",
        "source": "Bing 2010"
      }
    },
    {
      "type": "node",
      "id": 1875354834,
      "lat": 36.0092933,
      "lon": 139.5467337,
      "tags": {
        "branch": "北本店",
        "brand": "ヨークマート",
        "brand:en": "YorkMart",
        "brand:ja": "ヨークマート",
        "brand:wikidata": "Q11346201",
        "name": "ヨークマート",
        "name:en": "YorkMart",
        "name:ja": "ヨークマート",
        "name:ja_rm": "Yorkmart",
        "opening_hours": "Mo-Su 10:00-22:00",
        "operator": "ヨークマート",
        "shop": "supermarket",
        "source": "Bing 2010, (URL)",
        "website": "http://www.yorkmart.com/"
      }
    },
    {
      "type": "node",
      "id": 1875442147,
      "lat": 35.8152817,
      "lon": 139.405089,
      "tags": {
        "addr:city": "入間市",
        "addr:housenumber": "900-1",
        "addr:postcode": "358-0011",
        "addr:street": "下藤沢",
        "brand": "ヤオコー",
        "brand:en": "Yaoko",
        "brand:ja": "ヤオコー",
        "brand:wikidata": "Q11344967",
        "brand:wikipedia": "ja:ヤオコー",
        "name": "ヤオコー",
        "name:en": "Yaoko",
        "name:ja": "ヤオコー",
        "name:ja_rm": "Yaoko",
        "operator": "Yaoko",
        "phone": "+81-4-2901-1711",
        "shop": "supermarket",
        "source": "Bing 2010",
        "website": "https://www.yaoko-net.com/store/store01/073.html"
      }
    },
    {
      "type": "node",
      "id": 1875442231,
      "lat": 35.8192684,
      "lon": 139.4081066,
      "tags": {
        "branch": "武蔵藤沢店",
        "brand": "ヨークマート",
        "brand:en": "YorkMart",
        "brand:ja": "ヨークマート",
        "brand:wikidata": "Q11346201",
        "brand:wikipedia": "ja:エコス",
        "name": "ヨークマート",
        "name:en": "YorkMart",
        "name:ja": "ヨークマート",
        "name:ja_rm": "Yorkmart",
        "opening_hours": "Mo-Su 10:00-22:00",
        "operator": "ヨークマート",
        "shop": "supermarket",
        "source": "Bing 2010, (URL)",
        "website": "http://www.yorkmart.com/"
      }
    },
    {
      "type": "node",
      "id": 1880374829,
      "lat": 35.8308625,
      "lon": 139.6846609,
      "tags": {
        "addr:block_number": "14",
        "addr:city": "川口市",
        "addr:housenumber": "101",
        "addr:neighbourhood": "3",
        "addr:postcode": "333-0853",
        "addr:province": "埼玉県",
        "addr:quarter": "芝園町",
        "branch": "芝園店",
        "brand": "マミーマート",
        "brand:en": "Mammy Mart",
        "brand:ja": "マミーマート",
        "brand:wikidata": "Q126935642",
        "level": "0",
        "name": "マミーマート",
        "name:en": "Mammy Mart",
        "name:ja": "マミーマート",
        "name:ja_rm": "Mami mart",
        "opening_hours": "Mo-Su 09:00-24:00",
        "operator": "マミーマート",
        "shop": "supermarket",
        "source": "Bing 2010, (URL)",
        "website": "https://mami-mart.com/stores/saitama/kawaguchi/shibazono.html"
      }
    },
    {
      "type": "node",
      "id": 1883763075,
      "lat": 35.8130357,
      "lon": 139.323634,
      "tags": {
        "branch": "金子店",
        "brand": "マミーマート",
        "brand:en": "Mammy Mart",
        "brand:ja": "マミーマート",
        "brand:wikidata": "Q11340902",
        "name": "マミーマート",
        "name:en": "Mammy Mart",
        "name:ja": "マミーマート",
        "shop": "supermarket"
      }
    },
    {
      "type": "node",
      "id": 1906806764,
      "lat": 36.0385737,
      "lon": 139.3910332,
      "tags": {
        "brand": "業務スーパー",
        "brand:en": "Gyomu Super",
        "brand:ja": "業務スーパー",
        "brand:ja-Latn": "Gyōmu sūpā",
        "brand:wikidata": "Q11590183",
        "name": "業務スーパー",
        "name:en": "Gyomu Super",
        "name:ja": "業務スーパー",
        "name:ja-Hira": "ぎょうむすーぱー",
        "name:ja-Latn": "Gyōmu sūpā",
        "opening_hours": "Mo-Su 09:00-21:00",
        "shop": "supermarket"
      }
    },
    {
      "type": "node",
      "id": 1910811228,
      "lat": 36.1306582,
      "lon": 139.4519704,
      "tags": {
        "branch": "行田店",
        "name": "ベイシア",
        "shop": "supermarket",
        "source": "Bing 2010"
      }
    },
    {
      "type": "node",
      "id": 1931793916,
      "lat": 35.9205706,
      "lon": 139.5006581,
      "tags": {
        "branch": "川越店",
        "brand": "オーケー",
        "brand:en": "OK",
        "brand:ja": "オーケー",
        "brand:wikidata": "Q11293184",
        "brand:wikipedia": "ja:オーケー",
        "name": "オーケーストア",
        "name:en": "OK Store",
        "name:ja": "オーケーストア",
        "shop": "supermarket",
        "source": "Bing 2010"
      }
    },
    {
      "type": "node",
      "id": 1943880359,
      "lat": 36.1802305,
      "lon": 139.5416823,
      "tags": {
        "name": "スーパーノールケンゾー",
        "shop": "supermarket"
      }
    },
    {
      "type": "node",
      "id": 1948118042,
      "lat": 36.1682645,
      "lon": 139.5404874,
      "tags": {
        "name": "業務スーパー パスポート",
        "shop": "supermarket"
      }
    },
    {
      "type": "node",
      "id": 1956171885,
      "lat": 35.9369067,
      "lon": 139.7778819,
      "tags": {
        "addr:full": "越谷市千間台東2-707",
        "addr:postcode": "343-0042",
        "branch": "せんげん台店",
        "brand": "イトーヨーカドー",
        "brand:en": "Ito-Yokado",
        "brand:ja": "イトーヨーカドー",
        "brand:wikidata": "Q3088746",
        "name": "イトーヨーカドー",
        "name:en": "Ito-Yokado",
        "name:ja": "イトーヨーカドー",
        "opening_hours": "Mo-Su 09:00-21:00",
        "operator": "イトーヨーカ堂",
        "phone": "+81-48-9761111",
        "shop": "supermarket",
        "website": "http://www.seventown-sengendai.jp/shop/f-01.html"
      }
    },
    {
      "type": "node",
      "id": 1956190615,
      "lat": 35.8267375,
      "lon": 139.6925023,
      "tags": {
        "addr:full": "蕨市塚越1-7-9",
        "addr:postcode": "335-0002",
        "branch": "蕨駅前店",
        "brand": "ライフ",
        "brand:en": "Life",
        "brand:ja": "ライフ",
        "brand:wikidata": "Q11346476",
        "brand:wikipedia": "ja:ライフコーポレーション",
        "check_date": "2025-02-24",
        "name": "ライフ",
        "name:en": "Life",
        "name:ja": "ライフ",
        "opening_hours": "09:30-24:00",
        "shop": "supermarket"
      }
    },
    {
      "type": "node",
      "id": 1982337264,
      "lat": 35.9697912,
      "lon": 139.569084,
      "tags": {
        "name": "ヤオヒロ",
        "shop": "supermarket",
        "source": "survey"
      }
    },
    {
      "type": "node",
      "id": 1982339581,
      "lat": 35.9698519,
      "lon": 139.5704949,
      "tags": {
        "name": "スーパーバリュー",
        "shop": "supermarket",
        "source": "survey"
      }
    },
    {
      "type": "node",
      "id": 1982342406,
      "lat": 35.9798694,
      "lon": 139.5771439,
      "tags": {
        "name": "ヤオヒロ",
        "shop": "supermarket",
        "source": "survey"
      }
    },
    {
      "type": "node",
      "id": 1982454736,
      "lat": 35.9613268,
      "lon": 139.5632218,
      "tags": {
        "name": "生鮮市場TOP",
        "shop": "supermarket",
        "source": "survey"
      }
    },
    {
      "type": "node",
      "id": 1982456111,
      "lat": 35.965295,
      "lon": 139.5625776,
      "tags": {
        "name": "TAIRAYA",
        "shop": "supermarket",
        "source": "survey"
      }
    },
    {
      "type": "node",
      "id": 1982460580,
      "lat": 35.979539,
      "lon": 139.5856068,
      "tags": {
        "brand": "Big-A",
        "brand:en": "Big-A",
        "brand:ja": "ビッグ・エー",
        "brand:wikidata": "Q11330804",
        "name": "Big-A",
        "name:en": "Big-A",
        "name:ja": "ビッグ・エー",
        "shop": "supermarket",
        "source": "survey"
      }
    },
    {
      "type": "node",
      "id": 1986130525,
      "lat": 35.8126671,
      "lon": 139.7303813,
      "tags": {
        "brand": "ヤオコー",
        "brand:en": "Yaoko",
        "brand:ja": "ヤオコー",
        "brand:wikidata": "Q11344967",
        "brand:wikipedia": "ja:ヤオコー",
        "name": "ヤオコー",
        "name:en": "Yaoko",
        "name:ja": "ヤオコー",
        "name:ja_rm": "Yaoko",
        "shop": "supermarket",
        "source": "Bing 2010"
      }
    },
    {
      "type": "node",
      "id": 1986237005,
      "lat": 35.7986164,
      "lon": 139.743084,
      "tags": {
        "brand": "マルエツ",
        "brand:en": "Maruetsu",
        "brand:ja": "マルエツ",
        "brand:wikidata": "Q11341197",
        "brand:wikipedia": "ja:マルエツ",
        "name": "マルエツ",
        "name:en": "Maruetsu",
        "name:ja": "マルエツ",
        "shop": "supermarket",
        "source": "Bing 2010"
      }
    },
    {
      "type": "node",
      "id": 1986263916,
      "lat": 35.8119083,
      "lon": 139.7383964,
      "tags": {
        "name": "comodi-iida",
        "name:en": "COMODI-IIDA",
        "name:ja": "コモディイイダ",
        "shop": "supermarket",
        "source": "Bing 2010"
      }
    },
    {
      "type": "node",
      "id": 1986390310,
      "lat": 35.8013731,
      "lon": 139.715243,
      "tags": {
        "addr:city": "埼玉県川口市",
        "addr:housenumber": "川口3-3-2",
        "branch": "川口リプレ店",
        "brand": "コモディイイダ",
        "brand:en": "Comodi-iida",
        "brand:ja": "コモディイイダ",
        "brand:wikidata": "Q11302699",
        "brand:wikipedia": "ja:コモディイイダ",
        "name": "コモディイイダ",
        "name:en": "Comodi-iida",
        "name:ja": "コモディイイダ",
        "opening_hours": "09:00-23:45",
        "phone": "+81 48-259-1101",
        "shop": "supermarket",
        "source": "Bing 2010"
      }
    },
    {
      "type": "node",
      "id": 1986669260,
      "lat": 35.8051321,
      "lon": 139.7063617,
      "tags": {
        "brand": "コモディイイダ",
        "brand:en": "Comodi-iida",
        "brand:ja": "コモディイイダ",
        "brand:wikidata": "Q11302699",
        "name": "コモディイイダ",
        "name:en": "Comodi-iida",
        "name:ja": "コモディイイダ",
        "shop": "supermarket",
        "source": "Bing 2010"
      }
    },
    {
      "type": "node",
      "id": 1987160421,
      "lat": 35.8371055,
      "lon": 139.7517589,
      "tags": {
        "brand": "マルエツ",
        "brand:en": "Maruetsu",
        "brand:ja": "マルエツ",
        "brand:wikidata": "Q11341197",
        "brand:wikipedia": "ja:マルエツ",
        "name": "マルエツ",
        "name:en": "Maruetsu",
        "name:ja": "マルエツ",
        "shop": "supermarket",
        "source": "Bing 2010"
      }
    },
    {
      "type": "node",
      "id": 1987560574,
      "lat": 35.8165231,
      "lon": 139.6509101,
      "tags": {
        "brand": "LIFE",
        "name": "ライフ",
        "name:en": "LIFE",
        "name:ja": "ライフ",
        "name:ja_rm": "Raifu",
        "shop": "supermarket",
        "source": "Bing 2010"
      }
    },
    {
      "type": "node",
      "id": 1987620200,
      "lat": 35.8315867,
      "lon": 139.6730089,
      "tags": {
        "brand": "マルエツ",
        "brand:en": "Maruetsu",
        "brand:ja": "マルエツ",
        "brand:wikidata": "Q11341197",
        "brand:wikipedia": "ja:マルエツ",
        "name": "マルエツ",
        "name:en": "Maruetsu",
        "name:ja": "マルエツ",
        "shop": "supermarket"
      }
    },
    {
      "type": "node",
      "id": 1989419663,
      "lat": 35.9841859,
      "lon": 139.5703473,
      "tags": {
        "name": "TAIRAYA",
        "shop": "supermarket",
        "source": "survey"
      }
    },
    {
      "type": "node",
      "id": 1989435674,
      "lat": 35.9915041,
      "lon": 139.5635398,
      "tags": {
        "brand": "マルエツ",
        "brand:en": "Maruetsu",
        "brand:ja": "マルエツ",
        "brand:wikidata": "Q11341197",
        "brand:wikipedia": "ja:マルエツ",
        "name": "マルエツ",
        "name:en": "Maruetsu",
        "name:ja": "マルエツ",
        "shop": "supermarket",
        "source": "survey"
      }
    },
    {
      "type": "node",
      "id": 1994724919,
      "lat": 35.9803822,
      "lon": 139.5775821,
      "tags": {
        "brand": "ベルク",
        "brand:en": "Belc",
        "brand:ja": "ベルク",
        "brand:wikidata": "Q11337090",
        "name": "ベルク",
        "name:en": "Belc",
        "name:ja": "ベルク",
        "shop": "supermarket"
      }
    },
    {
      "type": "node",
      "id": 1994931177,
      "lat": 35.9694633,
      "lon": 139.5980749,
      "tags": {
        "brand": "業務スーパー",
        "brand:en": "Gyomu Super",
        "brand:ja": "業務スーパー",
        "brand:ja-Latn": "Gyōmu sūpā",
        "brand:wikidata": "Q11590183",
        "name": "業務スーパー",
        "name:en": "Gyomu Super",
        "name:ja": "業務スーパー",
        "name:ja-Latn": "Gyōmu sūpā",
        "shop": "supermarket"
      }
    },
    {
      "type": "node",
      "id": 1994940627,
      "lat": 35.9875057,
      "lon": 139.6002987,
      "tags": {
        "name": "ベルク上尾東店",
        "opening_hours": "09:00-24:00",
        "shop": "supermarket"
      }
    },
    {
      "type": "node",
      "id": 2031202465,
      "lat": 36.0768105,
      "lon": 139.7253336,
      "tags": {
        "name": "ウエルシア",
        "shop": "supermarket"
      }
    },
    {
      "type": "node",
      "id": 2082030179,
      "lat": 36.1110653,
      "lon": 139.6053147,
      "tags": {
        "brand": "カスミ",
        "brand:en": "Kasumi",
        "brand:ja": "カスミ",
        "brand:wikidata": "Q11294160",
        "name": "カスミ",
        "name:en": "Kasumi",
        "name:ja": "カスミ",
        "name:ja_rm": "Kasumi",
        "shop": "supermarket"
      }
    },
    {
      "type": "node",
      "id": 2110228079,
      "lat": 35.8374314,
      "lon": 139.3920393,
      "tags": {
        "name": "JA狭山茶食彩館",
        "name:en": "JA Sayamacha Shokusaikan",
        "shop": "supermarket",
        "source": "Bing",
        "wheelchair": "yes"
      }
    },
    {
      "type": "node",
      "id": 2110283268,
      "lat": 35.8412575,
      "lon": 139.3889367,
      "tags": {
        "name": "西武入間ペペ",
        "name:en": "Seibu Iruma PePe",
        "name:ja": "西武入間ペペ",
        "shop": "supermarket",
        "source": "Bing",
        "website": "http://www.pepe.jp/",
        "wheelchair": "yes"
      }
    },
    {
      "type": "node",
      "id": 2122099791,
      "lat": 35.908101,
      "lon": 139.628334,
      "tags": {
        "brand": "マルエツ",
        "brand:en": "Maruetsu",
        "brand:ja": "マルエツ",
        "brand:wikidata": "Q11341197",
        "brand:wikipedia": "ja:マルエツ",
        "name": "マルエツ",
        "name:en": "Maruetsu",
        "name:ja": "マルエツ",
        "shop": "supermarket"
      }
    },
    {
      "type": "node",
      "id": 2128925240,
      "lat": 35.814243,
      "lon": 139.459105,
      "tags": {
        "branch": "コープ新所沢店",
        "brand": "コープみらい",
        "brand:wikidata": "Q20045175",
        "name": "コープみらい",
        "name:en": "Co-op Mirai",
        "name:ja": "コープみらい",
        "opening_hours": "Mo-Su 09:30-23:00",
        "shop": "supermarket",
        "toilets:wheelchair": "yes",
        "website": "https://map.coopdeli.coop/mirai/shop.php?shop_id=21035410",
        "wheelchair": "yes"
      }
    },
    {
      "type": "node",
      "id": 2128933549,
      "lat": 35.81496,
      "lon": 139.461738,
      "tags": {
        "brand": "ヤオコー",
        "brand:en": "Yaoko",
        "brand:ja": "ヤオコー",
        "brand:wikidata": "Q11344967",
        "name": "ヤオコー",
        "name:en": "Yaoko",
        "name:ja": "ヤオコー",
        "name:ja_rm": "Yaoko",
        "shop": "supermarket"
      }
    },
    {
      "type": "node",
      "id": 2130319967,
      "lat": 35.798749,
      "lon": 139.455823,
      "tags": {
        "name": "オザム",
        "name:en": "OZAM",
        "shop": "supermarket",
        "wheelchair": "yes"
      }
    },
    {
      "type": "node",
      "id": 2130349166,
      "lat": 35.791228,
      "lon": 139.45898,
      "tags": {
        "branch": "西所沢店",
        "brand": "西友",
        "brand:en": "Seiyu",
        "brand:ja": "西友",
        "brand:wikidata": "Q3108542",
        "name": "西友",
        "name:en": "Seiyu",
        "name:ja": "西友",
        "name:ja_rm": "Seiyu",
        "opening_hours": "24/7",
        "shop": "supermarket",
        "wheelchair": "yes"
      }
    },
    {
      "type": "node",
      "id": 2135688856,
      "lat": 35.9164017,
      "lon": 139.5345334,
      "tags": {
        "name": "エコス たいらや",
        "shop": "supermarket",
        "source": "survey"
      }
    },
    {
      "type": "node",
      "id": 2137433163,
      "lat": 36.1454884,
      "lon": 139.3787869,
      "tags": {
        "branch": "熊谷店",
        "brand": "イオン",
        "brand:en": "AEON",
        "brand:ja": "イオン",
        "brand:wikidata": "Q11285951",
        "name": "イオン",
        "name:en": "AEON",
        "name:ja": "イオン",
        "name:ja-Latn": "Ion",
        "name:ja_kana": "いおん",
        "name:ja_rm": "Ion",
        "shop": "supermarket",
        "source": "Bing,2012-01",
        "wheelchair": "yes"
      }
    },
    {
      "type": "node",
      "id": 2148629279,
      "lat": 35.804123,
      "lon": 139.454938,
      "tags": {
        "branch": "新所沢店",
        "brand": "Big-A",
        "brand:en": "Big-A",
        "brand:ja": "ビッグ・エー",
        "brand:wikidata": "Q11330804",
        "name": "Big-A",
        "name:en": "Big-A",
        "name:ja": "ビッグ・エー",
        "opening_hours": "Mo-Su 09:00-23:00",
        "shop": "supermarket",
        "wheelchair": "yes"
      }
    },
    {
      "type": "node",
      "id": 2148984124,
      "lat": 36.0303049,
      "lon": 139.5495625,
      "tags": {
        "brand": "とりせん",
        "brand:en": "Torisen",
        "brand:ja": "とりせん",
        "brand:wikidata": "Q11273505",
        "name": "とりせん",
        "name:en": "Torisen",
        "name:ja": "とりせん",
        "shop": "supermarket"
      }
    },
    {
      "type": "node",
      "id": 2230679064,
      "lat": 35.8949731,
      "lon": 139.5206239,
      "tags": {
        "branch": "木野目店",
        "name": "100円ショップ ミーツ",
        "shop": "supermarket"
      }
    },
    {
      "type": "node",
      "id": 2230679081,
      "lat": 35.9050761,
      "lon": 139.5132211,
      "tags": {
        "description": "1F",
        "int_name": "YAOKO UNICS MINAMIFURUYA",
        "name": "ヤオコー ウニクス南古谷店",
        "shop": "supermarket"
      }
    },
    {
      "type": "node",
      "id": 2230679136,
      "lat": 35.9050066,
      "lon": 139.5122769,
      "tags": {
        "description": "2F",
        "name": "ベビーザらス ウニクス南古谷店",
        "shop": "supermarket"
      }
    },
    {
      "type": "node",
      "id": 2230679180,
      "lat": 35.9052282,
      "lon": 139.5137789,
      "tags": {
        "int_name": "UNICS MINAMIFURUYA",
        "name": "ウニクス南古谷",
        "shop": "supermarket"
      }
    },
    {
      "type": "node",
      "id": 2230679198,
      "lat": 35.8951556,
      "lon": 139.5206883,
      "tags": {
        "branch": "木野目店",
        "name": "エコス フレッシュパワー",
        "shop": "supermarket"
      }
    },
    {
      "type": "node",
      "id": 2230679205,
      "lat": 35.9181148,
      "lon": 139.5009473,
      "tags": {
        "name": "ドンキホーテ 川越店",
        "shop": "supermarket"
      }
    },
    {
      "type": "node",
      "id": 2230679208,
      "lat": 35.9046938,
      "lon": 139.5118317,
      "tags": {
        "description": "2F",
        "name": "スポーツオーソリティ ウニクス南古谷店",
        "shop": "supermarket"
      }
    },
    {
      "type": "node",
      "id": 2230679252,
      "lat": 35.9018042,
      "lon": 139.5205274,
      "tags": {
        "branch": "南古谷店",
        "brand": "ベルク",
        "brand:en": "Belc",
        "brand:ja": "ベルク",
        "brand:wikidata": "Q11337090",
        "name": "ベルク",
        "name:en": "Belc",
        "name:ja": "ベルク",
        "opening_hours": "09:00-24:00",
        "shop": "supermarket"
      }
    },
    {
      "type": "node",
      "id": 2233833654,
      "lat": 36.0057606,
      "lon": 139.4106041,
      "tags": {
        "branch": "東松山店",
        "brand": "アピタ",
        "brand:en": "APITA",
        "brand:ja": "アピタ",
        "brand:wikidata": "Q55384637",
        "contact:phone": "+81 493 31 0111",
        "level": "0",
        "name": "アピタ",
        "name:en": "APITA",
        "name:ja": "アピタ",
        "name:ja-Hira": "あぴた",
        "name:ja-Latn": "Apita",
        "opening_hours": "Mo-Su,PH 9:00-21:00",
        "payment:american_express": "yes",
        "payment:cash": "yes",
        "payment:diners_club": "yes",
        "payment:discover_card": "yes",
        "payment:edy": "yes",
        "payment:icsf": "yes",
        "payment:id": "yes",
        "payment:jcb": "yes",
        "payment:mastercard": "yes",
        "payment:quickpay": "yes",
        "payment:visa": "yes",
        "shop": "supermarket",
        "wheelchair": "yes"
      }
    },
    {
      "type": "node",
      "id": 2242462893,
      "lat": 35.9937568,
      "lon": 139.3825756,
      "tags": {
        "addr:city": "東松山市",
        "branch": "松風台店",
        "brand": "マミーマート",
        "brand:en": "Mammy Mart",
        "brand:ja": "マミーマート",
        "brand:wikidata": "Q126935642",
        "name": "マミーマート",
        "name:en": "Mammy Mart",
        "name:ja": "マミーマート",
        "opening_hours": "Mo-Su 09:00-21:00",
        "operator": "マミーマート",
        "payment:cash": "yes",
        "payment:credit_cards": "yes",
        "payment:discover_card": "yes",
        "payment:jcb": "yes",
        "payment:mastercard": "yes",
        "payment:visa": "yes",
        "shop": "supermarket"
      }
    },
    {
      "type": "node",
      "id": 2242542103,
      "lat": 36.0458376,
      "lon": 139.3904527,
      "tags": {
        "branch": "松山町店",
        "brand": "マミープラス",
        "brand:en": "Mammy Mart",
        "brand:ja": "マミープラス",
        "brand:wikidata": "Q11340902",
        "name": "マミープラス",
        "name:en": "Mammy Plas",
        "name:ja": "マミープラス",
        "name:ja-Hira": "まみーぷらす",
        "not:brand:wikidata": "Q126935642",
        "operator": "マミーマート",
        "shop": "supermarket"
      }
    },
    {
      "type": "node",
      "id": 2275361888,
      "lat": 35.8449121,
      "lon": 139.361525,
      "tags": {
        "brand": "ベルク",
        "brand:en": "Belc",
        "brand:ja": "ベルク",
        "brand:wikidata": "Q11337090",
        "name": "ベルク",
        "name:en": "Belc",
        "name:ja": "ベルク",
        "payment:cash": "yes",
        "payment:credit_cards": "yes",
        "payment:debit_cards": "yes",
        "payment:rakuten_pay": "yes",
        "shop": "supermarket"
      }
    },
    {
      "type": "node",
      "id": 2319432802,
      "lat": 35.9216014,
      "lon": 139.4734877,
      "tags": {
        "branch": "月吉店",
        "brand": "エコス",
        "brand:en": "Ecos",
        "brand:ja": "エコス",
        "brand:wikidata": "Q11289886",
        "name": "エコス",
        "name:en": "Ecos",
        "name:ja": "エコス",
        "opening_hours": "24/7",
        "shop": "supermarket"
      }
    },
    {
      "type": "node",
      "id": 2319541038,
      "lat": 35.9111396,
      "lon": 139.4781372,
      "tags": {
        "branch": "川越東田町店",
        "brand": "ベルク",
        "brand:en": "Belc",
        "brand:ja": "ベルク",
        "brand:wikidata": "Q11337090",
        "name": "ベルク",
        "name:en": "Belc",
        "name:ja": "ベルク",
        "shop": "supermarket"
      }
    },
    {
      "type": "node",
      "id": 2320305723,
      "lat": 35.777738,
      "lon": 139.4332,
      "tags": {
        "brand": "業務スーパー",
        "name": "業務スーパー",
        "name:en": "Gyomu Super",
        "name:ja": "業務スーパー",
        "name:ja_rm": "Gyomu Supa",
        "shop": "supermarket"
      }
    },
    {
      "type": "node",
      "id": 2320528441,
      "lat": 35.8902079,
      "lon": 139.499108,
      "tags": {
        "branch": "新河岸店",
        "name": "コモディイイダ",
        "shop": "supermarket"
      }
    },
    {
      "type": "node",
      "id": 2371496464,
      "lat": 35.812782,
      "lon": 139.54931,
      "tags": {
        "name": "米店",
        "organic": "only",
        "shop": "supermarket"
      }
    },
    {
      "type": "node",
      "id": 2385073036,
      "lat": 35.8426525,
      "lon": 139.7068413,
      "tags": {
        "brand": "ベルク",
        "brand:en": "Belc",
        "brand:ja": "ベルク",
        "brand:wikidata": "Q11337090",
        "name": "ベルク",
        "name:en": "Belc",
        "name:ja": "ベルク",
        "shop": "supermarket",
        "source": "Bing 2010",
        "website": "https://www.belc.jp/"
      }
    },
    {
      "type": "node",
      "id": 2391120190,
      "lat": 35.809427,
      "lon": 139.480635,
      "tags": {
        "branch": "所沢北原店",
        "brand": "ヤオコー",
        "brand:en": "Yaoko",
        "brand:ja": "ヤオコー",
        "brand:wikidata": "Q11344967",
        "level": "0",
        "name": "ヤオコー 所沢北原店",
        "name:en": "Yaoko",
        "name:ja": "ヤオコー",
        "name:ja_rm": "Yaoko",
        "shop": "supermarket"
      }
    },
    {
      "type": "node",
      "id": 2392843992,
      "lat": 35.8085096,
      "lon": 139.4156002,
      "tags": {
        "branch": "狭山ヶ丘店",
        "brand": "マミーマート",
        "brand:en": "Mammy Mart",
        "brand:ja": "マミーマート",
        "brand:wikidata": "Q11340902",
        "name": "マミーマート",
        "name:en": "Mammy Mart",
        "name:ja": "マミーマート",
        "phone": "+81-04-29387727",
        "shop": "supermarket"
      }
    },
    {
      "type": "node",
      "id": 2397429877,
      "lat": 35.8372812,
      "lon": 139.7057996,
      "tags": {
        "name": "A-プライス 川口前川店",
        "name:en": "A-PRICE KAWAGUCHI MAEKAWA",
        "operator": "A-プライス",
        "shop": "supermarket"
      }
    },
    {
      "type": "node",
      "id": 2400503562,
      "lat": 35.8396108,
      "lon": 139.7128719,
      "tags": {
        "branch": "生鮮市場",
        "brand": "スーパーバリュー",
        "brand:en": "Super Value",
        "brand:ja": "スーパーバリュー",
        "brand:wikidata": "Q11313802",
        "brand:wikipedia": "ja:スーパーバリュー",
        "name": "スーパーバリュー",
        "name:en": "Super Value",
        "name:ja": "スーパーバリュー",
        "shop": "supermarket",
        "website": "https://www.supervalue.jp/store/store_09.html"
      }
    },
    {
      "type": "node",
      "id": 2400993825,
      "lat": 35.788373,
      "lon": 139.457314,
      "tags": {
        "name": "モトハシ",
        "organic": "only",
        "shop": "supermarket"
      }
    },
    {
      "type": "node",
      "id": 2403132191,
      "lat": 35.8382146,
      "lon": 139.5254184,
      "tags": {
        "branch": "三芳藤久保店",
        "brand": "ヤオコー",
        "brand:en": "Yaoko",
        "brand:ja": "ヤオコー",
        "brand:wikidata": "Q11344967",
        "name": "ヤオコー",
        "name:en": "Yaoko",
        "name:ja": "ヤオコー",
        "name:ja_rm": "Yaoko",
        "shop": "supermarket"
      }
    },
    {
      "type": "node",
      "id": 2403814511,
      "lat": 35.8358671,
      "lon": 139.6970463,
      "tags": {
        "brand": "コモディイイダ",
        "brand:en": "Comodi-iida",
        "brand:ja": "コモディイイダ",
        "brand:wikidata": "Q11302699",
        "brand:wikipedia": "ja:コモディイイダ",
        "name": "コモディイイダ",
        "name:en": "Comodi-iida",
        "name:ja": "コモディイイダ",
        "shop": "supermarket"
      }
    },
    {
      "type": "node",
      "id": 2404344919,
      "lat": 35.8481946,
      "lon": 139.7031294,
      "tags": {
        "shop": "supermarket"
      }
    },
    {
      "type": "node",
      "id": 2406631503,
      "lat": 35.8115217,
      "lon": 139.4561379,
      "tags": {
        "covered": "no",
        "name": "ヨークマート所沢花園店",
        "parking": "surface",
        "shop": "supermarket",
        "surface": "asphalt"
      }
    },
    {
      "type": "node",
      "id": 2421486467,
      "lat": 35.7908964,
      "lon": 139.4690665,
      "tags": {
        "check_date:opening_hours": "2022-03-21",
        "name": "マルエツ",
        "name:ja-Latn": "Maruetu",
        "opening_hours": "PH,Mo-Su 09:00-01:00",
        "shop": "supermarket"
      }
    },
    {
      "type": "node",
      "id": 2426243980,
      "lat": 35.8341614,
      "lon": 139.7073891,
      "tags": {
        "name": "イオン川口前川(AEON Kawaguchi-Maekawa)",
        "shop": "supermarket"
      }
    },
    {
      "type": "node",
      "id": 2426252417,
      "lat": 35.8348399,
      "lon": 139.7280797,
      "tags": {
        "name": "ジェーソン(Jason)",
        "shop": "supermarket"
      }
    },
    {
      "type": "node",
      "id": 2426264381,
      "lat": 35.8265197,
      "lon": 139.7042433,
      "tags": {
        "alt_name:en": "Acolle",
        "brand": "アコレ",
        "brand:en": "A・Colle",
        "brand:ja": "アコレ",
        "brand:wikidata": "Q11283128",
        "brand:wikipedia": "ja:アコレ",
        "name": "アコレ",
        "name:en": "A・Colle",
        "name:ja": "アコレ",
        "shop": "supermarket"
      }
    },
    {
      "type": "node",
      "id": 2426264624,
      "lat": 35.8284075,
      "lon": 139.6908024,
      "tags": {
        "check_date": "2025-02-24",
        "opening_hours": "06:00-02:00",
        "shop": "supermarket"
      }
    },
    {
      "type": "node",
      "id": 2459212530,
      "lat": 35.8127294,
      "lon": 139.41793,
      "tags": {
        "name": "スーパーオザム 東狭山ヶ丘店 (ozam)",
        "shop": "supermarket"
      }
    },
    {
      "type": "node",
      "id": 2489477791,
      "lat": 35.7991773,
      "lon": 139.4328153,
      "tags": {
        "name": "ジャパン 小手指店",
        "name:ja": "スギ薬局",
        "shop": "supermarket"
      }
    },
    {
      "type": "node",
      "id": 2504325150,
      "lat": 35.7871103,
      "lon": 139.4730428,
      "tags": {
        "branch": "所沢駅前店",
        "brand": "西友",
        "brand:en": "Seiyu",
        "brand:ja": "西友",
        "brand:wikidata": "Q3108542",
        "brand:wikipedia": "en:Seiyu Group",
        "name": "西友",
        "name:en": "Seiyu",
        "name:ja": "西友",
        "name:ja_rm": "Seiyu",
        "operator": "西友",
        "phone": "+81 4 29232111",
        "shop": "supermarket",
        "toilets:wheelchair": "no",
        "wheelchair": "yes"
      }
    },
    {
      "type": "node",
      "id": 2559435462,
      "lat": 35.8553079,
      "lon": 139.4351514,
      "tags": {
        "alt_name:en": "Co-op",
        "branch": "狭山台店 (co op)",
        "brand": "コープ",
        "brand:en": "CO・OP",
        "brand:ja": "コープ",
        "brand:wikidata": "Q11508615",
        "name": "コープ",
        "name:en": "CO・OP",
        "name:ja": "コープ",
        "official_name": "日本生活協同組合連合会",
        "official_name:en": "Japanese Consumers' Co-operative Union",
        "shop": "supermarket"
      }
    },
    {
      "type": "node",
      "id": 2559435597,
      "lat": 35.8624412,
      "lon": 139.427091,
      "tags": {
        "branch": "ベスタ狭山店 (Belc)",
        "brand": "ベルク",
        "brand:en": "Belc",
        "brand:ja": "ベルク",
        "brand:wikidata": "Q11337090",
        "name": "ベルク",
        "name:en": "Belc",
        "name:ja": "ベルク",
        "shop": "supermarket"
      }
    },
    {
      "type": "node",
      "id": 2560945473,
      "lat": 35.8132346,
      "lon": 139.6963582,
      "tags": {
        "name": "新鮮市場",
        "shop": "supermarket"
      }
    },
    {
      "type": "node",
      "id": 2576564999,
      "lat": 35.8275508,
      "lon": 139.7097959,
      "tags": {
        "brand": "カスミ",
        "brand:en": "Kasumi",
        "brand:ja": "カスミ",
        "brand:wikidata": "Q11294160",
        "brand:wikipedia": "ja:カスミ",
        "name": "カスミ",
        "name:en": "Kasumi",
        "name:ja": "カスミ",
        "name:ja_rm": "Kasumi",
        "shop": "supermarket"
      }
    },
    {
      "type": "node",
      "id": 2579485275,
      "lat": 35.8313331,
      "lon": 139.7154145,
      "tags": {
        "brand": "マルエツ",
        "brand:en": "Maruetsu",
        "brand:ja": "マルエツ",
        "brand:wikidata": "Q11341197",
        "brand:wikipedia": "ja:マルエツ",
        "name": "マルエツ",
        "name:en": "Maruetsu",
        "name:ja": "マルエツ",
        "shop": "supermarket"
      }
    },
    {
      "type": "node",
      "id": 2584516660,
      "lat": 35.8416092,
      "lon": 139.7165944,
      "tags": {
        "name": "カネモ",
        "shop": "supermarket"
      }
    },
    {
      "type": "node",
      "id": 2632414095,
      "lat": 35.805394,
      "lon": 139.4194512,
      "tags": {
        "name": "いなげや 所沢狭山ヶ丘店",
        "shop": "supermarket"
      }
    },
    {
      "type": "node",
      "id": 2657145060,
      "lat": 35.8247419,
      "lon": 139.7167766,
      "tags": {
        "brand": "Big-A",
        "brand:en": "Big-A",
        "brand:ja": "ビッグ・エー",
        "brand:wikidata": "Q11330804",
        "brand:wikipedia": "jp:ビッグ・エー",
        "name": "Big-A",
        "name:en": "Big-A",
        "name:ja": "ビッグ・エー",
        "shop": "supermarket"
      }
    },
    {
      "type": "node",
      "id": 2724800929,
      "lat": 36.0858767,
      "lon": 139.4779001,
      "tags": {
        "brand": "マミーマート",
        "brand:en": "Mammy Mart",
        "brand:ja": "マミーマート",
        "brand:wikidata": "Q11340902",
        "brand:wikipedia": "ja:マミーマート",
        "name": "マミーマート",
        "name:en": "Mammy Mart",
        "name:ja": "マミーマート",
        "shop": "supermarket"
      }
    },
    {
      "type": "node",
      "id": 2756089797,
      "lat": 35.906525,
      "lon": 139.5794709,
      "tags": {
        "name": "マルエツ",
        "shop": "supermarket"
      }
    },
    {
      "type": "node",
      "id": 2795601482,
      "lat": 36.015397,
      "lon": 139.6706258,
      "tags": {
        "branch": "白岡店",
        "name": "マミーマート",
        "name:en": "Mammy Mart",
        "shop": "supermarket",
        "website": "https://mami-mart.com/stores/saitama/shiraoka/shiraoka.html"
      }
    },
    {
      "type": "node",
      "id": 2844027742,
      "lat": 35.7691917,
      "lon": 139.5258564,
      "tags": {
        "shop": "supermarket"
      }
    },
    {
      "type": "node",
      "id": 2850637647,
      "lat": 35.8590787,
      "lon": 139.6769764,
      "tags": {
        "name": "マツモトキヨシ",
        "shop": "supermarket"
      }
    },
    {
      "type": "node",
      "id": 2858139621,
      "lat": 35.8250057,
      "lon": 139.7135081,
      "tags": {
        "alt_name:en": "Acolle",
        "brand": "アコレ",
        "brand:en": "A・Colle",
        "brand:ja": "アコレ",
        "brand:wikidata": "Q11283128",
        "brand:wikipedia": "ja:アコレ",
        "name": "アコレ",
        "name:en": "A・Colle",
        "name:ja": "アコレ",
        "opening_hours": "07:00-23:00",
        "shop": "supermarket",
        "wheelchair": "yes"
      }
    },
    {
      "type": "node",
      "id": 2890730939,
      "lat": 35.9486251,
      "lon": 139.7063294,
      "tags": {
        "addr:city": "さいたま市岩槻区",
        "addr:housenumber": "1-10-44",
        "addr:postcode": "3390052",
        "name": "岩槻安穏朝市",
        "operator": "岩槻は朝市からはじまる。の会",
        "shop": "supermarket",
        "website": "http://www.iwatsukin.com"
      }
    },
    {
      "type": "node",
      "id": 2890804617,
      "lat": 36.0520608,
      "lon": 139.7440091,
      "tags": {
        "addr:city": "幸手市",
        "addr:housenumber": "388-1",
        "addr:postcode": "340-0144",
        "addr:street": "県道境杉戸線(Sakai-Sugito-Sen)",
        "name": "しあわせすぎマルシェ",
        "note": "名称　しあわせすぎマルシェ 日時　６月８日（日）10:00～13:00 場所　幸手市戸島388-1（パチンコチャレンジャー駐車場） 申し込み・問い合わせ しあわせすぎ朝市実行委員会（NPO法人すぎとSOHOクラブ） TEL/FAX　0480-31-0055（月～金9:30～17:30） WEB　http://shiawasesugi.wix.com/2014",
        "operator": "NPO法人すぎとSOHOクラブ",
        "shop": "supermarket",
        "website": "http://shiawasesugi.wix.com/2014"
      }
    },
    {
      "type": "node",
      "id": 2891650848,
      "lat": 35.8755875,
      "lon": 139.7832129,
      "tags": {
        "brand": "カスミ",
        "brand:en": "Kasumi",
        "brand:ja": "カスミ",
        "brand:wikidata": "Q11294160",
        "brand:wikipedia": "ja:カスミ",
        "name": "カスミ",
        "name:en": "Kasumi",
        "name:ja": "カスミ",
        "shop": "supermarket"
      }
    },
    {
      "type": "node",
      "id": 2897109916,
      "lat": 35.7861138,
      "lon": 139.4273176,
      "tags": {
        "name": "ヤオコー 所沢椿峰店 (YAOKO)",
        "shop": "supermarket"
      }
    },
    {
      "type": "node",
      "id": 2916932926,
      "lat": 35.9112091,
      "lon": 139.6425611,
      "tags": {
        "name": "全日食チェーン",
        "shop": "supermarket"
      }
    },
    {
      "type": "node",
      "id": 2921241901,
      "lat": 35.818869,
      "lon": 139.712596,
      "tags": {
        "brand": "マルエツ",
        "brand:en": "Maruetsu",
        "brand:ja": "マルエツ",
        "brand:wikidata": "Q11341197",
        "brand:wikipedia": "ja:マルエツ",
        "name": "マルエツ",
        "name:en": "Maruetsu",
        "name:ja": "マルエツ",
        "shop": "supermarket",
        "wheelchair": "yes"
      }
    },
    {
      "type": "node",
      "id": 2938391650,
      "lat": 35.9076946,
      "lon": 139.6403196,
      "tags": {
        "branch": "大宮天沼店",
        "name": "ビッグ・エー",
        "shop": "supermarket",
        "source": "knowledge"
      }
    },
    {
      "type": "node",
      "id": 2948784016,
      "lat": 36.1338038,
      "lon": 139.4661129,
      "tags": {
        "branch": "行田南店",
        "name": "ベルク",
        "shop": "supermarket"
      }
    },
    {
      "type": "node",
      "id": 2959525634,
      "lat": 35.928451,
      "lon": 139.625975,
      "tags": {
        "branch": "大宮盆栽町店",
        "brand": "ヤオコー",
        "brand:en": "Yaoko",
        "brand:ja": "ヤオコー",
        "brand:wikidata": "Q11344967",
        "brand:wikipedia": "ja:ヤオコー",
        "name": "ヤオコー",
        "name:en": "Yaoko",
        "name:ja": "ヤオコー",
        "opening_hours": "Mo-Su,PH 09:00-21:45",
        "shop": "supermarket",
        "source": "survey"
      }
    },
    {
      "type": "node",
      "id": 3001674696,
      "lat": 36.1507713,
      "lon": 139.3836478,
      "tags": {
        "name": "Shopi",
        "shop": "supermarket",
        "source": "bing"
      }
    },
    {
      "type": "node",
      "id": 3044973457,
      "lat": 35.7881243,
      "lon": 139.4810001,
      "tags": {
        "branch": "北秋津店",
        "name": "ミニコープ",
        "shop": "supermarket"
      }
    },
    {
      "type": "node",
      "id": 3048470528,
      "lat": 35.922042,
      "lon": 139.6147725,
      "tags": {
        "name": "ロチ”ャース大成店",
        "opening_hours": "Mo-Sa 09:30-21:30; Su,PH 09:00-21:30",
        "shop": "supermarket"
      }
    },
    {
      "type": "node",
      "id": 3087115561,
      "lat": 35.9051635,
      "lon": 139.6355132,
      "tags": {
        "name": "マルエツ天沼店",
        "opening_hours": "9:00-22:00",
        "shop": "supermarket"
      }
    },
    {
      "type": "node",
      "id": 3121549690,
      "lat": 35.789684,
      "lon": 139.4596849,
      "tags": {
        "name": "新鮮市場 マルチョウ",
        "name:ja_kana": "しんせんいちば まるちょう",
        "name:ja_rm": "sinsen-itiba marutyô",
        "shop": "supermarket"
      }
    },
    {
      "type": "node",
      "id": 3178290244,
      "lat": 35.8521288,
      "lon": 139.5437651,
      "tags": {
        "brand": "ヤオコー",
        "brand:en": "Yaoko",
        "brand:ja": "ヤオコー",
        "brand:wikidata": "Q11344967",
        "name": "ヤオコー",
        "name:en": "Yaoko",
        "name:ja": "ヤオコー",
        "shop": "supermarket"
      }
    },
    {
      "type": "node",
      "id": 3178290245,
      "lat": 35.8522432,
      "lon": 139.5445814,
      "tags": {
        "name": "ドラックエース",
        "shop": "supermarket"
      }
    },
    {
      "type": "node",
      "id": 3178290247,
      "lat": 35.8504089,
      "lon": 139.5425648,
      "tags": {
        "brand": "Big-A",
        "brand:en": "Big-A",
        "brand:ja": "ビッグ・エー",
        "brand:wikidata": "Q11330804",
        "name": "Big-A",
        "name:en": "Big-A",
        "name:ja": "ビッグ・エー",
        "shop": "supermarket"
      }
    },
    {
      "type": "node",
      "id": 3178303494,
      "lat": 35.8456152,
      "lon": 139.5389617,
      "tags": {
        "brand": "東武ストア",
        "brand:en": "Tobu Store",
        "brand:ja": "東武ストア",
        "brand:wikidata": "Q11527478",
        "internet_access": "no",
        "level": "1",
        "mapillary": "788244045212574",
        "name": "東武ストア",
        "name:en": "Tobu Store",
        "name:ja": "東武ストア",
        "organic": "yes",
        "payment:cards": "yes",
        "payment:cash": "yes",
        "payment:qr_code": "yes",
        "phone": "+81 49 254 1221",
        "shop": "supermarket",
        "website": "https://www.tobustore.co.jp/index.php/shop/detail/39"
      }
    },
    {
      "type": "node",
      "id": 3178309674,
      "lat": 35.8533809,
      "lon": 139.544736,
      "tags": {
        "name": "ファミリーマート",
        "shop": "supermarket"
      }
    },
    {
      "type": "node",
      "id": 3224353174,
      "lat": 35.8102831,
      "lon": 139.4916161,
      "tags": {
        "name": "オザム 中富店 (ozam)",
        "shop": "supermarket"
      }
    },
    {
      "type": "node",
      "id": 3224980958,
      "lat": 35.8653992,
      "lon": 139.787605,
      "tags": {
        "brand": "ヤオコー",
        "brand:en": "Yaoko",
        "brand:ja": "ヤオコー",
        "brand:wikidata": "Q11344967",
        "brand:wikipedia": "ja:ヤオコー",
        "name": "ヤオコー",
        "name:en": "Yaoko",
        "name:ja": "ヤオコー",
        "name:ja-Hira": "やおこー",
        "name:ja-Latn": "Yaokō",
        "shop": "supermarket"
      }
    },
    {
      "type": "node",
      "id": 3264855178,
      "lat": 36.1380331,
      "lon": 139.4584313,
      "tags": {
        "name": "エコス",
        "shop": "supermarket"
      }
    },
    {
      "type": "node",
      "id": 3273080970,
      "lat": 35.8610417,
      "lon": 139.5248701,
      "tags": {
        "alt_name:en": "Acolle",
        "brand": "アコレ",
        "brand:en": "A・Colle",
        "brand:ja": "アコレ",
        "brand:wikidata": "Q11283128",
        "name": "アコレ",
        "name:en": "A・Colle",
        "name:ja": "アコレ",
        "shop": "supermarket"
      }
    },
    {
      "type": "node",
      "id": 3278480176,
      "lat": 35.8272579,
      "lon": 139.3927261,
      "tags": {
        "name": "JAPAN MEAT　入間店",
        "name:en": "JAPAN MEAT",
        "shop": "supermarket",
        "source": "Bing"
      }
    },
    {
      "type": "node",
      "id": 3387357970,
      "lat": 35.8512518,
      "lon": 139.6399316,
      "tags": {
        "brand": "コモディイイダ",
        "brand:en": "Comodi-iida",
        "brand:ja": "コモディイイダ",
        "brand:wikidata": "Q11302699",
        "name": "コモディイイダ",
        "name:en": "Comodi-iida",
        "name:ja": "コモディイイダ",
        "opening_hours": "09:00-21:00",
        "shop": "supermarket"
      }
    },
    {
      "type": "node",
      "id": 3392132973,
      "lat": 36.0547351,
      "lon": 139.5098546,
      "tags": {
        "brand": "ヤオコー",
        "brand:en": "Yaoko",
        "brand:ja": "ヤオコー",
        "brand:wikidata": "Q11344967",
        "brand:wikipedia": "ja:ヤオコー",
        "name": "ヤオコー",
        "name:en": "Yaoko",
        "name:ja": "ヤオコー",
        "shop": "supermarket"
      }
    },
    {
      "type": "node",
      "id": 3401652666,
      "lat": 35.898962,
      "lon": 139.6124665,
      "tags": {
        "branch": "大宮上小町店",
        "brand": "ヤオコー",
        "brand:en": "Yaoko",
        "brand:ja": "ヤオコー",
        "brand:wikidata": "Q11344967",
        "brand:wikipedia": "ja:ヤオコー",
        "name": "ヤオコー",
        "name:en": "Yaoko",
        "name:ja": "ヤオコー",
        "opening_hours": "09:30-21:00",
        "phone": "+81-48-642-7511",
        "shop": "supermarket",
        "source": "survey"
      }
    },
    {
      "type": "node",
      "id": 3440297972,
      "lat": 35.9879562,
      "lon": 139.7886234,
      "tags": {
        "name": "イオンモール",
        "shop": "supermarket"
      }
    },
    {
      "type": "node",
      "id": 3465989343,
      "lat": 35.9284256,
      "lon": 139.5150909,
      "tags": {
        "name": "伊佐沼農産物直売所",
        "opening_hours": "Tu-Su 09:00-17:00",
        "shop": "supermarket"
      }
    },
    {
      "type": "node",
      "id": 3470757462,
      "lat": 35.985664,
      "lon": 139.5970626,
      "tags": {
        "name": "ヤオヒロ東店",
        "shop": "supermarket"
      }
    },
    {
      "type": "node",
      "id": 3478179555,
      "lat": 35.9602247,
      "lon": 139.6503571,
      "tags": {
        "name": "ロジャース",
        "name:en": "rogers",
        "shop": "supermarket"
      }
    },
    {
      "type": "node",
      "id": 3478484901,
      "lat": 35.9470463,
      "lon": 139.6549002,
      "tags": {
        "brand": "ヤオコー",
        "brand:en": "Yaoko",
        "brand:ja": "ヤオコー",
        "brand:wikidata": "Q11344967",
        "brand:wikipedia": "ja:ヤオコー",
        "name": "ヤオコー",
        "name:en": "Yaoko",
        "name:ja": "ヤオコー",
        "shop": "supermarket"
      }
    },
    {
      "type": "node",
      "id": 3478639201,
      "lat": 35.9568524,
      "lon": 139.6596964,
      "tags": {
        "brand": "ベルクス",
        "brand:en": "Bel'x",
        "brand:ja": "ベルクス",
        "brand:wikidata": "Q11305967",
        "name": "ベルクス",
        "name:en": "Bel'x",
        "name:ja": "ベルクス",
        "shop": "supermarket"
      }
    },
    {
      "type": "node",
      "id": 3479093007,
      "lat": 35.9494278,
      "lon": 139.6583038,
      "tags": {
        "name": "酒＆業務スーパー",
        "name:en": "Sake&Gyoumu-super",
        "shop": "supermarket"
      }
    },
    {
      "type": "node",
      "id": 3500325864,
      "lat": 35.9481572,
      "lon": 139.6406579,
      "tags": {
        "brand": "Big-A",
        "brand:en": "Big-A",
        "brand:ja": "ビッグ・エー",
        "brand:wikidata": "Q11330804",
        "brand:wikipedia": "ja:アコレ",
        "name": "Big-A",
        "name:en": "Big-A",
        "name:ja": "ビッグ・エー",
        "opening_hours": "Mo-Su,PH 07:00-24:00",
        "shop": "supermarket",
        "source": "survey"
      }
    },
    {
      "type": "node",
      "id": 3504126725,
      "lat": 35.9183277,
      "lon": 139.4267639,
      "tags": {
        "brand": "ヤオコー",
        "brand:en": "Yaoko",
        "brand:ja": "ヤオコー",
        "brand:wikidata": "Q11344967",
        "name": "ヤオコー",
        "name:en": "Yaoko",
        "name:ja": "ヤオコー",
        "shop": "supermarket"
      }
    },
    {
      "type": "node",
      "id": 3520947329,
      "lat": 36.0676681,
      "lon": 139.6720101,
      "tags": {
        "name": "金重本店",
        "shop": "supermarket"
      }
    },
    {
      "type": "node",
      "id": 3521327940,
      "lat": 35.9397183,
      "lon": 139.6466242,
      "tags": {
        "name": "マルエツ",
        "name:en": "Maruetsu",
        "opening_hours": "Mo-Su,PH 09:00-01:00",
        "shop": "supermarket"
      }
    },
    {
      "type": "node",
      "id": 3775084458,
      "lat": 35.9224786,
      "lon": 139.389031,
      "tags": {
        "brand": "ベイシア",
        "brand:en": "Beisia",
        "brand:ja": "ベイシア",
        "brand:wikidata": "Q11336776",
        "name": "ベイシア",
        "name:en": "Beisia",
        "name:ja": "ベイシア",
        "shop": "supermarket",
        "wheelchair": "yes"
      }
    },
    {
      "type": "node",
      "id": 3802109616,
      "lat": 35.8581175,
      "lon": 139.5377158,
      "tags": {
        "name": "ミニコープ羽沢",
        "shop": "supermarket"
      }
    },
    {
      "type": "node",
      "id": 3802125060,
      "lat": 35.8632988,
      "lon": 139.5263546,
      "tags": {
        "name": "駅前市場ふじみ野店",
        "shop": "supermarket"
      }
    },
    {
      "type": "node",
      "id": 3811211173,
      "lat": 35.8610458,
      "lon": 139.5231715,
      "tags": {
        "brand": "東武ストア",
        "brand:en": "Tobu Store",
        "brand:ja": "東武ストア",
        "brand:wikidata": "Q11527478",
        "name": "東武ストア",
        "name:en": "Tobu Store",
        "name:ja": "東武ストア",
        "shop": "supermarket"
      }
    },
    {
      "type": "node",
      "id": 3811297497,
      "lat": 35.8608509,
      "lon": 139.5227072,
      "tags": {
        "name": "東武ストア",
        "shop": "supermarket"
      }
    },
    {
      "type": "node",
      "id": 3811314075,
      "lat": 35.8543029,
      "lon": 139.5349806,
      "tags": {
        "name": "エコス羽沢店",
        "shop": "supermarket"
      }
    },
    {
      "type": "node",
      "id": 3812273983,
      "lat": 35.8584431,
      "lon": 139.5492203,
      "tags": {
        "brand": "ヤオコー",
        "brand:en": "Yaoko",
        "brand:ja": "ヤオコー",
        "brand:wikidata": "Q11344967",
        "name": "ヤオコー",
        "name:en": "Yaoko",
        "name:ja": "ヤオコー",
        "shop": "supermarket"
      }
    },
    {
      "type": "node",
      "id": 3820031265,
      "lat": 35.8537762,
      "lon": 139.5150036,
      "tags": {
        "name": "生鮮市場TOP",
        "shop": "supermarket"
      }
    },
    {
      "type": "node",
      "id": 3826171180,
      "lat": 36.1812589,
      "lon": 139.2992612,
      "tags": {
        "building:levels": "2",
        "name": "アリオ深谷",
        "name:en": "Ario Fukaya",
        "shop": "supermarket"
      }
    },
    {
      "type": "node",
      "id": 3826171182,
      "lat": 36.203504,
      "lon": 139.284356,
      "tags": {
        "name": "フレッセイ",
        "shop": "supermarket"
      }
    },
    {
      "type": "node",
      "id": 3826171185,
      "lat": 36.1935824,
      "lon": 139.3018181,
      "tags": {
        "name": "ヤオコー国済寺店",
        "shop": "supermarket"
      }
    },
    {
      "type": "node",
      "id": 3826171189,
      "lat": 36.1958834,
      "lon": 139.2763715,
      "tags": {
        "name": "トライアル",
        "shop": "supermarket"
      }
    },
    {
      "type": "node",
      "id": 3826171203,
      "lat": 36.19798,
      "lon": 139.2787019,
      "tags": {
        "name": "コープ",
        "shop": "supermarket"
      }
    },
    {
      "type": "node",
      "id": 3908015159,
      "lat": 35.837912,
      "lon": 139.8044014,
      "tags": {
        "addr:full": "埼玉県草加市栄町１丁目7-18",
        "addr:postcode": "340-0011",
        "branch": "草加店",
        "brand": "スーパーバリュー",
        "brand:en": "Super Value",
        "brand:ja": "スーパーバリュー",
        "brand:wikidata": "Q11313802",
        "brand:wikipedia": "ja:スーパーバリュー",
        "name": "スーパーバリュー",
        "name:en": "Super Value Soka Store",
        "name:ja": "スーパーバリュー草加店",
        "phone": "+81 48-932-5151",
        "shop": "supermarket",
        "website": "https://supervalue.jp/"
      }
    },
    {
      "type": "node",
      "id": 3908773473,
      "lat": 35.8769828,
      "lon": 139.8243686,
      "tags": {
        "addr:housenumber": "越谷市レイクタウン4-2-2",
        "addr:postcode": "343-0828",
        "brand": "マルエツ",
        "brand:en": "Maruetsu",
        "brand:ja": "マルエツ",
        "brand:wikidata": "Q11341197",
        "brand:wikipedia": "ja:マルエツ",
        "level": "0",
        "name": "マルエツ",
        "name:en": "Maruetsu",
        "name:ja": "マルエツ",
        "opening_hours": "Mo-Su 09:00-23:00",
        "phone": "+81 48-988-7588",
        "shop": "supermarket",
        "website": "https://www.maruetsu.co.jp/",
        "wheelchair": "yes"
      }
    },
    {
      "type": "node",
      "id": 3953162553,
      "lat": 35.8861904,
      "lon": 139.6462876,
      "tags": {
        "name": "ヤオコー　YAOKO MARKETPLACE",
        "shop": "supermarket"
      }
    },
    {
      "type": "node",
      "id": 4003583305,
      "lat": 36.0371755,
      "lon": 139.3838227,
      "tags": {
        "brand": "ドン・キホーテ",
        "brand:en": "Don Quijote",
        "brand:ja": "ドン・キホーテ",
        "brand:wikidata": "Q1185381",
        "brand:wikipedia": "ja:ドン・キホーテ (企業)",
        "name": "MEGAドン・キホーテ",
        "name:en": "MEGA Don Quijote",
        "name:ja": "MEGAドン・キホーテ",
        "opening_hours": "24/7",
        "shop": "supermarket",
        "short_name": "MEGAドンキ",
        "short_name:en": "MegaDonki",
        "short_name:ja": "MEGAドンキ"
      }
    },
    {
      "type": "node",
      "id": 4003762246,
      "lat": 35.8615203,
      "lon": 139.7563576,
      "tags": {
        "addr:city": "埼玉県川口市戸塚",
        "name": "アコレ川口戸塚6丁目店",
        "shop": "supermarket"
      }
    },
    {
      "type": "node",
      "id": 4031316806,
      "lat": 36.2208117,
      "lon": 139.1827642,
      "tags": {
        "brand": "ベイシア",
        "brand:en": "Beisia",
        "brand:ja": "ベイシア",
        "brand:wikidata": "Q11336776",
        "name": "ベイシア",
        "name:en": "Beisia",
        "name:ja": "ベイシア",
        "shop": "supermarket"
      }
    },
    {
      "type": "node",
      "id": 4031350491,
      "lat": 36.2281964,
      "lon": 139.1821691,
      "tags": {
        "name": "業務スーパー",
        "name:en": "Gyomu Super",
        "name:ja": "業務スーパー 本庄早稲田店",
        "opening_hours": "Mo-Su 09:00-22:00",
        "shop": "supermarket"
      }
    },
    {
      "type": "node",
      "id": 4043228292,
      "lat": 36.2321866,
      "lon": 139.2096678,
      "tags": {
        "name": "ベルク ベスタ店",
        "shop": "supermarket"
      }
    },
    {
      "type": "node",
      "id": 4049736522,
      "lat": 35.9689636,
      "lon": 139.5603261,
      "tags": {
        "name": "Big-A",
        "shop": "supermarket"
      }
    },
    {
      "type": "node",
      "id": 4051903692,
      "lat": 35.7900011,
      "lon": 139.4595204,
      "tags": {
        "name": "マツモトキヨシ　西所沢店",
        "shop": "supermarket"
      }
    },
    {
      "type": "node",
      "id": 4102462110,
      "lat": 35.9974069,
      "lon": 139.6280685,
      "tags": {
        "addr:block_number": "243番",
        "addr:city": "伊奈町",
        "addr:county": "北足立郡",
        "addr:neighbourhood": "1丁目",
        "addr:postcode": "362-0804",
        "addr:province": "埼玉県",
        "addr:quarter": "本町",
        "branch": "伊奈店",
        "name": "ギガパール",
        "shop": "supermarket"
      }
    },
    {
      "type": "node",
      "id": 4106728894,
      "lat": 36.0671454,
      "lon": 139.6008662,
      "tags": {
        "brand": "ヤオコー",
        "brand:en": "Yaoko",
        "brand:ja": "ヤオコー",
        "brand:wikidata": "Q11344967",
        "brand:wikipedia": "ja:ヤオコー",
        "name": "ヤオコー",
        "name:en": "Yaoko",
        "name:ja": "ヤオコー",
        "shop": "supermarket"
      }
    },
    {
      "type": "node",
      "id": 4108791691,
      "lat": 35.8434177,
      "lon": 139.6560699,
      "tags": {
        "brand": "ベルク",
        "brand:en": "Belc",
        "brand:ja": "ベルク",
        "brand:wikidata": "Q11337090",
        "brand:wikipedia": "ja:ベルク (企業)",
        "name": "ベルク浦和根岸店",
        "name:en": "Belc",
        "name:ja": "ベルク",
        "opening_hours": "09:00-25:00",
        "shop": "supermarket"
      }
    },
    {
      "type": "node",
      "id": 4108791694,
      "lat": 35.8409875,
      "lon": 139.6949801,
      "tags": {
        "brand": "業務スーパー",
        "brand:en": "Gyomu Super",
        "brand:ja": "業務スーパー",
        "brand:ja-Latn": "Gyōmu sūpā",
        "brand:wikidata": "Q105687460",
        "name": "業務スーパー",
        "name:en": "Gyomu Super",
        "name:ja": "業務スーパー",
        "name:ja-Latn": "Gyōmu sūpā",
        "shop": "supermarket"
      }
    },
    {
      "type": "node",
      "id": 4108802990,
      "lat": 35.8375681,
      "lon": 139.6627568,
      "tags": {
        "brand": "Big-A",
        "brand:en": "Big-A",
        "brand:ja": "ビッグ・エー",
        "brand:wikidata": "Q11330804",
        "brand:wikipedia": "jp:ビッグ・エー",
        "name": "Big-A",
        "name:en": "Big-A",
        "name:ja": "ビッグ・エー",
        "shop": "supermarket"
      }
    },
    {
      "type": "node",
      "id": 4173518334,
      "lat": 35.9845026,
      "lon": 139.6445193,
      "tags": {
        "addr:city": "蓮田市",
        "addr:housenumber": "4-2",
        "addr:postcode": "349-0128",
        "addr:street": "山ノ内",
        "branch": "蓮田山ノ内店",
        "brand": "マミーマート",
        "brand:en": "Mammy Mart",
        "brand:ja": "マミーマート",
        "brand:wikidata": "Q11340902",
        "name": "マミーマート",
        "name:en": "Mammy Mart",
        "name:ja": "マミーマート",
        "opening_hours": "10:00 ～ 21:00",
        "shop": "supermarket"
      }
    },
    {
      "type": "node",
      "id": 4211739049,
      "lat": 35.9882577,
      "lon": 139.7336885,
      "tags": {
        "name": "コモディイイダ",
        "name:en": "イイダ",
        "shop": "supermarket"
      }
    },
    {
      "type": "node",
      "id": 4211739051,
      "lat": 35.9890599,
      "lon": 139.7330448,
      "tags": {
        "name": "ビッグ・エー春日部栄町店",
        "shop": "supermarket"
      }
    },
    {
      "type": "node",
      "id": 4211746892,
      "lat": 35.9711029,
      "lon": 139.7355893,
      "tags": {
        "brand": "ドン・キホーテ",
        "brand:en": "Don Quijote",
        "brand:ja": "ドン・キホーテ",
        "brand:wikidata": "Q1185381",
        "brand:wikipedia": "ja:ドン・キホーテ (企業)",
        "name": "MEGAドン・キホーテ",
        "name:en": "MEGA Don Quijote",
        "name:ja": "MEGAドン・キホーテ",
        "opening_hours": "24/7",
        "shop": "supermarket",
        "short_name": "MEGAドンキ",
        "short_name:en": "MegaDonki",
        "short_name:ja": "MEGAドンキ"
      }
    },
    {
      "type": "node",
      "id": 4211792005,
      "lat": 35.9904272,
      "lon": 139.7587465,
      "tags": {
        "name": "マミーマート 生鮮市場TOP春日部店",
        "opening_hours": "9:00-22:00",
        "phone": "048-763-3280",
        "shop": "supermarket"
      }
    },
    {
      "type": "node",
      "id": 4269010991,
      "lat": 35.792574,
      "lon": 139.5098032,
      "tags": {
        "branch": "東所沢店",
        "brand": "業務スーパー",
        "brand:en": "Gyomu Super",
        "brand:ja": "業務スーパー",
        "brand:ja-Latn": "Gyōmu sūpā",
        "brand:wikidata": "Q105687460",
        "name": "業務スーパー",
        "name:en": "Gyomu Super",
        "name:ja": "業務スーパー",
        "name:ja-Latn": "Gyōmu sūpā",
        "shop": "supermarket"
      }
    },
    {
      "type": "node",
      "id": 4269051741,
      "lat": 35.7965099,
      "lon": 139.5103367,
      "tags": {
        "brand": "ヤオコー",
        "brand:en": "Yaoko",
        "brand:ja": "ヤオコー",
        "brand:wikidata": "Q11344967",
        "name": "ヤオコー",
        "name:en": "Yaoko",
        "name:ja": "ヤオコー",
        "shop": "supermarket"
      }
    },
    {
      "type": "node",
      "id": 4269212732,
      "lat": 35.8954371,
      "lon": 139.8030239,
      "tags": {
        "name": "ベルク",
        "shop": "supermarket"
      }
    },
    {
      "type": "node",
      "id": 4281629869,
      "lat": 35.8726779,
      "lon": 139.7492323,
      "tags": {
        "brand": "マルエツ",
        "brand:en": "Maruetsu",
        "brand:ja": "マルエツ",
        "brand:wikidata": "Q11341197",
        "brand:wikipedia": "ja:マルエツ",
        "name": "マルエツ",
        "name:en": "Maruetsu",
        "name:ja": "マルエツ",
        "shop": "supermarket"
      }
    },
    {
      "type": "node",
      "id": 4281629874,
      "lat": 35.8769661,
      "lon": 139.744576,
      "tags": {
        "brand": "西友",
        "brand:en": "Seiyu",
        "brand:wikidata": "Q3108542",
        "brand:wikipedia": "en:Seiyu Group",
        "name": "西友",
        "name:en": "Seiyu",
        "shop": "supermarket"
      }
    },
    {
      "type": "node",
      "id": 4281629876,
      "lat": 35.8782848,
      "lon": 139.7457163,
      "tags": {
        "branch": "東川口店",
        "brand": "ダイエー",
        "brand:en": "daiei",
        "brand:ja": "ダイエー",
        "brand:wikidata": "Q11316644",
        "brand:wikipedia": "ja:ダイエー (店舗ブランド)",
        "name": "ダイエー",
        "name:en": "Daiei",
        "name:ja": "ダイエー",
        "name:ja-Latn": "Daiē",
        "shop": "supermarket"
      }
    },
    {
      "type": "node",
      "id": 4345219277,
      "lat": 36.0435394,
      "lon": 139.4140707,
      "tags": {
        "addr:city": "東松山市",
        "addr:country": "JP",
        "addr:full": "埼玉県東松山市砂田町16-7",
        "addr:province": "埼玉県",
        "addr:quarter": "砂田町",
        "branch": "砂田店",
        "brand": "ベルク",
        "brand:en": "Belc",
        "brand:ja": "ベルク",
        "brand:wikidata": "Q11337090",
        "contact:phone": "+81 493 25 0666",
        "name": "ベルク",
        "name:en": "Belc",
        "name:ja": "ベルク",
        "name:ja-Hira": "べるく",
        "name:ja-Latn": "Beruku",
        "opening_hours": "Mo-Su,PH 09:00-24:00",
        "payment:american_express": "yes",
        "payment:cash": "yes",
        "payment:diners_club": "yes",
        "payment:jcb": "yes",
        "payment:mastercard": "yes",
        "payment:visa": "yes",
        "payment:visa_debit": "yes",
        "shop": "supermarket",
        "wheelchair": "yes"
      }
    },
    {
      "type": "node",
      "id": 4360171498,
      "lat": 35.8224633,
      "lon": 139.694607,
      "tags": {
        "name": "ヤオコー蕨南町店",
        "name:ja": "ヤオコー蕨南町店",
        "opening_hours": "Mo-Su 09:30-12:30, 19:00-22:00",
        "phone": "+81 484346111",
        "shop": "supermarket",
        "website": "https://www.yaoko-net.com/store/store01/069.html"
      }
    },
    {
      "type": "node",
      "id": 4373080697,
      "lat": 35.7789842,
      "lon": 139.5708508,
      "tags": {
        "addr:block_number": "6",
        "addr:housenumber": "15",
        "addr:neighbourhood": "馬場4丁目",
        "branch": "新座馬場店",
        "name": "ヨークフーズ",
        "phone": "+81 48 478 9200",
        "shop": "supermarket"
      }
    },
    {
      "type": "node",
      "id": 4373094404,
      "lat": 36.1907794,
      "lon": 139.1434517,
      "tags": {
        "brand": "ヤオコー",
        "brand:en": "Yaoko",
        "brand:ja": "ヤオコー",
        "brand:wikidata": "Q11344967",
        "brand:wikipedia": "ja:ヤオコー",
        "name": "ヤオコー",
        "name:en": "Yaoko",
        "name:ja": "ヤオコー",
        "shop": "supermarket"
      }
    },
    {
      "type": "node",
      "id": 4374157409,
      "lat": 36.2100733,
      "lon": 139.2387553,
      "tags": {
        "name": "ヤオコー 岡部店",
        "shop": "supermarket"
      }
    },
    {
      "type": "node",
      "id": 4374203947,
      "lat": 36.1862581,
      "lon": 139.0646846,
      "tags": {
        "name": "マーケットプレイスはせがわ",
        "shop": "supermarket"
      }
    },
    {
      "type": "node",
      "id": 4382828190,
      "lat": 36.1527237,
      "lon": 139.4699899,
      "tags": {
        "name": "スーパーヤオヒロ",
        "shop": "supermarket"
      }
    },
    {
      "type": "node",
      "id": 4415864721,
      "lat": 35.8415783,
      "lon": 139.7769262,
      "tags": {
        "name": "(株)コモディイイダ 安行店",
        "shop": "supermarket"
      }
    },
    {
      "type": "node",
      "id": 4439862389,
      "lat": 35.7699144,
      "lon": 139.4493901,
      "tags": {
        "brand": "いなげや",
        "brand:en": "Inageya",
        "brand:ja": "いなげや",
        "brand:wikidata": "Q17193392",
        "brand:wikipedia": "ja:いなげや",
        "name": "いなげや",
        "name:en": "Inageya",
        "name:ja": "いなげや",
        "shop": "supermarket"
      }
    },
    {
      "type": "node",
      "id": 4463432990,
      "lat": 35.9892972,
      "lon": 139.5766665,
      "tags": {
        "brand": "業務スーパー",
        "brand:en": "Gyomu Super",
        "brand:ja": "業務スーパー",
        "brand:ja-Latn": "Gyōmu sūpā",
        "brand:wikidata": "Q11590183",
        "brand:wikipedia": "ja:神戸物産",
        "name": "業務スーパー",
        "name:en": "Gyomu Super",
        "name:ja": "業務スーパー",
        "name:ja-Latn": "Gyōmu sūpā",
        "opening_hours": "Mo-Su 08:30-21:00",
        "shop": "supermarket"
      }
    },
    {
      "type": "node",
      "id": 4498030757,
      "lat": 36.0179766,
      "lon": 139.730267,
      "tags": {
        "name": "KASUMI",
        "shop": "supermarket",
        "source": "Survey"
      }
    },
    {
      "type": "node",
      "id": 4502370682,
      "lat": 35.9778531,
      "lon": 139.6394993,
      "tags": {
        "addr:block_number": "82番",
        "addr:city": "伊奈町",
        "addr:county": "北足立郡",
        "addr:neighbourhood": "3丁目",
        "addr:postcode": "362-0805",
        "addr:province": "埼玉県",
        "addr:quarter": "栄",
        "branch": "伊奈栄店",
        "brand": "Big-A",
        "brand:en": "Big-A",
        "brand:ja": "ビッグ・エー",
        "brand:wikidata": "Q11330804",
        "brand:wikipedia": "jp:ビッグ・エー",
        "name": "ビッグ・エー",
        "name:en": "Big-A",
        "name:ja": "ビッグ・エー",
        "shop": "supermarket",
        "source": "Survey"
      }
    },
    {
      "type": "node",
      "id": 4542369689,
      "lat": 35.7872713,
      "lon": 139.6077904,
      "tags": {
        "brand": "サミット",
        "name": "サミット",
        "name:en": "Summit",
        "name:ja": "サミット",
        "name:ja-Hira": "さみっと",
        "name:ja-Latn": "Samitto",
        "shop": "supermarket",
        "wheelchair": "yes"
      }
    },
    {
      "type": "node",
      "id": 4567954489,
      "lat": 35.9836086,
      "lon": 139.5902546,
      "tags": {
        "brand": "トライアル",
        "brand:en": "Trial",
        "brand:ja": "トライアル",
        "brand:wikidata": "Q11321723",
        "brand:wikipedia": "ja:トライアルカンパニー",
        "name": "トライアル",
        "name:en": "Trial",
        "name:ja": "トライアル",
        "shop": "supermarket"
      }
    },
    {
      "type": "node",
      "id": 4581528781,
      "lat": 35.8681817,
      "lon": 139.7370569,
      "tags": {
        "name": "角屋酒店",
        "shop": "supermarket"
      }
    },
    {
      "type": "node",
      "id": 4603949578,
      "lat": 35.884532,
      "lon": 139.6591692,
      "tags": {
        "name": "コモディイイダ　北浦和店",
        "opening_hours": "9:00~21:45",
        "shop": "supermarket"
      }
    },
    {
      "type": "node",
      "id": 4605599223,
      "lat": 35.881419,
      "lon": 139.6775573,
      "tags": {
        "name": "ビッグ・エー三室店",
        "shop": "supermarket"
      }
    },
    {
      "type": "node",
      "id": 4605637867,
      "lat": 35.878558,
      "lon": 139.6764711,
      "tags": {
        "branch": "浦和東店",
        "brand": "CO・OP",
        "name": "CO・OP",
        "name:en": "CO・OP",
        "name:ja": "コープ",
        "name:ja-Hira": "こーぷ",
        "name:ja-Latn": "Kōpu",
        "shop": "supermarket"
      }
    },
    {
      "type": "node",
      "id": 4611829767,
      "lat": 35.879538,
      "lon": 139.6723313,
      "tags": {
        "branch": "さいたま道祖土店",
        "brand": "Big-A",
        "brand:en": "Big-A",
        "brand:ja": "ビッグ・エー",
        "brand:wikidata": "Q11330804",
        "name": "Big-A",
        "name:en": "Big-A",
        "name:ja": "ビッグ・エー",
        "shop": "supermarket"
      }
    },
    {
      "type": "node",
      "id": 4622593791,
      "lat": 35.7813024,
      "lon": 139.57296,
      "tags": {
        "branch": "新座馬場店",
        "brand": "業務スーパー",
        "brand:en": "Gyomu Super",
        "brand:ja": "業務スーパー",
        "brand:ja-Latn": "Gyōmu sūpā",
        "brand:wikidata": "Q105687460",
        "name": "業務スーパー",
        "name:en": "Gyomu Super",
        "name:ja": "業務スーパー",
        "name:ja-Latn": "Gyōmu sūpā",
        "opening_hours": "Mo-Su 09:00-21:00",
        "shop": "supermarket"
      }
    },
    {
      "type": "node",
      "id": 4624684500,
      "lat": 36.1381521,
      "lon": 139.395207,
      "tags": {
        "brand": "ベルク",
        "brand:en": "Belc",
        "brand:ja": "ベルク",
        "brand:wikidata": "Q11337090",
        "name": "ベルク",
        "name:en": "Belc",
        "name:ja": "ベルク",
        "shop": "supermarket"
      }
    },
    {
      "type": "node",
      "id": 4630993790,
      "lat": 35.8464195,
      "lon": 139.4286094,
      "tags": {
        "brand": "ヤオコー",
        "brand:en": "Yaoko",
        "brand:ja": "ヤオコー",
        "brand:wikidata": "Q11344967",
        "brand:wikipedia": "ja:ヤオコー",
        "name": "ヤオコー",
        "name:en": "Yaoko",
        "name:ja": "ヤオコー",
        "shop": "supermarket"
      }
    },
    {
      "type": "node",
      "id": 4639636495,
      "lat": 35.8346345,
      "lon": 139.4257635,
      "tags": {
        "name:en": "JA FARMERS",
        "shop": "supermarket"
      }
    },
    {
      "type": "node",
      "id": 4706517420,
      "lat": 35.8912792,
      "lon": 139.6275469,
      "tags": {
        "branch": "北与野店",
        "name": "フードガーデン",
        "shop": "supermarket",
        "source": "survey"
      }
    },
    {
      "type": "node",
      "id": 4721564993,
      "lat": 35.9694651,
      "lon": 139.3665229,
      "tags": {
        "branch": "坂戸にっさい店",
        "brand": "コモディイイダ",
        "brand:en": "Comodi-iida",
        "brand:ja": "コモディイイダ",
        "brand:wikidata": "Q11302699",
        "name": "コモディイイダ",
        "name:en": "Comodi-iida",
        "name:ja": "コモディイイダ",
        "opening_hours": "Mo-Su 09:00-22:00",
        "phone": "+81 49 289 5341",
        "shop": "supermarket"
      }
    },
    {
      "type": "node",
      "id": 4752957945,
      "lat": 35.8799806,
      "lon": 139.3019289,
      "tags": {
        "name": "朝採れファーム 高麗郷",
        "shop": "supermarket"
      }
    },
    {
      "type": "node",
      "id": 4757365103,
      "lat": 35.8152682,
      "lon": 139.7056246,
      "tags": {
        "brand": "東武ストア",
        "brand:en": "Tobu Store",
        "brand:ja": "東武ストア",
        "brand:wikidata": "Q11527478",
        "name": "東武ストア",
        "name:en": "Tobu Store",
        "name:ja": "東武ストア",
        "shop": "supermarket"
      }
    },
    {
      "type": "node",
      "id": 4764617823,
      "lat": 35.9426661,
      "lon": 139.3249354,
      "tags": {
        "description": "餅、団子、お萩、おむすび",
        "name": "伊勢屋",
        "shop": "supermarket"
      }
    },
    {
      "type": "node",
      "id": 4811266523,
      "lat": 36.21411,
      "lon": 139.0981465,
      "tags": {
        "name": "フジマート",
        "name:ja": "フジマート",
        "shop": "supermarket"
      }
    },
    {
      "type": "node",
      "id": 4833736323,
      "lat": 35.962651,
      "lon": 139.5741147,
      "tags": {
        "name": "コープみらい",
        "name:en": "COOP",
        "name:ja": "COOP",
        "shop": "supermarket"
      }
    },
    {
      "type": "node",
      "id": 4867425924,
      "lat": 35.9179467,
      "lon": 139.483569,
      "tags": {
        "brand": "マルエツ",
        "brand:en": "Maruetsu",
        "brand:ja": "マルエツ",
        "brand:wikidata": "Q11341197",
        "brand:wikipedia": "ja:マルエツ",
        "name": "マルエツ",
        "name:en": "Maruetsu",
        "name:ja": "マルエツ",
        "opening_hours": "Mo-Su 00:00-24:00; PH closed",
        "shop": "supermarket"
      }
    },
    {
      "type": "node",
      "id": 4873312070,
      "lat": 35.7931641,
      "lon": 139.5807038,
      "tags": {
        "alt_name:en": "Acolle",
        "branch": "朝霞膝折店",
        "brand": "アコレ",
        "brand:en": "A・Colle",
        "brand:ja": "アコレ",
        "brand:wikidata": "Q11283128",
        "name": "アコレ",
        "name:en": "A・Colle",
        "name:ja": "アコレ",
        "shop": "supermarket"
      }
    },
    {
      "type": "node",
      "id": 4873312071,
      "lat": 35.7902951,
      "lon": 139.5762278,
      "tags": {
        "name": "ジャパン 新座店",
        "shop": "supermarket"
      }
    },
    {
      "type": "node",
      "id": 4929068953,
      "lat": 35.9296414,
      "lon": 139.4822347,
      "tags": {
        "branch": "神明町店",
        "brand": "マミーマート",
        "brand:en": "Mammy Mart",
        "brand:ja": "マミーマート",
        "brand:wikidata": "Q126935642",
        "name": "マミーマート",
        "name:en": "Mammy Mart",
        "name:ja": "マミーマート",
        "shop": "supermarket"
      }
    },
    {
      "type": "node",
      "id": 4954641283,
      "lat": 35.7935412,
      "lon": 139.3997379,
      "tags": {
        "name": "なかや",
        "shop": "supermarket"
      }
    },
    {
      "type": "node",
      "id": 4955862503,
      "lat": 35.7805626,
      "lon": 139.4593239,
      "tags": {
        "name": "あまいけ",
        "shop": "supermarket"
      }
    },
    {
      "type": "node",
      "id": 4961054597,
      "lat": 36.1300488,
      "lon": 139.5927836,
      "tags": {
        "branch": "加須店",
        "brand": "ヤオコー",
        "brand:en": "Yaoko",
        "brand:ja": "ヤオコー",
        "brand:wikidata": "Q11344967",
        "name": "ヤオコー",
        "name:en": "Yaoko",
        "name:ja": "ヤオコー",
        "shop": "supermarket"
      }
    },
    {
      "type": "node",
      "id": 4963128921,
      "lat": 36.1332539,
      "lon": 139.6027185,
      "tags": {
        "brand": "Big-A",
        "brand:en": "Big-A",
        "brand:ja": "ビッグ・エー",
        "brand:wikidata": "Q11330804",
        "name": "Big-A",
        "name:en": "Big-A",
        "name:ja": "ビッグ・エー",
        "shop": "supermarket"
      }
    },
    {
      "type": "node",
      "id": 4976506322,
      "lat": 36.0386089,
      "lon": 139.4678648,
      "tags": {
        "check_date": "2024-07-24",
        "name": "ベイシアマート吉見店",
        "name:ja": "ベイシアマート吉見店",
        "shop": "supermarket"
      }
    },
    {
      "type": "node",
      "id": 4977335308,
      "lat": 35.8087555,
      "lon": 139.8010727,
      "tags": {
        "brand": "業務スーパー",
        "brand:en": "Gyōmu sūpā",
        "brand:ja": "業務スーパー",
        "brand:wikidata": "Q11590183",
        "name": "業務スーパー",
        "name:en": "Gyōmu sūpā",
        "name:ja": "業務スーパー",
        "shop": "supermarket"
      }
    },
    {
      "type": "node",
      "id": 4977336148,
      "lat": 35.8165725,
      "lon": 139.8046905,
      "tags": {
        "brand": "いなげや",
        "brand:en": "Inageya",
        "brand:ja": "いなげや",
        "brand:wikidata": "Q17193392",
        "brand:wikipedia": "ja:いなげや",
        "name": "いなげや",
        "name:en": "Inageya",
        "name:ja": "いなげや",
        "shop": "supermarket"
      }
    },
    {
      "type": "node",
      "id": 4977503776,
      "lat": 35.8104693,
      "lon": 139.7973276,
      "tags": {
        "brand": "東武ストア",
        "brand:en": "Tobu Store",
        "brand:ja": "東武ストア",
        "brand:wikidata": "Q11527478",
        "brand:wikipedia": "ja:東武ストア",
        "name": "東武ストア",
        "name:en": "Tobu Store",
        "name:ja": "東武ストア",
        "shop": "supermarket"
      }
    },
    {
      "type": "node",
      "id": 4983968522,
      "lat": 36.125627,
      "lon": 139.6102183,
      "tags": {
        "name": "とりせん加須浜町店",
        "name:ja": "とりせん加須浜町店",
        "shop": "supermarket"
      }
    },
    {
      "type": "node",
      "id": 4983981024,
      "lat": 36.1160743,
      "lon": 139.6283403,
      "tags": {
        "branch": "花崎店",
        "brand": "カスミ",
        "brand:en": "Kasumi",
        "brand:ja": "カスミ",
        "brand:wikidata": "Q11294160",
        "name": "カスミ",
        "name:en": "Kasumi",
        "name:ja": "カスミ",
        "shop": "supermarket"
      }
    },
    {
      "type": "node",
      "id": 4984013228,
      "lat": 36.1178865,
      "lon": 139.6185253,
      "tags": {
        "name": "ベルク加須久下店",
        "name:ja": "ベルク加須久下店",
        "shop": "supermarket"
      }
    },
    {
      "type": "node",
      "id": 4984129622,
      "lat": 36.0791058,
      "lon": 139.6627589,
      "tags": {
        "name": "イトーヨーカドーArio鷲宮店",
        "name:ja": "イトーヨーカドーArio鷲宮店",
        "shop": "supermarket"
      }
    },
    {
      "type": "node",
      "id": 5019061021,
      "lat": 36.1069458,
      "lon": 139.6555533,
      "tags": {
        "addr:housenumber": "鳩山町10-10",
        "name": "ピアゴ大桑店",
        "name:ja": "ピアゴ大桑店",
        "shop": "supermarket",
        "wikidata": "Q56248602"
      }
    },
    {
      "type": "node",
      "id": 5019162823,
      "lat": 36.0962676,
      "lon": 139.6820003,
      "tags": {
        "name": "ベルクベスタ東鷲宮店",
        "name:ja": "ベルクベスタ東鷲宮店",
        "shop": "supermarket"
      }
    },
    {
      "type": "node",
      "id": 5031306321,
      "lat": 35.8057307,
      "lon": 139.5885992,
      "tags": {
        "alt_name:en": "Acolle",
        "brand": "Big-A",
        "brand:en": "A・Colle",
        "brand:ja": "アコレ",
        "brand:wikidata": "Q11283128",
        "brand:wikipedia": "ja:アコレ",
        "check_date": "2025-08-18",
        "name": "ビッグ・エー",
        "name:en": "Big-A",
        "name:ja": "ビッグ・エー",
        "opening_hours": "08:00-23:00",
        "shop": "supermarket"
      }
    },