{
  "version": 0.6,
  "generator": "Overpass API 0.7.62.8 e802775f",
  "osm3s": {
    "timestamp_osm_base": "2025-10-15T12:33:28Z",
    "timestamp_areas_base": "2025-10-15T04:02:15Z",
    "copyright": "The data included in this document is from www.openstreetmap.org. The data is made available under ODbL."
  },
  "elements": [
    {
      "type": "node",
      "id": 520095833,
      "lat": 33.2647809,
      "lon": 131.3560432,
      "tags": {
        "name": "酒屋",
        "shop": "supermarket"
      }
    },
    {
      "type": "node",
      "id": 1074208074,
      "lat": 33.4133238,
      "lon": 131.5862,
      "tags": {
        "name": "スーパーコマツ",
        "shop": "supermarket"
      }
    },
    {
      "type": "node",
      "id": 1658709027,
      "lat": 33.4171131,
      "lon": 131.6299056,
      "tags": {
        "name": "サンリブ",
        "opening_hours": "Mo-Su 09:30-21:00",
        "shop": "supermarket"
      }
    },
    {
      "type": "node",
      "id": 1661937658,
      "lat": 32.8582547,
      "lon": 131.6294943,
      "tags": {
        "name": "豆腐工房　とら吉",
        "shop": "supermarket"
      }
    },
    {
      "type": "node",
      "id": 1661937669,
      "lat": 32.8589282,
      "lon": 131.6295374,
      "tags": {
        "name": "やさい屋",
        "shop": "supermarket"
      }
    },
    {
      "type": "node",
      "id": 1661937671,
      "lat": 32.8586939,
      "lon": 131.6295911,
      "tags": {
        "name": "スーパーやの",
        "shop": "supermarket"
      }
    },
    {
      "type": "node",
      "id": 1913803506,
      "lat": 33.1684704,
      "lon": 131.6362972,
      "tags": {
        "name": "マルショク",
        "shop": "supermarket",
        "toilets": "yes"
      }
    },
    {
      "type": "node",
      "id": 1914241222,
      "lat": 33.1505282,
      "lon": 131.6576491,
      "tags": {
        "name": "マルショク",
        "shop": "supermarket"
      }
    },
    {
      "type": "node",
      "id": 2419469220,
      "lat": 33.5917835,
      "lon": 131.237878,
      "tags": {
        "name": "サンエイト",
        "shop": "supermarket"
      }
    },
    {
      "type": "node",
      "id": 2419470338,
      "lat": 33.580749,
      "lon": 131.233868,
      "tags": {
        "name": "マルショク",
        "shop": "supermarket"
      }
    },
    {
      "type": "node",
      "id": 2419477834,
      "lat": 33.589606,
      "lon": 131.213167,
      "tags": {
        "name": "マルキョウ",
        "shop": "supermarket"
      }
    },
    {
      "type": "node",
      "id": 2419486931,
      "lat": 33.601916,
      "lon": 131.209422,
      "tags": {
        "name": "新鮮市場",
        "shop": "supermarket"
      }
    },
    {
      "type": "node",
      "id": 2419494606,
      "lat": 33.596974,
      "lon": 131.226117,
      "tags": {
        "name": "トキハインダストリー中津店",
        "shop": "supermarket"
      }
    },
    {
      "type": "node",
      "id": 2955428309,
      "lat": 33.422221,
      "lon": 131.6316175,
      "tags": {
        "name": "スーパードラッグコスモス杵築店",
        "shop": "supermarket"
      }
    },
    {
      "type": "node",
      "id": 2955428569,
      "lat": 33.4226777,
      "lon": 131.6329265,
      "tags": {
        "name": "ファッションセンターしまむら杵築店",
        "shop": "supermarket"
      }
    },
    {
      "type": "node",
      "id": 2955431282,
      "lat": 33.4180167,
      "lon": 131.6305715,
      "tags": {
        "name": "ヤマダ電機杵築店",
        "shop": "supermarket"
      }
    },
    {
      "type": "node",
      "id": 2956700887,
      "lat": 33.4192133,
      "lon": 131.6227391,
      "tags": {
        "name": "ダイレックス杵築店",
        "opening_hours": "Mo-Su 09:00-22:00",
        "payment:credit_cards": "yes",
        "payment:debit_cards": "yes",
        "shop": "supermarket"
      }
    },
    {
      "type": "node",
      "id": 2956707256,
      "lat": 33.4195379,
      "lon": 131.6201749,
      "tags": {
        "name": "Aコープ杵築店",
        "shop": "supermarket"
      }
    },
    {
      "type": "node",
      "id": 3125845243,
      "lat": 33.2851963,
      "lon": 131.4791579,
      "tags": {
        "shop": "supermarket"
      }
    },
    {
      "type": "node",
      "id": 3127946538,
      "lat": 33.2606116,
      "lon": 131.3275092,
      "tags": {
        "name": "道の駅 湯布院",
        "shop": "supermarket"
      }
    },
    {
      "type": "node",
      "id": 4330469822,
      "lat": 33.1267716,
      "lon": 131.781815,
      "tags": {
        "name": "ディスカウントドラッグコスモス江無田店",
        "shop": "supermarket"
      }
    },
    {
      "type": "node",
      "id": 4397804792,
      "lat": 33.3691665,
      "lon": 131.5261472,
      "tags": {
        "addr:city": "日出町",
        "addr:housenumber": "2506-1",
        "addr:postcode": "879-1506",
        "addr:street": "日出町商店街",
        "description": "セレクトフードショップ",
        "name": "沼田商店",
        "name:en": "Select Foods Shop Numata",
        "opening_hours": "7:00-19:00",
        "operator": "沼田商店",
        "shop": "supermarket"
      }
    },
    {
      "type": "node",
      "id": 4397868908,
      "lat": 33.3708475,
      "lon": 131.5326938,
      "tags": {
        "name": "bivi日出",
        "shop": "supermarket"
      }
    },
    {
      "type": "node",
      "id": 4474069201,
      "lat": 33.5318392,
      "lon": 131.4109672,
      "tags": {
        "name": "宇佐駅前ふるさと市場",
        "shop": "supermarket"
      }
    },
    {
      "type": "node",
      "id": 4840822879,
      "lat": 33.1823705,
      "lon": 131.548125,
      "tags": {
        "addr:city": "大分市",
        "addr:housenumber": "16番15号",
        "addr:neighbourhood": "3丁目",
        "addr:postcode": "870-1176",
        "addr:province": "大分県",
        "addr:quarter": "富士見が丘東",
        "name": "丸二とうふ店",
        "shop": "supermarket"
      }
    },
    {
      "type": "node",
      "id": 5318102677,
      "lat": 33.2271411,
      "lon": 131.6808087,
      "tags": {
        "name": "ワイドマート",
        "shop": "supermarket"
      }
    },
    {
      "type": "node",
      "id": 5806323553,
      "lat": 33.3297051,
      "lon": 131.4888997,
      "tags": {
        "name:en": "Sun Store",
        "shop": "supermarket"
      }
    },
    {
      "type": "node",
      "id": 6631601841,
      "lat": 33.5604742,
      "lon": 131.7306051,
      "tags": {
        "name": "アタックス",
        "shop": "supermarket"
      }
    },
    {
      "type": "node",
      "id": 6640645075,
      "lat": 33.5479524,
      "lon": 131.7357499,
      "tags": {
        "name": "青木",
        "shop": "supermarket"
      }
    },
    {
      "type": "node",
      "id": 6894586000,
      "lat": 32.9714167,
      "lon": 131.4733451,
      "tags": {
        "name": "Ａコープ緒方店",
        "shop": "supermarket"
      }
    },
    {
      "type": "node",
      "id": 6894586001,
      "lat": 32.9706309,
      "lon": 131.4742509,
      "tags": {
        "name": "フレイン緒方店",
        "shop": "supermarket"
      }
    },
    {
      "type": "node",
      "id": 8826434585,
      "lat": 33.5560488,
      "lon": 131.4307853,
      "tags": {
        "branch": "豊後高田店",
        "brand": "マックスバリュ",
        "brand:en": "Maxvalu Tokai",
        "brand:ja": "マックスバリュ",
        "brand:wikidata": "Q1960109",
        "brand:wikipedia": "en:MaxValu",
        "name": "マックスバリュ",
        "name:en": "Maxvalu Tokai",
        "name:ja": "マックスバリュ",
        "shop": "supermarket"
      }
    },
    {
      "type": "node",
      "id": 8926059333,
      "lat": 33.2309914,
      "lon": 131.6023595,
      "tags": {
        "name": "マルショク",
        "shop": "supermarket"
      }
    },
    {
      "type": "node",
      "id": 9030049353,
      "lat": 33.2283617,
      "lon": 131.6084406,
      "tags": {
        "name": "マルミヤストア",
        "shop": "supermarket"
      }
    },
    {
      "type": "node",
      "id": 9759326335,
      "lat": 33.4299598,
      "lon": 131.0992934,
      "tags": {
        "name": "下郷農協 ふれあいの店",
        "shop": "supermarket"
      }
    },
    {
      "type": "node",
      "id": 11054902105,
      "lat": 33.2661052,
      "lon": 131.3605352,
      "tags": {
        "name:en": "ACOOP",
        "opening_hours": "Mo-Su 10:00-19:00",
        "shop": "supermarket"
      }
    },
    {
      "type": "node",
      "id": 11054906205,
      "lat": 33.2670702,
      "lon": 131.3590391,
      "tags": {
        "name:en": "Marumiya",
        "shop": "supermarket"
      }
    },
    {
      "type": "node",
      "id": 11517971004,
      "lat": 33.287625,
      "lon": 131.4810076,
      "tags": {
        "shop": "supermarket"
      }
    },
    {
      "type": "node",
      "id": 11775065370,
      "lat": 33.2399882,
      "lon": 131.6060116,
      "tags": {
        "name": "リカーマウンテン（酒）",
        "shop": "supermarket"
      }
    },
    {
      "type": "node",
      "id": 11898040985,
      "lat": 33.2994101,
      "lon": 131.4756061,
      "tags": {
        "name": "Coop",
        "shop": "supermarket"
      }
    },
    {
      "type": "node",
      "id": 12189338489,
      "lat": 33.288085,
      "lon": 131.4930881,
      "tags": {
        "check_date": "2024-09-21",
        "shop": "supermarket"
      }
    },
    {
      "type": "node",
      "id": 12730554625,
      "lat": 33.2403003,
      "lon": 131.6084855,
      "tags": {
        "addr:block_number": "3",
        "addr:housenumber": "46",
        "name": "産直さんさん",
        "name:en": "Sanchoku Sansan",
        "opening_hours": "Mo-Fr 10:00-19:00; Sa,Su,PH 10:00-17:00",
        "phone": "+81-97-529-6733",
        "ref": "T1320001005709",
        "shop": "supermarket"
      }
    },
    {
      "type": "node",
      "id": 12813483002,
      "lat": 33.2558922,
      "lon": 131.5556895,
      "tags": {
        "name": "たのうらら市場",
        "phone": "+81-97-529-7301",
        "ref": "T7320002009315",
        "shop": "supermarket"
      }
    },
    {
      "type": "node",
      "id": 12960370742,
      "lat": 33.2331208,
      "lon": 131.6318513,
      "tags": {
        "check_date": "2025-06-29",
        "name": "ダイレックス",
        "shop": "supermarket"
      }
    },
    {
      "type": "node",
      "id": 13015417527,
      "lat": 33.2163077,
      "lon": 131.6054423,
      "tags": {
        "branch": "アップル店",
        "brand": "サンライフ",
        "name": "Apple",
        "official_name": "サンライフアップル店",
        "phone": "+81-97-545-3878",
        "ref": "T4320001001291",
        "shop": "supermarket"
      }
    },
    {
      "type": "node",
      "id": 13025878005,
      "lat": 33.2005125,
      "lon": 131.608128,
      "tags": {
        "level": "0",
        "name": "こだわり食品 大分屋",
        "phone": "+81-97-574-5268",
        "ref": "T3320001009195",
        "shop": "supermarket"
      }
    },
    {
      "type": "node",
      "id": 13038882566,
      "lat": 33.2699551,
      "lon": 131.5076143,
      "tags": {
        "addr:city": "別府市",
        "addr:full": "大分県別府市浜脇2丁目2-6",
        "addr:housenumber": "2-6",
        "addr:postcode": "874-0947",
        "addr:province": "大分県",
        "addr:street": "浜脇",
        "name": "Marushoku Hamawaki",
        "name:en": "Marushoku Hamawaki",
        "name:ja": "マルショク浜脇店",
        "name:ja-Latn": "Marushoku Hamawaki-ten",
        "opening_hours": "Mo-Su 09:00-19:00",
        "phone": "+81-977-22-0378",
        "shop": "supermarket",
        "website": "https://www.sunlive.co.jp/shop/%E3%83%9E%E3%83%AB%E3%82%B7%E3%83%A7%E3%82%AF%E6%B5%9C%E8%84%87%E5%BA%97/"
      }
    },
    {
      "type": "node",
      "id": 13166681109,
      "lat": 33.2818512,
      "lon": 130.955236,
      "tags": {
        "opening_hours": "Mo-Su 08:00-18:00",
        "shop": "supermarket"
      }
    },
    {
      "type": "way",
      "id": 125447527,
      "center": {
        "lat": 33.2452336,
        "lon": 131.5963039
      },
      "nodes": [
        1393303728,
        1393303677,
        1393303707,
        1393303674,
        1393303728
      ],
      "tags": {
        "building": "retail",
        "name": "トキハインダストリー",
        "name:en": "Tokiwa Industry",
        "shop": "supermarket",
        "source": "Bing"
      }
    },
    {
      "type": "way",
      "id": 131296800,
      "center": {
        "lat": 33.1994763,
        "lon": 131.6062639
      },
      "nodes": [
        1445310306,
        13025831495,
        1445310298,
        1445310300,
        1445310299,
        13025831494,
        1445310302,
        1445310301,
        1445310303,
        1445310304,
        1445310305,
        1445310312,
        1445310309,
        1445310311,
        1445310310,
        1445310308,
        1445310307,
        1445310306
      ],
      "tags": {
        "branch": "光吉店",
        "brand": "イオン",
        "brand:en": "AEON",
        "brand:ja": "イオン",
        "brand:wikidata": "Q11285951",
        "brand:wikipedia": "ja:イオン (店舗ブランド)",
        "building": "retail",
        "fax": "+81-97-567-2929",
        "name": "イオン",
        "name:en": "AEON",
        "name:ja": "イオン",
        "name:ja_rm": "Ion",
        "phone": "+81-97-568-5588",
        "ref": "T6290001017604",
        "shop": "supermarket",
        "source": "Bing, Apr.-May 2008",
        "website": "https://www.aeon-kyushu.com/"
      }
    },
    {
      "type": "way",
      "id": 165943053,
      "center": {
        "lat": 33.2489404,
        "lon": 131.6624883
      },
      "nodes": [
        1774477841,
        1774477840,
        1774477853,
        1774477827,
        1774477841
      ],
      "tags": {
        "building": "retail",
        "name": "新鮮市場",
        "shop": "supermarket",
        "source": "Bing"
      }
    },
    {
      "type": "way",
      "id": 172018466,
      "center": {
        "lat": 33.2414881,
        "lon": 131.6524681
      },
      "nodes": [
        1829710979,
        1829710966,
        1829710972,
        1829710978,
        1829710970,
        1829710975,
        1829710961,
        1829710969,
        1829710979
      ],
      "tags": {
        "brand": "イオン",
        "brand:en": "AEON",
        "brand:ja": "イオン",
        "brand:wikidata": "Q11285951",
        "brand:wikipedia": "ja:イオン (店舗ブランド)",
        "name": "イオン",
        "name:en": "AEON",
        "name:ja": "イオン",
        "name:ja_rm": "Ion",
        "shop": "supermarket",
        "source": "Bing, 2008-04",
        "wheelchair": "yes",
        "wikidata": "Q97311434",
        "wikipedia": "ja:イオン高城ショッピングセンター"
      }
    },
    {
      "type": "way",
      "id": 191558570,
      "center": {
        "lat": 33.2113653,
        "lon": 131.5568296
      },
      "nodes": [
        2021433603,
        2021433604,
        2021433605,
        2021433611,
        2021433607,
        2021433610,
        2021433603
      ],
      "tags": {
        "name": "Max　Value",
        "shop": "supermarket",
        "source": "Bing"
      }
    },
    {
      "type": "way",
      "id": 192089166,
      "center": {
        "lat": 33.2350975,
        "lon": 131.6506313
      },
      "nodes": [
        2026481107,
        2026481124,
        2026481284,
        2026481431,
        2026481180,
        2026481362,
        2026481239,
        2026481293,
        2026481907,
        2026481506,
        2026481310,
        2026481107
      ],
      "tags": {
        "building": "retail",
        "name": "お米スーパー大塚商店",
        "shop": "supermarket",
        "source": "survey"
      }
    },
    {
      "type": "way",
      "id": 192089167,
      "center": {
        "lat": 33.2358407,
        "lon": 131.6521658
      },
      "nodes": [
        2026482973,
        2026482824,
        2026482820,
        2026482971,
        2026482973
      ],
      "tags": {
        "building": "retail",
        "name": "しいはら",
        "shop": "supermarket"
      }
    },
    {
      "type": "way",
      "id": 204998193,
      "center": {
        "lat": 33.3034534,
        "lon": 131.4619477
      },
      "nodes": [
        2149745198,
        2149745197,
        2149745189,
        2149745196,
        2149745172,
        2149745176,
        2149745179,
        2149745155,
        2149745198
      ],
      "tags": {
        "addr:postcode": "874-0841",
        "addr:street": "国道500号",
        "branch": "別府店",
        "brand": "トライアル",
        "brand:en": "Trial",
        "brand:ja": "トライアル",
        "brand:wikidata": "Q11321723",
        "building": "retail",
        "building:levels": "1",
        "name": "トライアル",
        "name:en": "Trial",
        "name:ja": "トライアル",
        "payment:cash": "yes",
        "phone": "+81 977-27-1166",
        "shop": "supermarket",
        "source": "BING",
        "website": "http://www.trial-net.co.jp"
      }
    },
    {
      "type": "way",
      "id": 212224565,
      "center": {
        "lat": 33.2618158,
        "lon": 131.3580911
      },
      "nodes": [
        2221055874,
        2221055873,
        2221055876,
        2221055875,
        2221055872,
        2221055871,
        2221055868,
        2221055866,
        2221055861,
        2221055864,
        2221055870,
        2221055869,
        2221055874
      ],
      "tags": {
        "building": "retail",
        "name": "マックスバリュ湯布院店",
        "name:en": "Maxvalue Yufuin",
        "opening_hours": "08:00-23:00",
        "phone": "0977-85-3411",
        "shop": "supermarket",
        "toilets": "yes",
        "wheelchair": "yes"
      }
    },
    {
      "type": "way",
      "id": 212379419,
      "center": {
        "lat": 33.5587672,
        "lon": 131.193236
      },
      "nodes": [
        772434621,
        2222328912,
        10593582539,
        10593582540,
        10593582541,
        2222329255,
        10593582542,
        10593582543,
        2222329058,
        10593596220,
        2222329090,
        2222329006,
        10593582544,
        2222329100,
        2222329207,
        2222329045,
        772434621
      ],
      "tags": {
        "name": "イオンモール三光",
        "route": "foot",
        "shop": "supermarket"
      }
    },
    {
      "type": "way",
      "id": 212379465,
      "center": {
        "lat": 33.5586471,
        "lon": 131.1933269
      },
      "nodes": [
        772434065,
        2222329276,
        2222329108,
        2222329130,
        2222328937,
        2222329186,
        2222328956,
        2222328917,
        2222328977,
        772434065
      ],
      "tags": {
        "building": "retail",
        "name": "イオンモール三光",
        "shop": "supermarket"
      }
    },
    {
      "type": "way",
      "id": 246563891,
      "center": {
        "lat": 32.9863051,
        "lon": 131.60028
      },
      "nodes": [
        2535900166,
        2535900163,
        2535900161,
        2535900175,
        2535900166
      ],
      "tags": {
        "name": "TRIAL",
        "shop": "supermarket"
      }
    },
    {
      "type": "way",
      "id": 246563896,
      "center": {
        "lat": 32.98268,
        "lon": 131.5857195
      },
      "nodes": [
        2535900123,
        2535900122,
        2535900125,
        2535900179,
        2535900123
      ],
      "tags": {
        "name": "マルミヤ",
        "shop": "supermarket"
      }
    },
    {
      "type": "way",
      "id": 292031065,
      "center": {
        "lat": 33.4180099,
        "lon": 131.6305769
      },
      "nodes": [
        2955431278,
        2955431279,
        2955431280,
        2955431281,
        2955431278
      ],
      "tags": {
        "building": "retail",
        "name": "ヤマダ電機杵築店",
        "shop": "supermarket"
      }
    },
    {
      "type": "way",
      "id": 300260271,
      "center": {
        "lat": 33.5307933,
        "lon": 131.3362322
      },
      "nodes": [
        3043569499,
        3043569496,
        3043569497,
        3043569498,
        3043569499
      ],
      "tags": {
        "building": "retail",
        "name": "VALUE",
        "shop": "supermarket"
      }
    },
    {
      "type": "way",
      "id": 329406826,
      "center": {
        "lat": 33.2115663,
        "lon": 131.5907224
      },
      "nodes": [
        3362894369,
        3362894370,
        3362894367,
        3363039280,
        3363039279,
        3363039269,
        3363039270,
        3362894368,
        3363039275,
        3363039274,
        3363039273,
        3363039272,
        3363039278,
        3363039271,
        3362894362,
        3363039277,
        3363039276,
        3362894360,
        3362894364,
        3362894363,
        3362894366,
        3362894365,
        3362894369
      ],
      "tags": {
        "branch": "南大分店",
        "building": "yes",
        "name": "トキハインダストリー",
        "name:en": "Tokiwa Industry",
        "opening_hours": "Mo-Su,PH 09:00-20:00",
        "phone": "+81-97-544-1111",
        "ref": "T8320001001949",
        "shop": "supermarket"
      }
    },
    {
      "type": "way",
      "id": 329406830,
      "center": {
        "lat": 33.2086975,
        "lon": 131.5968284
      },
      "nodes": [
        3362894348,
        3362894349,
        3362894345,
        3362894344,
        3362894347,
        3362894346,
        3362894348
      ],
      "tags": {
        "building": "yes",
        "name": "新鮮市場",
        "shop": "supermarket"
      }
    },
    {
      "type": "way",
      "id": 329407974,
      "center": {
        "lat": 33.2844042,
        "lon": 131.4920513
      },
      "nodes": [
        3362899970,
        3362899971,
        3362899966,
        3362899967,
        3362899959,
        3362899958,
        3362899970
      ],
      "tags": {
        "building": "retail",
        "name": "ドラッグストア モリ",
        "shop": "supermarket"
      }
    },
    {
      "type": "way",
      "id": 364550749,
      "center": {
        "lat": 33.3086746,
        "lon": 131.474274
      },
      "nodes": [
        3685880065,
        3685880066,
        3685880067,
        3685880068,
        3685880069,
        3685880070,
        3685880065
      ],
      "tags": {
        "addr:city": "大分県別府市",
        "addr:housenumber": "491-5",
        "addr:postcode": "874-0840",
        "addr:street": "鶴見",
        "building": "retail",
        "name": "ディスカウントドラッグコスモス鶴見店",
        "opening_hours": "10:00-21:00",
        "phone": "+81 977-27-8611",
        "shop": "supermarket",
        "website": "https://www.cosmospc.co.jp/"
      }
    },
    {
      "type": "way",
      "id": 364553666,
      "center": {
        "lat": 33.2923112,
        "lon": 131.5024067
      },
      "nodes": [
        3685904302,
        3685904303,
        3685904304,
        12790411147,
        3685904305,
        12790411148,
        3685904306,
        3685904307,
        3685904302
      ],
      "tags": {
        "addr:city": "大分県別府市",
        "addr:housenumber": "7-10",
        "addr:postcode": "874-0000",
        "addr:street": "餅ケ浜町",
        "building": "retail",
        "building:levels": "2",
        "name": "マルショク餅ケ浜店",
        "name:en": "Marushoku Mochigahama",
        "name:ja": "マルショク餅ケ浜店",
        "phone": "+81 977-27-5500",
        "shop": "supermarket",
        "website": "https://www.sunlive.co.jp/"
      }
    },
    {
      "type": "way",
      "id": 364565299,
      "center": {
        "lat": 33.3135351,
        "lon": 131.4797575
      },
      "nodes": [
        3686021812,
        3686021813,
        3686021814,
        3686021815,
        3686021816,
        3686021817,
        3686021818,
        3686021819,
        3686021820,
        3686021821,
        3686021812
      ],
      "tags": {
        "addr:city": "大分県別府市",
        "addr:housenumber": "130−1",
        "addr:postcode": "874-0840",
        "addr:street": "鶴見",
        "branch": "やまなみ店",
        "building": "retail",
        "name": "マルショク",
        "phone": "+81 977-66-5501",
        "shop": "supermarket",
        "website": "https://www.sunlive.co.jp/"
      }
    },
    {
      "type": "way",
      "id": 364628549,
      "center": {
        "lat": 33.3063555,
        "lon": 131.4758124
      },
      "nodes": [
        3686664669,
        3686664670,
        3686664671,
        3686664672,
        3686664673,
        3686664674,
        3686664669
      ],
      "tags": {
        "addr:city": "別府市",
        "addr:housenumber": "3",
        "addr:postcode": "874-0847",
        "addr:street": "馬場",
        "building": "retail",
        "name": "新鮮市場鶴見店惣菜部",
        "phone": "+81 977-25-9112",
        "shop": "supermarket"
      }
    },
    {
      "type": "way",
      "id": 412909159,
      "center": {
        "lat": 33.296248,
        "lon": 131.5017967
      },
      "nodes": [
        4142365691,
        12593108003,
        12593108002,
        4142365692,
        4142365693,
        4142365694,
        4142365695,
        4142365696,
        4142365697,
        4142365698,
        4142365691
      ],
      "tags": {
        "building": "retail",
        "building:levels": "2",
        "check_date": "2024-11-17",
        "name": "MaxValue",
        "name:ja": "マックスバリュ",
        "opening_hours": "24/7",
        "shop": "supermarket"
      }
    },
    {
      "type": "way",
      "id": 424507906,
      "center": {
        "lat": 33.3201069,
        "lon": 131.4932422
      },
      "nodes": [
        4239167440,
        4239167445,
        4239167441,
        4239167439,
        4239167440
      ],
      "tags": {
        "building": "yes",
        "name": "笠置商店",
        "shop": "supermarket"
      }
    },
    {
      "type": "way",
      "id": 425802896,
      "center": {
        "lat": 33.3250954,
        "lon": 131.4936194
      },
      "nodes": [
        4251198028,
        4251198029,
        4251198030,
        4251198031,
        4251198028
      ],
      "tags": {
        "building": "yes",
        "name": "安達食料品店",
        "shop": "supermarket"
      }
    },
    {
      "type": "way",
      "id": 425804601,
      "center": {
        "lat": 33.3236257,
        "lon": 131.4935999
      },
      "nodes": [
        4251213437,
        4251213438,
        4251213439,
        4251213440,
        4251213441,
        4251213442,
        4251213443,
        4251213444,
        4251213437
      ],
      "tags": {
        "building": "yes",
        "name": "江藤商店　米殻亀川本店",
        "shop": "supermarket"
      }
    },
    {
      "type": "way",
      "id": 452044870,
      "center": {
        "lat": 33.1215746,
        "lon": 131.8003594
      },
      "nodes": [
        4488435502,
        13202004792,
        13202004791,
        4488435501,
        13202004790,
        4488435504,
        13202004789,
        13202004788,
        13202004787,
        4488435503,
        6947435778,
        6947435779,
        4488435502
      ],
      "tags": {
        "alt_name:en": "Co-op",
        "brand": "コープ",
        "brand:en": "CO・OP",
        "brand:ja": "コープ",
        "brand:wikidata": "Q11508615",
        "brand:wikipedia": "ja:日本生活協同組合連合会",
        "building": "retail",
        "building:levels": "1",
        "ele": "2.2",
        "height": "5.1",
        "name": "コープ",
        "name:en": "CO・OP",
        "name:ja": "コープ",
        "official_name": "日本生活協同組合連合会",
        "official_name:en": "Japanese Consumers' Co-operative Union",
        "official_name:ja": "日本生活協同組合連合会",
        "shop": "supermarket",
        "source": "MLIT_PLATEAU 44206-bldg-8730",
        "start_date": "2003"
      }
    },
    {
      "type": "way",
      "id": 491910351,
      "center": {
        "lat": 33.534106,
        "lon": 131.3280783
      },
      "nodes": [
        4839948577,
        4839948567,
        4839948579,
        4875881875,
        4839948558,
        4877740516,
        4877740518,
        4877740520,
        4877747922,
        4839948568,
        4839948580,
        4839948559,
        4839948569,
        4839948577
      ],
      "tags": {
        "building": "yes",
        "name": "トキハインダストリー宇佐四日市店",
        "shop": "supermarket"
      }
    },
    {
      "type": "way",
      "id": 495454712,
      "center": {
        "lat": 33.5662622,
        "lon": 131.3642402
      },
      "nodes": [
        4871980677,
        4871980670,
        4871980685,
        4871980698,
        4871980664,
        4871980656,
        4872002058,
        4872002060,
        4871980693,
        4871980678,
        4871980663,
        4871980701,
        4871980666,
        4871980682,
        4871980696,
        4871980660,
        4871980676,
        4871980691,
        4871980677
      ],
      "tags": {
        "building": "yes",
        "name": "トキハインダストリー長洲店",
        "shop": "supermarket"
      }
    },
    {
      "type": "way",
      "id": 496464623,
      "center": {
        "lat": 33.1854728,
        "lon": 131.5996946
      },
      "nodes": [
        4881660951,
        4881660960,
        4881660950,
        4881660955,
        4881660951
      ],
      "tags": {
        "building": "yes",
        "shop": "supermarket"
      }
    },
    {
      "type": "way",
      "id": 501094531,
      "center": {
        "lat": 33.2495996,
        "lon": 131.8746843
      },
      "nodes": [
        4919944909,
        12607091747,
        12607091746,
        4919944910,
        4919944911,
        4919944912,
        4919944909
      ],
      "tags": {
        "building": "yes",
        "name": "セキストア",
        "shop": "supermarket"
      }
    },
    {
      "type": "way",
      "id": 501660715,
      "center": {
        "lat": 33.5579754,
        "lon": 131.43651
      },
      "nodes": [
        4924031869,
        4924031831,
        4924031610,
        4924031591,
        4924031573,
        4924031555,
        4924031540,
        4924031901,
        4924031881,
        4924031861,
        4924031842,
        4924031823,
        4924031601,
        4924031584,
        4924031566,
        4924031869
      ],
      "tags": {
        "building": "yes",
        "shop": "supermarket"
      }
    },
    {
      "type": "way",
      "id": 502415997,
      "center": {
        "lat": 33.2005715,
        "lon": 131.5824261
      },
      "nodes": [
        4928983158,
        4928983159,
        4928983160,
        4928983161,
        4928983162,
        4928983163,
        5351093913,
        5351093914,
        4928983158
      ],
      "tags": {
        "building": "yes",
        "name": "ワイドマート宗方店",
        "shop": "supermarket"
      }
    },
    {
      "type": "way",
      "id": 505447122,
      "center": {
        "lat": 33.323737,
        "lon": 130.9021498
      },
      "nodes": [
        4953971779,
        4953971778,
        4953971777,
        4953971776,
        4953971775,
        4953971774,
        4953971773,
        4953971772,
        4953971771,
        4953971770,
        4953971779
      ],
      "tags": {
        "building": "yes",
        "shop": "supermarket",
        "source": "GSImaps/std"
      }
    },
    {
      "type": "way",
      "id": 505492502,
      "center": {
        "lat": 33.3488836,
        "lon": 130.9458573
      },
      "nodes": [
        4954230647,
        4954230648,
        4954230649,
        4954230650,
        4954230647
      ],
      "tags": {
        "building": "yes",
        "shop": "supermarket"
      }
    },
    {
      "type": "way",
      "id": 505890221,
      "center": {
        "lat": 33.3130771,
        "lon": 130.9380478
      },
      "nodes": [
        4957212931,
        4957212932,
        4957212933,
        4957212934,
        4957212931
      ],
      "tags": {
        "building": "yes",
        "shop": "supermarket"
      }
    },
    {
      "type": "way",
      "id": 506231819,
      "center": {
        "lat": 33.1613467,
        "lon": 131.5287019
      },
      "nodes": [
        4959979333,
        4959979334,
        4959979335,
        4959979336,
        4959979337,
        4959979333
      ],
      "tags": {
        "building": "yes",
        "name": "新鮮市場野津原店",
        "shop": "supermarket"
      }
    },
    {
      "type": "way",
      "id": 507006159,
      "center": {
        "lat": 33.2459674,
        "lon": 131.8767603
      },
      "nodes": [
        12607086063,
        4966054503,
        4966054504,
        4966054505,
        12607086063
      ],
      "tags": {
        "building": "yes",
        "name": "購買会下浦店",
        "shop": "supermarket"
      }
    },
    {
      "type": "way",
      "id": 507181427,
      "center": {
        "lat": 33.3242826,
        "lon": 130.9109143
      },
      "nodes": [
        4967456364,
        4967456365,
        4967456366,
        4967456367,
        4967456364
      ],
      "tags": {
        "building": "yes",
        "shop": "supermarket"
      }
    },
    {
      "type": "way",
      "id": 507684014,
      "center": {
        "lat": 33.3358068,
        "lon": 130.9360089
      },
      "nodes": [
        4971438123,
        4971438124,
        4971438125,
        10101255159,
        4971438126,
        10101255147,
        4971438127,
        4971438128,
        4971438129,
        4971438130,
        4971438131,
        4971438132,
        4971438123
      ],
      "tags": {
        "building": "yes",
        "shop": "supermarket"
      }
    },
    {
      "type": "way",
      "id": 508681216,
      "center": {
        "lat": 33.3095337,
        "lon": 130.9281156
      },
      "nodes": [
        4979385568,
        4979385569,
        4979385570,
        4979385571,
        4979385572,
        4979385573,
        4979385574,
        4979385575,
        4979385576,
        4979385568
      ],
      "tags": {
        "building": "yes",
        "shop": "supermarket"
      }
    },
    {
      "type": "way",
      "id": 509157248,
      "center": {
        "lat": 33.3344615,
        "lon": 130.9382902
      },
      "nodes": [
        4976509509,
        4984329193,
        4984329194,
        4984329195,
        4976509509
      ],
      "tags": {
        "building": "yes",
        "shop": "supermarket"
      }
    },
    {
      "type": "way",
      "id": 532860210,
      "center": {
        "lat": 32.971319,
        "lon": 131.9038231
      },
      "nodes": [
        5170531974,
        8947833211,
        8947833212,
        9024757486,
        8947833213,
        8947833214,
        5170531972,
        5170531969,
        5170531970,
        5170531973,
        8947866120,
        8947866119,
        9024757480,
        5170531974
      ],
      "tags": {
        "addr:block_number": "6",
        "addr:city": "佐伯市",
        "addr:housenumber": "27",
        "addr:neighbourhood": "1",
        "addr:postcode": "8760803",
        "addr:province": "大分県",
        "addr:quarter": "駅前",
        "brand": "マックスバリュ",
        "brand:en": "Maxvalu Tokai",
        "brand:ja": "マックスバリュ",
        "brand:wikidata": "Q1960109",
        "brand:wikipedia": "en:MaxValu",
        "building": "yes",
        "name": "マックスバリュ",
        "name:en": "Maxvalu Tokai",
        "name:ja": "マックスバリュ",
        "operator": "イオン九州株式会社",
        "payment:cash": "yes",
        "phone": "+81 972 20 3331",
        "shop": "supermarket",
        "source": "Bing;Survey",
        "website": "https://www.aeon.com/store/list/%E3%82%B9%E3%83%BC%E3%83%91%E3%83%BC%E3%83%9E%E3%83%BC%E3%82%B1%E3%83%83%E3%83%88/%E3%83%9E%E3%83%83%E3%82%AF%E3%82%B9%E3%83%90%E3%83%AA%E3%83%A5/%E4%B9%9D%E5%B7%9E%E5%9C%B0%E6%96%B9/%E5%A4%A7%E5%88%86%E7%9C%8C/%E3%83%9E%E3"
      }
    },
    {
      "type": "way",
      "id": 550661352,
      "center": {
        "lat": 33.2080108,
        "lon": 131.5906367
      },
      "nodes": [
        5318544149,
        5318544150,
        5318544151,
        5318544152,
        5318544153,
        5318544154,
        5318544155,
        5318544156,
        5318544157,
        5318544158,
        5318544159,
        5318544160,
        5318544149
      ],
      "tags": {
        "building": "yes",
        "name": "コープ南大分",
        "shop": "supermarket"
      }
    },
    {
      "type": "way",
      "id": 551099316,
      "center": {
        "lat": 33.2271454,
        "lon": 131.6808168
      },
      "nodes": [
        5322338316,
        5322338444,
        5322338317,
        5322338318,
        5322338319,
        5322338448,
        5322338447,
        5322338316
      ],
      "tags": {
        "building": "yes",
        "shop": "supermarket"
      }
    },
    {
      "type": "way",
      "id": 553586601,
      "center": {
        "lat": 33.2403453,
        "lon": 131.6920755
      },
      "nodes": [
        5343319303,
        5343319304,
        5343319305,
        5343319306,
        5343319307,
        5343319308,
        5343319303
      ],
      "tags": {
        "building": "yes",
        "shop": "supermarket"
      }
    },
    {
      "type": "way",
      "id": 554612238,
      "center": {
        "lat": 33.1847925,
        "lon": 131.5302861
      },
      "nodes": [
        5352230435,
        5352230436,
        5352230437,
        5352230438,
        5352230439,
        5352230435
      ],
      "tags": {
        "building": "yes",
        "name": "ヨシモリ",
        "shop": "supermarket"
      }
    },
    {
      "type": "way",
      "id": 556388159,
      "center": {
        "lat": 33.189437,
        "lon": 131.5930813
      },
      "nodes": [
        5367313683,
        5367313684,
        5367313685,
        5367313686,
        5367313687,
        5367313688,
        5367313689,
        5367313690,
        5367313691,
        5367313692,
        5367313693,
        5367313694,
        5367313695,
        5367313696,
        5367313697,
        5367313698,
        5367313699,
        5367313700,
        5367313701,
        5367313683
      ],
      "tags": {
        "building": "yes",
        "name": "サンライフトマト",
        "shop": "supermarket"
      }
    },
    {
      "type": "way",
      "id": 565082991,
      "center": {
        "lat": 33.3745989,
        "lon": 131.5321813
      },
      "nodes": [
        5443137424,
        5443137425,
        5443137426,
        5443137427,
        5443137428,
        5443137429,
        5443137430,
        5443137431,
        5443137432,
        5443137433,
        5443137434,
        5443137424
      ],
      "tags": {
        "building": "yes",
        "name": "オレンジ",
        "shop": "supermarket"
      }
    },
    {
      "type": "way",
      "id": 565082995,
      "center": {
        "lat": 33.3736883,
        "lon": 131.5305176
      },
      "nodes": [
        5443137457,
        5443137458,
        5443137459,
        5443137460,
        5443137457
      ],
      "tags": {
        "building": "yes",
        "name": "新鮮市場",
        "shop": "supermarket"
      }
    },
    {
      "type": "way",
      "id": 565082996,
      "center": {
        "lat": 33.3746745,
        "lon": 131.5296659
      },
      "nodes": [
        5443137461,
        5443137462,
        5443137463,
        5443137464,
        5443137461
      ],
      "tags": {
        "building": "yes",
        "name": "ダイレックス",
        "shop": "supermarket"
      }
    },
    {
      "type": "way",
      "id": 594158636,
      "center": {
        "lat": 33.2361102,
        "lon": 131.615584
      },
      "nodes": [
        5666291765,
        5666291766,
        5666291767,
        5666291768,
        5666291765
      ],
      "tags": {
        "branch": "長浜店",
        "building": "yes",
        "name": "マルショク",
        "shop": "supermarket",
        "source": "survey"
      }
    },
    {
      "type": "way",
      "id": 624970043,
      "center": {
        "lat": 33.3201848,
        "lon": 130.9320885
      },
      "nodes": [
        5900918349,
        5900918348,
        5900918344,
        8574345243,
        8574345242,
        10083770807,
        10083770808,
        10083770806,
        8574345241,
        10083770805,
        5900918346,
        5900918349
      ],
      "tags": {
        "building": "yes",
        "shop": "supermarket"
      }
    },
    {
      "type": "way",
      "id": 677430558,
      "center": {
        "lat": 33.2290318,
        "lon": 131.6279123
      },
      "nodes": [
        6343071623,
        7598132013,
        7598132014,
        7598132012,
        7598132011,
        6343071624,
        6343071625,
        6343071627,
        6343071623
      ],
      "tags": {
        "branch": "下郡店",
        "brand": "トライアル",
        "brand:en": "Trial",
        "brand:ja": "トライアル",
        "brand:wikidata": "Q11321723",
        "brand:wikipedia": "ja:トライアルカンパニー",
        "building": "yes",
        "name": "トライアル",
        "name:en": "Trial",
        "name:ja": "トライアル",
        "opening_hours": "Mo-Su 00:00-24:00",
        "shop": "supermarket"
      }
    },
    {
      "type": "way",
      "id": 691000449,
      "center": {
        "lat": 33.2198724,
        "lon": 131.6796929
      },
      "nodes": [
        6483481050,
        6483481051,
        6483481052,
        6483481053,
        6483481057,
        6483481054,
        6483481050
      ],
      "tags": {
        "addr:block_number": "605",
        "addr:city": "大分市",
        "addr:neighbourhood": "六反田",
        "addr:postcode": "8700128",
        "addr:province": "大分県",
        "addr:quarter": "大字森",
        "building": "yes",
        "name": "マルミヤストア 鶴崎森店",
        "opening_hours": "Mo-Fr 09:30-22:00",
        "payment:cash": "yes",
        "payment:visa": "yes",
        "phone": "097-523-2255",
        "shop": "supermarket"
      }
    },
    {
      "type": "way",
      "id": 691006667,
      "center": {
        "lat": 33.1118229,
        "lon": 131.7818932
      },
      "nodes": [
        7064493397,
        7064493396,
        7064493390,
        7064493393,
        7064493394,
        6483531959,
        7064493392,
        7064493391,
        13200100246,
        13200100245,
        13200100244,
        6483531962,
        6483531961,
        6483531960,
        7064493395,
        7064493397
      ],
      "tags": {
        "branch": "臼杵店",
        "building": "retail",
        "building:levels": "1",
        "currency:JPY": "yes",
        "ele": "3.3",
        "height": "10.2",
        "name": "新鮮市場",
        "shop": "supermarket",
        "source": "MLIT_PLATEAU 44206-bldg-204",
        "start_date": "1995"
      }
    },
    {
      "type": "way",
      "id": 734395323,
      "center": {
        "lat": 33.202976,
        "lon": 131.6085344
      },
      "nodes": [
        6877488534,
        6877488535,
        6877488536,
        6877488537,
        6877488538,
        6877488539,
        6877488534
      ],
      "tags": {
        "brand": "ドン・キホーテ",
        "brand:en": "Don Quijote",
        "brand:ja": "ドン・キホーテ",
        "brand:wikidata": "Q1185381",
        "brand:wikipedia": "ja:ドン・キホーテ (企業)",
        "building": "yes",
        "name": "MEGAドン・キホーテ",
        "name:en": "MEGA Don Quijote",
        "name:ja": "MEGAドン・キホーテ",
        "opening_hours": "24/7",
        "shop": "supermarket",
        "short_name": "MEGAドンキ",
        "short_name:en": "MegaDonki",
        "short_name:ja": "MEGAドンキ"
      }
    },
    {
      "type": "way",
      "id": 737677827,
      "center": {
        "lat": 33.1255671,
        "lon": 131.79002
      },
      "nodes": [
        6906839731,
        6906839734,
        6906839735,
        6906839736,
        6906839733,
        6906839732,
        13201825990,
        13201825991,
        6906839737,
        6906839738,
        6906839730,
        6906839731
      ],
      "tags": {
        "addr:city": "臼杵市",
        "addr:postcode": "875-0023",
        "addr:province": "大分県",
        "branch": "臼杵店",
        "building": "retail",
        "building:levels": "3",
        "ele": "2",
        "height": "10.4",
        "name": "サンリブ",
        "shop": "supermarket",
        "source": "MLIT_PLATEAU 44206-bldg-18060",
        "start_date": "1999"
      }
    },
    {
      "type": "way",
      "id": 738931740,
      "center": {
        "lat": 33.1214196,
        "lon": 131.7935385
      },
      "nodes": [
        6918810084,
        6918828285,
        6918828286,
        6918828287,
        7101459377,
        6918810084
      ],
      "tags": {
        "air_conditioning": "yes",
        "brand": "マックスバリュ",
        "brand:en": "MaxValu",
        "brand:ja": "マックスバリュ",
        "brand:wikidata": "Q11340427",
        "brand:wikipedia": "en:MaxValu",
        "building": "retail",
        "building:levels": "1",
        "name": "マックスバリュ",
        "name:en": "MaxValu",
        "name:ja": "マックスバリュ",
        "opening_hours": "24/7",
        "payment:cash": "yes",
        "shop": "supermarket"
      }
    },
    {
      "type": "way",
      "id": 740046826,
      "center": {
        "lat": 33.2513932,
        "lon": 131.6091379
      },
      "nodes": [
        6928967534,
        6928967535,
        6928967536,
        6928967537,
        6928967534
      ],
      "tags": {
        "addr:city": "大分市",
        "addr:province": "大分県",
        "building": "retail",
        "name": "新鮮市場",
        "shop": "supermarket"
      }
    },
    {
      "type": "way",
      "id": 741575320,
      "center": {
        "lat": 33.248305,
        "lon": 131.7124329
      },
      "nodes": [
        6942355897,
        8856227874,
        8856227873,
        8856227875,
        8856227876,
        6942355898,
        6942355899,
        6942355900,
        6942355897
      ],
      "tags": {
        "brand": "マックスバリュ",
        "brand:en": "Maxvalu Tokai",
        "brand:ja": "マックスバリュ",
        "brand:wikidata": "Q1960109",
        "brand:wikipedia": "en:MaxValu",
        "building": "yes",
        "name": "マックスバリュ",
        "name:en": "Maxvalu Tokai",
        "name:ja": "マックスバリュ",
        "shop": "supermarket"
      }
    },
    {
      "type": "way",
      "id": 754622824,
      "center": {
        "lat": 33.1618616,
        "lon": 131.2219443
      },
      "nodes": [
        7049782859,
        7049782858,
        7049782857,
        7049782856,
        7049782859
      ],
      "tags": {
        "addr:city": "玖珠郡九重町",
        "addr:housenumber": "1512-7",
        "addr:province": "大分県",
        "addr:street": "大字田野",
        "building": "retail",
        "name": "高原ショップ 小野",
        "opening_hours": "Mo-Su 08:00-20:00",
        "phone": "+81 973 79 3517",
        "shop": "supermarket"
      }
    },
    {
      "type": "way",
      "id": 756114366,
      "center": {
        "lat": 33.1137178,
        "lon": 131.7868084
      },
      "nodes": [
        7062165966,
        13200100319,
        13200100318,
        7062165965,
        7062165964,
        7062165963,
        7062165962,
        7062165961,
        7062165960,
        7062165959,
        7062165958,
        7062165957,
        7062165956,
        7062165955,
        7062165966
      ],
      "tags": {
        "brand": "業務スーパー",
        "brand:en": "Gyomu Super",
        "brand:ja": "業務スーパー",
        "brand:ja-Latn": "Gyōmu sūpā",
        "brand:wikidata": "Q11590183",
        "brand:wikipedia": "ja:神戸物産",
        "building": "retail",
        "ele": "2.6",
        "height": "10.7",
        "name": "業務スーパー",
        "name:en": "Gyomu Super",
        "name:ja": "業務スーパー",
        "name:ja-Latn": "Gyōmu sūpā",
        "shop": "supermarket",
        "source": "MLIT_PLATEAU 44206-bldg-391"
      }
    },
    {
      "type": "way",
      "id": 756356242,
      "center": {
        "lat": 33.1096784,
        "lon": 131.7766185
      },
      "nodes": [
        7064487249,
        7064487248,
        7064487251,
        7064487250,
        7064487253,
        7064487252,
        7064487255,
        7064487256,
        7064487258,
        7064487259,
        7064487260,
        7064487261,
        7064487262,
        7064487263,
        7064487264,
        7064487266,
        7064487265,
        7064487267,
        7064487268,
        7064487271,
        7064487269,
        7064487270,
        7064487272,
        7064487273,
        7064487257,
        7064487254,
        7064487244,
        7064487239,
        7064487238,
        7064487245,
        7064487246,
        7064487247,
        7064487249
      ],
      "tags": {
        "branch": "野田店",
        "building": "retail",
        "ele": "3.4",
        "height": "7.4",
        "name": "マルミヤストア",
        "shop": "supermarket",
        "source": "MLIT_PLATEAU 44206-bldg-62"
      }
    },
    {
      "type": "way",
      "id": 758041623,
      "center": {
        "lat": 33.1300097,
        "lon": 131.7816274
      },
      "nodes": [
        7079247015,
        13201842521,
        7079247029,
        7079247028,
        7079247027,
        7079247026,
        7079247025,
        7079247024,
        7079247023,
        7079247022,
        7079247021,
        7079247020,
        7079247019,
        7079247018,
        7079247031,
        7079247032,
        7079247030,
        7079247017,
        7079247016,
        7079247015
      ],
      "tags": {
        "addr:block_number": "15",
        "addr:city": "臼杵市",
        "addr:housenumber": "1",
        "addr:postcode": "875-0022",
        "addr:province": "大分県",
        "addr:quarter": "大字末広",
        "building": "retail",
        "ele": "6.4",
        "height": "6.3",
        "name": "アニマード",
        "opening_hours": "Mo-Su 10:00-20:00",
        "operator": "大分県農業協同組合",
        "shop": "supermarket",
        "source": "MLIT_PLATEAU 44206-bldg-12079"
      }
    },
    {
      "type": "way",
      "id": 761246505,
      "center": {
        "lat": 33.2332265,
        "lon": 131.5984538
      },
      "nodes": [
        7112262565,
        7112262566,
        7112262567,
        7112262568,
        7112262569,
        7112262570,
        7112262571,
        7112262572,
        7112262575,
        7112262573,
        7112262574,
        7112262565
      ],
      "tags": {
        "branch": "メロン",
        "building": "yes",
        "name": "サンライフ MELON",
        "opening_hours": "Mo-Su 9:00-21:00",
        "operator": "サンライフ",
        "shop": "supermarket"
      }
    },
    {
      "type": "way",
      "id": 915033248,
      "center": {
        "lat": 32.9547424,
        "lon": 131.9003747
      },
      "nodes": [
        8499895774,
        8499895745,
        8499895756,
        8499895772,
        8499895774
      ],
      "tags": {
        "addr:block_number": "4",
        "addr:city": "佐伯市",
        "addr:housenumber": "3",
        "addr:neighbourhood": "2",
        "addr:postcode": "8760843",
        "addr:province": "大分県",
        "addr:quarter": "中の島",
        "branch": "佐伯店",
        "brand": "DiREX",
        "building": "retail",
        "building:colour": "white",
        "building:levels": "3",
        "building:material": "concrete",
        "changing_table": "yes",
        "changing_table:fee": "yes",
        "fax": "+91 972 20 5234",
        "height": "7",
        "name:en": "DiREX",
        "name:ja": "ダイレックス",
        "name:ja-Latn": "Dairekkusu",
        "opening_hours": "Mo-Sa 09:00-22:00",
        "organic": "yes",
        "phone": "+91 972 20 5233",
        "roof:colour": "white",
        "roof:shape": "flat",
        "shop": "supermarket",
        "smoking": "outside",
        "toilets:access": "yes",
        "toilets:wheelchair": "yes"
      }
    },
    {
      "type": "way",
      "id": 915471129,
      "center": {
        "lat": 32.9617485,
        "lon": 131.9087277
      },
      "nodes": [
        8503684100,
        8503684102,
        8503684103,
        8503684101,
        8503684100
      ],
      "tags": {
        "building": "yes",
        "building:levels": "1",
        "building:use": "commercial",
        "changing_table": "yes",
        "height": "5",
        "level": "0",
        "name": "マルミヤストア　長島店",
        "name:en": "Marumiya Store Nagasima-branch Shop",
        "name:ja-Hira": "まるみやすとあ　ながしまてん",
        "name:zh": "丸美屋店　長島店",
        "opening_hours": "07:00-21:00",
        "organic": "yes",
        "shop": "supermarket",
        "toilets": "yes",
        "toilets:access": "yes",
        "wheelchair": "yes"
      }
    },
    {
      "type": "way",
      "id": 915816416,
      "center": {
        "lat": 32.9542638,
        "lon": 131.9046831
      },
      "nodes": [
        8506796469,
        8506796466,
        8506796467,
        8506796465,
        8506796469
      ],
      "tags": {
        "branch": "中の島店",
        "building": "yes",
        "building:colour": "grey",
        "building:levels": "1",
        "building:material": "concrete",
        "building:use": "commercial",
        "changing_table": "yes",
        "height": "5",
        "level": "0",
        "name": "マルミヤストア",
        "opening_hours": "Mo-Su 09:30-22:00",
        "organic": "yes",
        "roof:colour": "white",
        "roof:shape": "flat",
        "shop": "supermarket",
        "toilets:access": "yes",
        "toilets:wheelchair": "no",
        "wheelchair": "yes"
      }
    },
    {
      "type": "way",
      "id": 920120168,
      "center": {
        "lat": 32.9604624,
        "lon": 131.8674571
      },
      "nodes": [
        8544149353,
        8901255319,
        8544149354,
        8544149355,
        8544149356,
        8544149357,
        8544149358,
        8544149353
      ],
      "tags": {
        "branch": "佐伯コスモタウン店",
        "brand": "サンリブ",
        "building": "yes",
        "name": "サンリブ",
        "shop": "supermarket"
      }
    },
    {
      "type": "way",
      "id": 920661283,
      "center": {
        "lat": 33.3235566,
        "lon": 130.920991
      },
      "nodes": [
        8548179355,
        8548179356,
        8548179357,
        8548179358,
        8548179359,
        8548179360,
        8548179361,
        8548179362,
        8548179355
      ],
      "tags": {
        "building": "yes",
        "shop": "supermarket"
      }
    },
    {
      "type": "way",
      "id": 921159948,
      "center": {
        "lat": 32.9437115,
        "lon": 131.9612973
      },
      "nodes": [
        8552450398,
        8552450402,
        8552450399,
        8552450403,
        8552450401,
        8552450400,
        8552450398
      ],
      "tags": {
        "building": "yes",
        "building:colour": "yellow",
        "building:levels": "1",
        "building:material": "concrete",
        "building:use": "commercial",
        "changing_table:count": "2",
        "changing_table:fee": "no",
        "changing_table:location": "male_toilet;female_toilet",
        "height": "6",
        "level": "0",
        "name": "生協",
        "organic": "yes",
        "roof:colour": "blue",
        "roof:material": "gravel",
        "roof:orientation": "across",
        "roof:shape": "gabled",
        "shop": "supermarket",
        "toilets": "yes",
        "toilets:access": "customers",
        "wheelchair": "yes"
      }
    },
    {
      "type": "way",
      "id": 931664353,
      "center": {
        "lat": 32.9660975,
        "lon": 131.8802083
      },
      "nodes": [
        8637234622,
        8637234623,
        8637234624,
        8637234625,
        8637234622
      ],
      "tags": {
        "addr:block_number": "2830",
        "addr:city": "佐伯市",
        "addr:housenumber": "1",
        "addr:postcode": "876-0012",
        "addr:province": "大分県",
        "addr:quarter": "鶴望",
        "branch": "野口店",
        "building": "yes",
        "name": "マルミヤストア",
        "shop": "supermarket",
        "website": "http://www.marumiya-st.jp/"
      }
    },
    {
      "type": "way",
      "id": 931664354,
      "center": {
        "lat": 32.9663315,
        "lon": 131.880629
      },
      "nodes": [
        8637234627,
        8637234628,
        8637234629,
        8637234630,
        8637234631,
        8637234632,
        8637234633,
        8637234634,
        8637234635,
        8637234636,
        8637234627
      ],
      "tags": {
        "addr:block_number": "2830",
        "addr:city": "佐伯市",
        "addr:housenumber": "1",
        "addr:province": "大分県",
        "addr:quarter": "鶴望深町",
        "branch": "佐伯店",
        "building": "yes",
        "name": "アタックス",
        "shop": "supermarket"
      }
    },
    {
      "type": "way",
      "id": 953785375,
      "center": {
        "lat": 33.4385628,
        "lon": 131.354907
      },
      "nodes": [
        8827855459,
        8827855460,
        8827855461,
        8827855462,
        8827855463,
        8827855464,
        8827855465,
        8827855466,
        8827855459
      ],
      "tags": {
        "addr:block_number": "2118",
        "addr:city": "宇佐市",
        "addr:neighbourhood": "下毛",
        "addr:province": "大分県",
        "addr:quarter": "安心院町",
        "building": "retail",
        "name": "マルミヤストア 安心院店",
        "opening_hours": "09:30-20:30",
        "shop": "supermarket"
      }
    },
    {
      "type": "way",
      "id": 964186028,
      "center": {
        "lat": 33.246229,
        "lon": 131.6075573
      },
      "nodes": [
        8918443038,
        8918443039,
        8918443040,
        8918443050,
        8918443053,
        8918443041,
        8918443042,
        8918443043,
        8918443044,
        8918443045,
        8918443046,
        8918443047,
        8918443048,
        8918443049,
        8918443038
      ],
      "tags": {
        "addr:block_number": "1",
        "addr:city": "大分市",
        "addr:housenumber": "11",
        "addr:neighbourhood": "一丁目",
        "addr:postcode": "870-0016",
        "addr:province": "大分県",
        "addr:quarter": "新川町",
        "branch": "新川店",
        "building": "yes",
        "name": "マルキョウ",
        "opening_hours": "Mo-Su 09:30-22:00",
        "operator": "株式会社マルキョウ",
        "payment:cash": "yes",
        "phone": "+81 97 548 6635",
        "shop": "supermarket",
        "website": "https://www.marukyo-web.co.jp/store/ooita/area-ooita/652/?ref=recruit"
      }
    },
    {
      "type": "way",
      "id": 977451347,
      "center": {
        "lat": 32.9522132,
        "lon": 131.9033599
      },
      "nodes": [
        9044503173,
        9044503174,
        9044503175,
        9044503176,
        9044503173
      ],
      "tags": {
        "branch": "佐伯中の島店",
        "building": "yes",
        "name": "ユーマート",
        "shop": "supermarket"
      }
    },
    {
      "type": "way",
      "id": 978701950,
      "center": {
        "lat": 32.9448596,
        "lon": 131.9036862
      },
      "nodes": [
        9055867027,
        9055867028,
        9055867029,
        9055867030,
        9055867031,
        9055867032,
        9055867033,
        9055867034,
        9055867035,
        9055867036,
        9055867027
      ],
      "tags": {
        "branch": "蛇崎店",
        "building": "yes",
        "name": "ユーマート",
        "shop": "supermarket"
      }
    },
    {
      "type": "way",
      "id": 978701952,
      "center": {
        "lat": 32.9463031,
        "lon": 131.9020673
      },
      "nodes": [
        9055867041,
        9055867042,
        9055867043,
        9055867044,
        9055867041
      ],
      "tags": {
        "branch": "蛇崎店",
        "building": "yes",
        "name": "マルミヤストア",
        "shop": "supermarket"
      }
    },
    {
      "type": "way",
      "id": 981944436,
      "center": {
        "lat": 32.9601106,
        "lon": 131.9146012
      },
      "nodes": [
        9081719053,
        9081719054,
        9081719055,
        9081719056,
        9081719053
      ],
      "tags": {
        "addr:block_number": "1",
        "addr:city": "佐伯市",
        "addr:neighbourhood": "8988",
        "addr:postcode": "8760823",
        "addr:province": "大分県",
        "addr:quarter": "女島",
        "branch": "佐伯女島店",
        "building": "yes",
        "building:levels": "1",
        "fax": "＋81 972 20 5553",
        "name": "スーパーキッド",
        "opening_hours": "09:00-22:00",
        "operator": "株式会社アレス",
        "payment:cash": "yes",
        "phone": "+81 972 20 5552",
        "shop": "supermarket",
        "website": "https://www.superkid.co.jp/shop/"
      }
    },
    {
      "type": "way",
      "id": 981944437,
      "center": {
        "lat": 32.9598405,
        "lon": 131.9150813
      },
      "nodes": [
        9081719057,
        9081719058,
        9081719059,
        9081719060,
        9081719057
      ],
      "tags": {
        "addr:block_number": "1",
        "addr:city": "佐伯市",
        "addr:neighbourhood": "8988",
        "addr:postcode": "8760823",
        "addr:province": "大分県",
        "addr:quarter": "女島",
        "building": "yes",
        "name": "新鮮市場",
        "opening_hours": "09:30-20:00",
        "operator": "株式会社新鮮マーケット",
        "payment:cash": "yes",
        "phone": "+81 972 23 2310",
        "shop": "supermarket",
        "website": "http://shinsen-market.jp/store/#s14"
      }
    },
    {
      "type": "way",
      "id": 983620025,
      "center": {
        "lat": 32.9916098,
        "lon": 131.8888214
      },
      "nodes": [
        9094531546,
        9094531547,
        9094531548,
        9094531549,
        9094531550,
        9094531546
      ],
      "tags": {
        "building": "yes",
        "name": "ユーマート",
        "shop": "supermarket"
      }
    },
    {
      "type": "way",
      "id": 985110189,
      "center": {
        "lat": 33.5684386,
        "lon": 131.4392507
      },
      "nodes": [
        9107581432,
        9107581433,
        9107581434,
        9107581435,
        9107581436,
        9107581437,
        9107581432
      ],
      "tags": {
        "building": "yes",
        "name": "TRIAL",
        "opening_hours": "24/7",
        "shop": "supermarket"
      }
    },
    {
      "type": "way",
      "id": 986643554,
      "center": {
        "lat": 33.1873437,
        "lon": 131.6233461
      },
      "nodes": [
        9119960201,
        9119960202,
        9119960203,
        9119960204,
        9119960205,
        9119960206,
        9119960207,
        9119960208,
        9119960209,
        9119960210,
        9119960211,
        9119960212,
        9119960213,
        9119960214,
        9119960215,
        9119960216,
        9119981817,
        9119981818,
        9119981819,
        9119981820,
        9119981821,
        9119981822,
        9119981823,
        9119960201
      ],
      "tags": {
        "branch": "敷戸店",
        "building": "yes",
        "name": "マルミヤストア",
        "shop": "supermarket"
      }
    },
    {
      "type": "way",
      "id": 1009593256,
      "center": {
        "lat": 32.9393573,
        "lon": 131.8829297
      },
      "nodes": [
        9315291477,
        9315291478,
        9315291479,
        9315291480,
        9315291481,
        9315291482,
        9315291483,
        9315291484,
        9315291477
      ],
      "tags": {
        "building": "yes",
        "name": "ユーマート",
        "shop": "supermarket"
      }
    },
    {
      "type": "way",
      "id": 1034345407,
      "center": {
        "lat": 32.9591388,
        "lon": 131.8769582
      },
      "nodes": [
        9528684426,
        9528684427,
        9528684428,
        9528684429,
        9528684426
      ],
      "tags": {
        "building": "yes",
        "name": "マルショク",
        "shop": "supermarket"
      }
    },
    {
      "type": "way",
      "id": 1080735515,
      "center": {
        "lat": 33.2709872,
        "lon": 131.1608221
      },
      "nodes": [
        9905791271,
        9905791272,
        9905791273,
        9905791274,
        9905791275,
        9905791271
      ],
      "tags": {
        "building": "yes",
        "shop": "supermarket"
      }
    },
    {
      "type": "way",
      "id": 1080735517,
      "center": {
        "lat": 33.2732453,
        "lon": 131.1599083
      },
      "nodes": [
        9905791283,
        9905791284,
        9905791285,
        9905791286,
        12560790461,
        12560790460,
        9905791283
      ],
      "tags": {
        "building": "yes",
        "shop": "supermarket"
      }
    },
    {
      "type": "way",
      "id": 1080735520,
      "center": {
        "lat": 33.2736928,
        "lon": 131.1586669
      },
      "nodes": [
        9905791296,
        9905791297,
        9905791298,
        9905791299,
        9905791300,
        9905791301,
        9905791296
      ],
      "tags": {
        "building": "yes",
        "shop": "supermarket"
      }
    },
    {
      "type": "way",
      "id": 1080735526,
      "center": {
        "lat": 33.276117,
        "lon": 131.1489229
      },
      "nodes": [
        9905791339,
        9905791340,
        9905791341,
        9905791342,
        9905791343,
        9905791344,
        9905791345,
        9905791346,
        9905791339
      ],
      "tags": {
        "building": "yes",
        "shop": "supermarket"
      }
    },
    {
      "type": "way",
      "id": 1089831722,
      "center": {
        "lat": 32.8956372,
        "lon": 131.7786722
      },
      "nodes": [
        9983138338,
        9983138339,
        9983138340,
        9983138341,
        9983138338
      ],
      "tags": {
        "addr:city": "佐伯市",
        "addr:postcode": "879-3101",
        "addr:province": "大分県",
        "addr:suburb": "直川",
        "building": "yes",
        "name": "スーパーしばた",
        "phone": "+81 972 58 2898",
        "shop": "supermarket"
      }
    },
    {
      "type": "way",
      "id": 1099867553,
      "center": {
        "lat": 33.0759798,
        "lon": 131.8643856
      },
      "nodes": [
        10068824619,
        10068824620,
        10068824621,
        10068824622,
        10068824623,
        10068824624,
        10068824625,
        10068824626,
        10068824619
      ],
      "tags": {
        "building": "yes",
        "shop": "supermarket"
      }
    },
    {
      "type": "way",
      "id": 1099869861,
      "center": {
        "lat": 33.0747133,
        "lon": 131.8656161
      },
      "nodes": [
        10068843778,
        10068843779,
        10068843780,
        10068843781,
        10068843782,
        10068843778
      ],
      "tags": {
        "building": "yes",
        "shop": "supermarket"
      }
    },
    {
      "type": "way",
      "id": 1100735473,
      "center": {
        "lat": 32.8018456,
        "lon": 131.9234371
      },
      "nodes": [
        10074093505,
        10074093506,
        10074093507,
        10074093508,
        10074093505
      ],
      "tags": {
        "building": "yes",
        "shop": "supermarket"
      }
    },
    {
      "type": "way",
      "id": 1229288644,
      "center": {
        "lat": 33.2349507,
        "lon": 131.6321447
      },
      "nodes": [
        11400175613,
        11400175614,
        11400175615,
        11400175616,
        11400175613
      ],
      "tags": {
        "brand:wikidata": "Q17230158",
        "building": "yes",
        "name": "フレイン",
        "shop": "supermarket"
      }
    },
    {
      "type": "way",
      "id": 1250750007,
      "center": {
        "lat": 33.2438753,
        "lon": 131.6548042
      },
      "nodes": [
        11626499409,
        11626499410,
        11626499411,
        11626499412,
        11626499413,
        11626499414,
        11626499415,
        11626499409
      ],
      "tags": {
        "building": "yes",
        "shop": "supermarket"
      }
    },
    {
      "type": "way",
      "id": 1250750008,
      "center": {
        "lat": 33.2451101,
        "lon": 131.6592633
      },
      "nodes": [
        11626499417,
        11626499418,
        11626499419,
        11626499420,
        11626499417
      ],
      "tags": {
        "building": "yes",
        "shop": "supermarket"
      }
    },
    {
      "type": "way",
      "id": 1391871523,
      "center": {
        "lat": 33.2761428,
        "lon": 131.5039851
      },
      "nodes": [
        12883990177,
        12883990167,
        12883990151,
        12883990157,
        12883990156,
        12883990166,
        12883990154,
        12883990155,
        12883990175,
        12883990158,
        12883990159,
        12883990160,
        12883990161,
        12883990162,
        12883990163,
        12883990164,
        12883990165,
        12883990168,
        12883990169,
        12883990170,
        12883990171,
        12883990174,
        12883990172,
        12883990173,
        12883990176,
        12883990152,
        12883990177
      ],
      "tags": {
        "addr:city": "別府市",
        "addr:country": "JP",
        "addr:full": "大分県別府市楠町4-10",
        "addr:housenumber": "4-10",
        "addr:postcode": "874-0943",
        "addr:prefecture": "大分県",
        "addr:street": "楠町",
        "brand": "Marushoku",
        "building": "yes",
        "building:colour": "#ddc1ae",
        "building:levels": "1.5",
        "name": "マルショク流川通り店",
        "name:en": "Marushoku Nagaregawa Street Store",
        "name:ja": "マルショク流川通り店",
        "name:ja-Latn": "Marushoku Nagaregawa-dōri-ten",
        "opening_hours": "Mo-Su 09:00-22:00",
        "operator": "サンリブ",
        "phone": "+81 977 23 2284",
        "roof:colour": "#d5d4ce",
        "shop": "supermarket",
        "website": "https://www.sunlive.co.jp/shop/%E3%83%9E%E3%83%AB%E3%82%B7%E3%83%A7%E3%82%AF%E6%B5%81%E5%B7%9D%E9%80%9A%E3%82%8A%E5%BA%97/"
      }
    },
    {
      "type": "way",
      "id": 1413993681,
      "center": {
        "lat": 33.2146556,
        "lon": 131.5964921
      },
      "nodes": [
        12993526126,
        12993526127,
        12993526128,
        12993526129,
        12993526126
      ],
      "tags": {
        "building": "retail",
        "name": "A-Price",
        "opening_hours": "Mo-Su,PH 09:30-18:30",
        "phone": "+81-97-544-9400",
        "ref": "T7140001077703",
        "shop": "supermarket"
      }
    }
  ]
}