{
  "version": 0.6,
  "generator": "Overpass API 0.7.62.8 e802775f",
  "osm3s": {
    "timestamp_osm_base": "2025-10-15T12:29:26Z",
    "timestamp_areas_base": "2025-10-15T04:02:15Z",
    "copyright": "The data included in this document is from www.openstreetmap.org. The data is made available under ODbL."
  },
  "elements": [
    {
      "type": "node",
      "id": 2253691125,
      "lat": 34.1672201,
      "lon": 131.4494935,
      "tags": {
        "atm": "yes",
        "name": "コープやまぐち",
        "shop": "supermarket",
        "source": "Pushpin for iOS"
      }
    },
    {
      "type": "node",
      "id": 2420817189,
      "lat": 33.9980521,
      "lon": 130.9530476,
      "tags": {
        "name": "丸喜 下関一の宮店",
        "shop": "supermarket"
      }
    },
    {
      "type": "node",
      "id": 2499032822,
      "lat": 34.1560117,
      "lon": 132.2170661,
      "tags": {
        "name": "中央フード川下店",
        "name:en": "Chuo Food",
        "shop": "supermarket"
      }
    },
    {
      "type": "node",
      "id": 2503633370,
      "lat": 34.160187,
      "lon": 132.2227782,
      "tags": {
        "name": "三吉フード",
        "shop": "supermarket"
      }
    },
    {
      "type": "node",
      "id": 2503638477,
      "lat": 34.1454396,
      "lon": 132.2118296,
      "tags": {
        "name": "マックスバリュ南岩国店",
        "shop": "supermarket"
      }
    },
    {
      "type": "node",
      "id": 2508259668,
      "lat": 34.134839,
      "lon": 132.2026417,
      "tags": {
        "name": "イズミ南岩国店",
        "shop": "supermarket"
      }
    },
    {
      "type": "node",
      "id": 2508259669,
      "lat": 34.1391329,
      "lon": 132.1921333,
      "tags": {
        "name": "中央フード平田店",
        "shop": "supermarket"
      }
    },
    {
      "type": "node",
      "id": 2508260099,
      "lat": 34.1380221,
      "lon": 132.1951629,
      "tags": {
        "name": "万総南岩国店",
        "shop": "supermarket"
      }
    },
    {
      "type": "node",
      "id": 2523081786,
      "lat": 34.1656916,
      "lon": 132.2148119,
      "tags": {
        "name": "中央フード山手店",
        "shop": "supermarket"
      }
    },
    {
      "type": "node",
      "id": 2527628179,
      "lat": 34.1580033,
      "lon": 132.1766597,
      "tags": {
        "branch": "川西店",
        "check_date": "2024-11-26",
        "name": "マルキュウ",
        "opening_hours": "09:00-22:00",
        "operator": "(株）丸久",
        "shop": "supermarket"
      }
    },
    {
      "type": "node",
      "id": 2748741361,
      "lat": 33.949711,
      "lon": 130.9241058,
      "tags": {
        "layer": "-1",
        "level": "-1",
        "name": "MaxValu",
        "name:en": "SunLive",
        "opening_hours": "10:00-20:00",
        "shop": "supermarket",
        "source": "image,2014-03,Bing,2012-11-19;GSI/KIBAN"
      }
    },
    {
      "type": "node",
      "id": 3306294923,
      "lat": 34.0306507,
      "lon": 130.912059,
      "tags": {
        "addr:city": "下関市横野町１丁目16-12",
        "addr:postcode": "759-6601",
        "addr:street": "国道191号線",
        "name": "安岡生活センター",
        "phone": "083-258-1721",
        "shop": "supermarket"
      }
    },
    {
      "type": "node",
      "id": 3555459656,
      "lat": 33.974321,
      "lon": 131.2701235,
      "tags": {
        "name": "業務スーパー",
        "shop": "supermarket"
      }
    },
    {
      "type": "node",
      "id": 3596474500,
      "lat": 33.9691696,
      "lon": 131.9268984,
      "tags": {
        "brand": "マックスバリュ",
        "brand:en": "Maxvalu Tokai",
        "brand:ja": "マックスバリュ",
        "brand:wikidata": "Q1960109",
        "building": "retail",
        "name": "マックスバリュ",
        "name:en": "Maxvalu Tokai",
        "name:ja": "マックスバリュ",
        "shop": "supermarket"
      }
    },
    {
      "type": "node",
      "id": 3778917876,
      "lat": 34.1365852,
      "lon": 131.4364802,
      "tags": {
        "addr:city": "山口市",
        "addr:postcode": "753-0851",
        "name": "フジグラン山口",
        "opening_hours": "09:30-21:30",
        "shop": "supermarket"
      }
    },
    {
      "type": "node",
      "id": 3798156478,
      "lat": 34.0789212,
      "lon": 131.7100468,
      "tags": {
        "name": "いちやSC",
        "shop": "supermarket"
      }
    },
    {
      "type": "node",
      "id": 3799039405,
      "lat": 34.152583,
      "lon": 131.4640239,
      "tags": {
        "name": "アルク",
        "shop": "supermarket"
      }
    },
    {
      "type": "node",
      "id": 3822047457,
      "lat": 33.971226,
      "lon": 131.337169,
      "tags": {
        "name": "大和",
        "shop": "supermarket"
      }
    },
    {
      "type": "node",
      "id": 3913970158,
      "lat": 34.0402544,
      "lon": 131.8451927,
      "tags": {
        "name": "マルキュウ",
        "shop": "supermarket"
      }
    },
    {
      "type": "node",
      "id": 3928702411,
      "lat": 34.0254158,
      "lon": 131.8317031,
      "tags": {
        "name": "周南",
        "shop": "supermarket"
      }
    },
    {
      "type": "node",
      "id": 3951221857,
      "lat": 33.9737976,
      "lon": 132.0967292,
      "tags": {
        "name": "マックスバリュ",
        "shop": "supermarket"
      }
    },
    {
      "type": "node",
      "id": 3951221858,
      "lat": 33.9736498,
      "lon": 132.0960452,
      "tags": {
        "name": "イオン柳井新庄SC",
        "shop": "supermarket"
      }
    },
    {
      "type": "node",
      "id": 3951240957,
      "lat": 33.9658472,
      "lon": 132.1045737,
      "tags": {
        "name": "ミコー",
        "shop": "supermarket"
      }
    },
    {
      "type": "node",
      "id": 3987270457,
      "lat": 34.0112995,
      "lon": 131.866497,
      "tags": {
        "name": "マルエス",
        "shop": "supermarket"
      }
    },
    {
      "type": "node",
      "id": 4021833491,
      "lat": 34.0326237,
      "lon": 131.9028719,
      "tags": {
        "name": "マックスバリュ",
        "shop": "supermarket"
      }
    },
    {
      "type": "node",
      "id": 4021864894,
      "lat": 34.0322174,
      "lon": 131.903361,
      "tags": {
        "name": "イオン下松山田SC",
        "shop": "supermarket"
      }
    },
    {
      "type": "node",
      "id": 4030770698,
      "lat": 34.0363555,
      "lon": 131.8871973,
      "tags": {
        "name": "アルク",
        "shop": "supermarket"
      }
    },
    {
      "type": "node",
      "id": 4036285900,
      "lat": 34.0370322,
      "lon": 131.8714559,
      "tags": {
        "name": "サニー",
        "shop": "supermarket"
      }
    },
    {
      "type": "node",
      "id": 4041110344,
      "lat": 34.0491695,
      "lon": 131.5892965,
      "tags": {
        "name": "ザ・ビッグ",
        "shop": "supermarket"
      }
    },
    {
      "type": "node",
      "id": 4099850207,
      "lat": 34.1592974,
      "lon": 131.4361546,
      "tags": {
        "name": "ファディ",
        "shop": "supermarket"
      }
    },
    {
      "type": "node",
      "id": 4182322801,
      "lat": 34.0003583,
      "lon": 131.348746,
      "tags": {
        "name": "ザ・ビッグ",
        "shop": "supermarket"
      }
    },
    {
      "type": "node",
      "id": 4237167187,
      "lat": 34.1649829,
      "lon": 131.2018973,
      "tags": {
        "name": "ザ・ビッグ",
        "shop": "supermarket"
      }
    },
    {
      "type": "node",
      "id": 4237168826,
      "lat": 34.3897817,
      "lon": 131.4056583,
      "tags": {
        "brand": "イオン",
        "brand:en": "AEON",
        "brand:ja": "イオン",
        "brand:wikidata": "Q11285951",
        "name": "イオン",
        "name:en": "AEON",
        "name:ja": "イオン",
        "shop": "supermarket"
      }
    },
    {
      "type": "node",
      "id": 4243804627,
      "lat": 34.4834799,
      "lon": 131.6321326,
      "tags": {
        "shop": "supermarket"
      }
    },
    {
      "type": "node",
      "id": 4315767097,
      "lat": 34.3940981,
      "lon": 131.7171225,
      "tags": {
        "addr:street": "徳佐停車場線",
        "name": "マルキュウ",
        "name:ja": "丸久徳佐店",
        "shop": "supermarket"
      }
    },
    {
      "type": "node",
      "id": 4324809289,
      "lat": 33.9751361,
      "lon": 131.9161119,
      "tags": {
        "name": "マルキュウ",
        "shop": "supermarket"
      }
    },
    {
      "type": "node",
      "id": 4326408489,
      "lat": 33.9724413,
      "lon": 131.9229776,
      "tags": {
        "brand": "マックスバリュ",
        "brand:en": "Maxvalu Tokai",
        "brand:ja": "マックスバリュ",
        "brand:wikidata": "Q1960109",
        "name": "マックスバリュ",
        "name:en": "Maxvalu Tokai",
        "name:ja": "マックスバリュ",
        "shop": "supermarket"
      }
    },
    {
      "type": "node",
      "id": 4326423989,
      "lat": 34.0709432,
      "lon": 131.7334874,
      "tags": {
        "name": "マルキュウ",
        "shop": "supermarket"
      }
    },
    {
      "type": "node",
      "id": 4355083195,
      "lat": 33.9699703,
      "lon": 131.935254,
      "tags": {
        "name": "アルク",
        "shop": "supermarket"
      }
    },
    {
      "type": "node",
      "id": 4355087493,
      "lat": 33.9778122,
      "lon": 131.9345502,
      "tags": {
        "name": "コープ",
        "shop": "supermarket"
      }
    },
    {
      "type": "node",
      "id": 4355096689,
      "lat": 33.9699442,
      "lon": 131.9347015,
      "tags": {
        "name": "Best",
        "shop": "supermarket"
      }
    },
    {
      "type": "node",
      "id": 4356810991,
      "lat": 33.9857869,
      "lon": 131.9939076,
      "tags": {
        "name": "マルキュウ",
        "shop": "supermarket"
      }
    },
    {
      "type": "node",
      "id": 4364264392,
      "lat": 33.9420573,
      "lon": 131.9670939,
      "tags": {
        "name": "マックスバリュ",
        "shop": "supermarket"
      }
    },
    {
      "type": "node",
      "id": 4404216494,
      "lat": 33.9548746,
      "lon": 131.9558174,
      "tags": {
        "name": "アルク",
        "shop": "supermarket"
      }
    },
    {
      "type": "node",
      "id": 4420227590,
      "lat": 34.0159925,
      "lon": 131.4325961,
      "tags": {
        "name": "サンマート（株） 秋穂店",
        "shop": "supermarket"
      }
    },
    {
      "type": "node",
      "id": 4441538293,
      "lat": 34.060921,
      "lon": 131.6057204,
      "tags": {
        "name": "マルキュウ",
        "shop": "supermarket"
      }
    },
    {
      "type": "node",
      "id": 4445005953,
      "lat": 34.0730506,
      "lon": 131.7352317,
      "tags": {
        "name": "ふくだ",
        "shop": "supermarket"
      }
    },
    {
      "type": "node",
      "id": 4501645537,
      "lat": 34.0491441,
      "lon": 131.6051361,
      "tags": {
        "name": "アルク",
        "shop": "supermarket"
      }
    },
    {
      "type": "node",
      "id": 4605758991,
      "lat": 34.1141174,
      "lon": 131.0336082,
      "tags": {
        "name": "サンマート",
        "shop": "supermarket"
      }
    },
    {
      "type": "node",
      "id": 4622007948,
      "lat": 34.2010983,
      "lon": 131.0753375,
      "tags": {
        "name": "まるみ",
        "shop": "supermarket"
      }
    },
    {
      "type": "node",
      "id": 4622015621,
      "lat": 34.199772,
      "lon": 131.0778605,
      "tags": {
        "name": "ラピール",
        "shop": "supermarket"
      }
    },
    {
      "type": "node",
      "id": 4622018354,
      "lat": 34.2034113,
      "lon": 131.0768413,
      "tags": {
        "name": "サンマート",
        "shop": "supermarket"
      }
    },
    {
      "type": "node",
      "id": 4622797139,
      "lat": 34.0129683,
      "lon": 130.962467,
      "tags": {
        "name": "ウエスタまるき",
        "shop": "supermarket"
      }
    },
    {
      "type": "node",
      "id": 4628658735,
      "lat": 34.0047058,
      "lon": 130.9450685,
      "tags": {
        "name": "トライアル",
        "shop": "supermarket"
      }
    },
    {
      "type": "node",
      "id": 4632049772,
      "lat": 34.0142334,
      "lon": 130.948606,
      "tags": {
        "brand": "ゆめタウン",
        "brand:en": "YouMe Town",
        "brand:ja": "ゆめタウン",
        "brand:wikidata": "Q11280900",
        "name": "ゆめタウン",
        "name:en": "YouMe Town",
        "name:ja": "ゆめタウン",
        "shop": "supermarket"
      }
    },
    {
      "type": "node",
      "id": 4650828326,
      "lat": 34.4159704,
      "lon": 131.401137,
      "tags": {
        "addr:city": "萩市今古萩町４５",
        "addr:postcode": "7580021",
        "name": "（株）サンマート 熊谷店",
        "shop": "supermarket"
      }
    },
    {
      "type": "node",
      "id": 4676631339,
      "lat": 34.2868235,
      "lon": 130.9467755,
      "tags": {
        "name": "サンマート",
        "shop": "supermarket"
      }
    },
    {
      "type": "node",
      "id": 4782851321,
      "lat": 34.0170667,
      "lon": 131.336,
      "tags": {
        "name:en": "7-Eleven",
        "shop": "supermarket"
      }
    },
    {
      "type": "node",
      "id": 4814880282,
      "lat": 34.0692611,
      "lon": 131.03434,
      "tags": {
        "name": "アルク",
        "shop": "supermarket"
      }
    },
    {
      "type": "node",
      "id": 4817157853,
      "lat": 34.0676946,
      "lon": 131.0486975,
      "tags": {
        "name": "ウェスタまるき",
        "shop": "supermarket"
      }
    },
    {
      "type": "node",
      "id": 4818155054,
      "lat": 34.0363204,
      "lon": 131.8426094,
      "tags": {
        "level": "0",
        "name": "マックスバリュ",
        "shop": "supermarket"
      }
    },
    {
      "type": "node",
      "id": 4820362141,
      "lat": 34.0506911,
      "lon": 131.5481014,
      "tags": {
        "name": "ユアーズバリュー",
        "shop": "supermarket"
      }
    },
    {
      "type": "node",
      "id": 4823238810,
      "lat": 34.0543069,
      "lon": 131.596844,
      "tags": {
        "name": "ユアーズ・バリュー",
        "shop": "supermarket"
      }
    },
    {
      "type": "node",
      "id": 4861927248,
      "lat": 34.0622214,
      "lon": 131.5703622,
      "tags": {
        "name": "マルキュウ",
        "shop": "supermarket"
      }
    },
    {
      "type": "node",
      "id": 4886834035,
      "lat": 34.0261852,
      "lon": 131.5741538,
      "tags": {
        "name": "ディオ",
        "shop": "supermarket"
      }
    },
    {
      "type": "node",
      "id": 4886834036,
      "lat": 34.0266498,
      "lon": 131.5748855,
      "tags": {
        "name": "トライアル",
        "shop": "supermarket"
      }
    },
    {
      "type": "node",
      "id": 4909975236,
      "lat": 34.0272612,
      "lon": 131.5658241,
      "tags": {
        "level": "0",
        "name": "ハローズ 防府新田店（防府新田モール）",
        "opening_hours": "24/7",
        "operator": "ハローズ",
        "shop": "supermarket"
      }
    },
    {
      "type": "node",
      "id": 4989064238,
      "lat": 34.0233763,
      "lon": 131.5559551,
      "tags": {
        "name": "業務スーパー",
        "shop": "supermarket"
      }
    },
    {
      "type": "node",
      "id": 4989995843,
      "lat": 34.0413805,
      "lon": 131.5586593,
      "tags": {
        "name": "サンマート",
        "shop": "supermarket"
      }
    },
    {
      "type": "node",
      "id": 5071484558,
      "lat": 34.5023205,
      "lon": 131.4701982,
      "tags": {
        "name": "サンマート",
        "shop": "supermarket"
      }
    },
    {
      "type": "node",
      "id": 5167418013,
      "lat": 34.0485754,
      "lon": 132.2112136,
      "tags": {
        "name": "丸久 由宇店",
        "shop": "supermarket"
      }
    },
    {
      "type": "node",
      "id": 5257020071,
      "lat": 34.1658809,
      "lon": 131.2088788,
      "tags": {
        "name": "ウエスタまるき",
        "shop": "supermarket"
      }
    },
    {
      "type": "node",
      "id": 5336218226,
      "lat": 34.0692506,
      "lon": 131.5539567,
      "tags": {
        "name": "ユアーズ・バリュ",
        "shop": "supermarket"
      }
    },
    {
      "type": "node",
      "id": 5336229369,
      "lat": 34.0687349,
      "lon": 131.5496271,
      "tags": {
        "name": "サンマート",
        "shop": "supermarket"
      }
    },
    {
      "type": "node",
      "id": 5344701143,
      "lat": 34.0031928,
      "lon": 131.2201238,
      "tags": {
        "branch": "西宇部店",
        "name": "フジ",
        "shop": "supermarket"
      }
    },
    {
      "type": "node",
      "id": 5366029880,
      "lat": 34.0531663,
      "lon": 131.4928394,
      "tags": {
        "name": "サンマート",
        "shop": "supermarket"
      }
    },
    {
      "type": "node",
      "id": 5429467234,
      "lat": 34.370266,
      "lon": 131.2246399,
      "tags": {
        "name": "サンマート",
        "shop": "supermarket"
      }
    },
    {
      "type": "node",
      "id": 5482436498,
      "lat": 34.3692436,
      "lon": 131.1815643,
      "tags": {
        "name": "Aコープ 長門",
        "shop": "supermarket"
      }
    },
    {
      "type": "node",
      "id": 5482447139,
      "lat": 34.0572319,
      "lon": 131.1739349,
      "tags": {
        "name": "マックスバリュ",
        "shop": "supermarket"
      }
    },
    {
      "type": "node",
      "id": 5483813906,
      "lat": 34.3745575,
      "lon": 131.0615845,
      "tags": {
        "name": "サンマート",
        "shop": "supermarket"
      }
    },
    {
      "type": "node",
      "id": 5484016272,
      "lat": 34.3581772,
      "lon": 131.177475,
      "tags": {
        "name": "丸和",
        "shop": "supermarket"
      }
    },
    {
      "type": "node",
      "id": 5517944162,
      "lat": 34.1819611,
      "lon": 131.2106628,
      "tags": {
        "name": "サンマート",
        "shop": "supermarket"
      }
    },
    {
      "type": "node",
      "id": 5518491536,
      "lat": 34.010437,
      "lon": 131.1705475,
      "tags": {
        "name": "ウェスタまるき 神田店",
        "shop": "supermarket"
      }
    },
    {
      "type": "node",
      "id": 5712889434,
      "lat": 33.985879,
      "lon": 130.9904768,
      "tags": {
        "branch": "長府店",
        "brand": "マックスバリュ",
        "brand:en": "MaxValu",
        "brand:ja": "マックスバリュ",
        "brand:wikidata": "Q11340427",
        "name": "マックスバリュ",
        "name:en": "MaxValu",
        "name:ja": "マックスバリュ",
        "shop": "supermarket"
      }
    },
    {
      "type": "node",
      "id": 5789969854,
      "lat": 33.9505357,
      "lon": 130.9287459,
      "tags": {
        "shop": "supermarket"
      }
    },
    {
      "type": "node",
      "id": 6011703186,
      "lat": 34.3943131,
      "lon": 131.7186185,
      "tags": {
        "name": "ウォンツ徳佐店",
        "name:en": "WANTS Tokusa",
        "shop": "supermarket"
      }
    },
    {
      "type": "node",
      "id": 6218178668,
      "lat": 34.1604416,
      "lon": 131.4510114,
      "tags": {
        "shop": "supermarket"
      }
    },
    {
      "type": "node",
      "id": 6514743786,
      "lat": 33.9564139,
      "lon": 131.2546853,
      "tags": {
        "addr:block_number": "12-15",
        "addr:city": "宇部市",
        "addr:neighbourhood": "一丁目",
        "addr:postcode": "7550035",
        "addr:province": "山口県",
        "addr:quarter": "西琴芝",
        "name": "みすみ食料品店",
        "shop": "supermarket"
      }
    },
    {
      "type": "node",
      "id": 7925514879,
      "lat": 34.1679318,
      "lon": 131.3277265,
      "tags": {
        "addr:block_number": "3162",
        "addr:city": "美祢市",
        "addr:postcode": "7540122",
        "addr:province": "山口県",
        "addr:quarter": "美東町真名",
        "name": "セブンイレブン　美祢十文字店",
        "shop": "supermarket"
      }
    },
    {
      "type": "node",
      "id": 8748754217,
      "lat": 34.4178808,
      "lon": 131.2553614,
      "tags": {
        "name": "山三商店",
        "shop": "supermarket"
      }
    },
    {
      "type": "node",
      "id": 9081354218,
      "lat": 34.1652846,
      "lon": 132.1919078,
      "tags": {
        "name": "アルク",
        "shop": "supermarket"
      }
    },
    {
      "type": "node",
      "id": 9235014218,
      "lat": 33.9586066,
      "lon": 132.1272119,
      "tags": {
        "name": "TRIAL",
        "shop": "supermarket"
      }
    },
    {
      "type": "node",
      "id": 9472329366,
      "lat": 33.9745215,
      "lon": 131.208735,
      "tags": {
        "name": "ウェスタまるき 西割店",
        "shop": "supermarket"
      }
    },
    {
      "type": "node",
      "id": 9570903454,
      "lat": 34.0096134,
      "lon": 131.3522217,
      "tags": {
        "name": "サンリブ阿知須",
        "opening_hours": "Mo-Su 10:00-20:00",
        "shop": "supermarket"
      }
    },
    {
      "type": "node",
      "id": 11349237599,
      "lat": 34.1467491,
      "lon": 132.2230787,
      "tags": {
        "addr:city": "Iwakuni",
        "addr:neighbourhood": "1 Chome Misumimachi",
        "addr:postcode": "740-0025",
        "addr:province": "Yamaguchi",
        "name": "Marine Corps Exchange (MCX)",
        "opening_hours": "Mo-Su 10:00-20:00",
        "operator": "MCCS Iwakuni",
        "payment:cash": "yes",
        "payment:credit_cards": "yes",
        "payment:debit_cards": "yes",
        "phone": "+81 0827-79-5641",
        "shop": "supermarket"
      }
    },
    {
      "type": "node",
      "id": 12229478813,
      "lat": 34.0064401,
      "lon": 131.1807456,
      "tags": {
        "check_date": "2024-10-06",
        "name": "ダイレックス",
        "shop": "supermarket"
      }
    },
    {
      "type": "node",
      "id": 12487748791,
      "lat": 33.9864574,
      "lon": 131.3429076,
      "tags": {
        "name": "ダイレックス東岐波店",
        "shop": "supermarket"
      }
    },
    {
      "type": "node",
      "id": 12487748792,
      "lat": 33.9871936,
      "lon": 131.343201,
      "tags": {
        "name": "コスモス東岐波店",
        "shop": "supermarket"
      }
    },
    {
      "type": "node",
      "id": 12894253957,
      "lat": 34.0568444,
      "lon": 131.367291,
      "tags": {
        "name": "まるき嘉川店",
        "shop": "supermarket"
      }
    },
    {
      "type": "node",
      "id": 12919501779,
      "lat": 33.9663643,
      "lon": 130.9246955,
      "tags": {
        "name": "ローソン",
        "shop": "supermarket"
      }
    },
    {
      "type": "node",
      "id": 12919548570,
      "lat": 33.9566825,
      "lon": 130.9217037,
      "tags": {
        "name": "ローソン",
        "shop": "supermarket"
      }
    },
    {
      "type": "node",
      "id": 13041016003,
      "lat": 34.117959,
      "lon": 131.4012838,
      "tags": {
        "check_date": "2025-08-01",
        "name": "まるき",
        "shop": "supermarket"
      }
    },
    {
      "type": "way",
      "id": 92831078,
      "center": {
        "lat": 34.0437548,
        "lon": 131.8142292
      },
      "nodes": [
        1076469605,
        1076469602,
        1076469594,
        1076469576,
        1076469600,
        1076469598,
        1076469605
      ],
      "tags": {
        "branch": "徳山東店",
        "building": "retail",
        "name": "アルク",
        "shop": "supermarket"
      }
    },
    {
      "type": "way",
      "id": 202793094,
      "center": {
        "lat": 34.1671833,
        "lon": 131.449434
      },
      "nodes": [
        2127348752,
        2127348756,
        2127348753,
        2127348743,
        2127348741,
        2127348749,
        2127348746,
        2127348745,
        2127348747,
        2127348752
      ],
      "tags": {
        "building": "retail",
        "name": "コープやまぐち",
        "shop": "supermarket",
        "source": "GSI/KIBAN 2500; NARO",
        "source_ref": "http://wiki.osm.org/wiki/GSI_KIBAN"
      }
    },
    {
      "type": "way",
      "id": 203058588,
      "center": {
        "lat": 34.1548666,
        "lon": 131.5160959
      },
      "nodes": [
        2130373008,
        2130372998,
        2130372994,
        2130373005,
        2130372942,
        2130373007,
        2130372969,
        2130372983,
        2130373008
      ],
      "tags": {
        "building": "retail",
        "name": "ザ・ビッグ大内店",
        "service": "retail",
        "shop": "supermarket"
      }
    },
    {
      "type": "way",
      "id": 282443603,
      "center": {
        "lat": 34.1171657,
        "lon": 131.8626077
      },
      "nodes": [
        2863602601,
        3095240073,
        3095245537,
        3095259630,
        3095244933,
        2863602701,
        2863602901,
        2863603001,
        2863602601
      ],
      "tags": {
        "branch": "須々万店",
        "building": "retail",
        "name": "サンマート",
        "shop": "supermarket"
      }
    },
    {
      "type": "way",
      "id": 282443650,
      "center": {
        "lat": 34.2242202,
        "lon": 131.8126944
      },
      "nodes": [
        2863606101,
        2863603002,
        6373585683,
        6373585684,
        2863603003,
        2863606301,
        6373585681,
        6373585682,
        2863606101
      ],
      "tags": {
        "branch": "鹿野店",
        "building": "retail",
        "name": "サンマート",
        "shop": "supermarket"
      }
    },
    {
      "type": "way",
      "id": 282443820,
      "center": {
        "lat": 34.0887463,
        "lon": 131.7822243
      },
      "nodes": [
        2863609201,
        2863609301,
        2863609302,
        2863609401,
        2863609201
      ],
      "tags": {
        "branch": "上野店",
        "building": "retail",
        "name": "サンマート",
        "shop": "supermarket"
      }
    },
    {
      "type": "way",
      "id": 282444132,
      "center": {
        "lat": 34.1899571,
        "lon": 131.659013
      },
      "nodes": [
        2863611503,
        12720641643,
        2863622302,
        2863622303,
        2863611504,
        2863611505,
        7933712273,
        7933712274,
        7581550979,
        7581550980,
        2863610103,
        7933712276,
        7933712275,
        7581550981,
        2863610104,
        2863611506,
        7581550977,
        7581550978,
        2863622901,
        2863611503
      ],
      "tags": {
        "branch": "徳地店",
        "building": "retail",
        "name": "マルキュウ",
        "shop": "supermarket"
      }
    },
    {
      "type": "way",
      "id": 282444536,
      "center": {
        "lat": 34.0450201,
        "lon": 131.9572971
      },
      "nodes": [
        2863634201,
        2863634202,
        2863631002,
        2863634203,
        2863631003,
        2863631004,
        2863634201
      ],
      "tags": {
        "branch": "熊毛店",
        "building": "retail",
        "name": "ピクロス",
        "shop": "supermarket"
      }
    },
    {
      "type": "way",
      "id": 282445351,
      "center": {
        "lat": 34.0901372,
        "lon": 132.0625213
      },
      "nodes": [
        2863652801,
        2863652901,
        2863653001,
        2863653101,
        2863652902,
        2863653201,
        5049890180,
        5049890179,
        2863652801
      ],
      "tags": {
        "branch": "周東店",
        "building": "retail",
        "name": "ザ・ビッグ",
        "shop": "supermarket"
      }
    },
    {
      "type": "way",
      "id": 282445782,
      "center": {
        "lat": 34.2631281,
        "lon": 131.960957
      },
      "nodes": [
        2863652905,
        2863646302,
        8655380678,
        8655380680,
        8655380681,
        8655380682,
        8655380679,
        8655380677,
        2863652906,
        2863665401,
        8655380687,
        8655380686,
        8655380688,
        8655380683,
        8655380685,
        8655380684,
        2863652905
      ],
      "tags": {
        "branch": "広瀬店",
        "building": "retail",
        "name": "サンマート",
        "shop": "supermarket"
      }
    },
    {
      "type": "way",
      "id": 303463599,
      "center": {
        "lat": 34.023314,
        "lon": 131.5453825
      },
      "nodes": [
        3078231589,
        3078231590,
        3078231593,
        3078231592,
        3078231589
      ],
      "tags": {
        "building": "retail",
        "name": "アルク",
        "shop": "supermarket"
      }
    },
    {
      "type": "way",
      "id": 303472852,
      "center": {
        "lat": 34.0363271,
        "lon": 131.5711318
      },
      "nodes": [
        3150453785,
        3078336758,
        3078336759,
        3150453781,
        3150453779,
        3150453780,
        3150453778,
        3150453782,
        7236403266,
        7236403267,
        3150453783,
        3150453784,
        3150453785
      ],
      "tags": {
        "building": "retail",
        "name": "アルク",
        "shop": "supermarket"
      }
    },
    {
      "type": "way",
      "id": 305512799,
      "center": {
        "lat": 34.0170583,
        "lon": 131.8679419
      },
      "nodes": [
        3101487632,
        3101521029,
        3101501932,
        3748999525,
        3748999425,
        3101501933,
        3101487632
      ],
      "tags": {
        "branch": "下松店",
        "building": "shop",
        "name": "アルク",
        "shop": "supermarket"
      }
    },
    {
      "type": "way",
      "id": 305797112,
      "center": {
        "lat": 34.0505119,
        "lon": 131.9697319
      },
      "nodes": [
        3104693733,
        3104635250,
        3104693734,
        3104635251,
        3104635252,
        3104612710,
        3104693733
      ],
      "tags": {
        "branch": "熊毛店",
        "building": "retail",
        "name": "中央フード",
        "shop": "supermarket"
      }
    },
    {
      "type": "way",
      "id": 305920300,
      "center": {
        "lat": 34.0333186,
        "lon": 131.9795416
      },
      "nodes": [
        3106175756,
        3106175757,
        3106174771,
        3106182658,
        3106175756
      ],
      "tags": {
        "building": "retail",
        "name": "スーパー十六や",
        "shop": "supermarket"
      }
    },
    {
      "type": "way",
      "id": 305954680,
      "center": {
        "lat": 34.03863,
        "lon": 131.9502854
      },
      "nodes": [
        3106635929,
        3106636029,
        3106636030,
        3106633730,
        3106635929
      ],
      "tags": {
        "branch": "熊毛店",
        "building": "retail",
        "name": "ミコー",
        "shop": "supermarket"
      }
    },
    {
      "type": "way",
      "id": 309139748,
      "center": {
        "lat": 34.088699,
        "lon": 132.0507937
      },
      "nodes": [
        3144576629,
        3144576729,
        3144576730,
        3144576731,
        3144576629
      ],
      "tags": {
        "building": "retail",
        "name": "バリューマルシン",
        "shop": "supermarket"
      }
    },
    {
      "type": "way",
      "id": 309139911,
      "center": {
        "lat": 34.0875678,
        "lon": 132.0522721
      },
      "nodes": [
        3144575530,
        3144575531,
        3144575532,
        3144577429,
        3144575530
      ],
      "tags": {
        "branch": "高森店",
        "building": "retail",
        "name": "中央フード",
        "shop": "supermarket"
      }
    },
    {
      "type": "way",
      "id": 312379305,
      "center": {
        "lat": 34.0703993,
        "lon": 131.7685863
      },
      "nodes": [
        3182379963,
        3182379964,
        3182377062,
        3182377063,
        3182379963
      ],
      "tags": {
        "building": "retail",
        "name": "東ソーコープ",
        "shop": "supermarket"
      }
    },
    {
      "type": "way",
      "id": 313906322,
      "center": {
        "lat": 34.0590386,
        "lon": 131.8163862
      },
      "nodes": [
        3199439461,
        3199439462,
        3199439463,
        3199405662,
        3199439461
      ],
      "tags": {
        "building": "shop",
        "name": "コープ",
        "shop": "supermarket"
      }
    },
    {
      "type": "way",
      "id": 313908909,
      "center": {
        "lat": 34.0607222,
        "lon": 131.8107308
      },
      "nodes": [
        3199466261,
        3199466361,
        3199466461,
        3199464863,
        3199466261
      ],
      "tags": {
        "branch": "徳山中央店",
        "building": "shop",
        "check_date": "2024-11-27",
        "name": "アルク",
        "name:en": "Aruk",
        "opening_hours": "09:30-24:00",
        "shop": "supermarket"
      }
    },
    {
      "type": "way",
      "id": 314358338,
      "center": {
        "lat": 34.055796,
        "lon": 131.8292528
      },
      "nodes": [
        3204052961,
        3204053061,
        3204052962,
        3204053161,
        3204052961
      ],
      "tags": {
        "branch": "秋月店",
        "building": "retail",
        "name": "アルク",
        "shop": "supermarket"
      }
    },
    {
      "type": "way",
      "id": 314487511,
      "center": {
        "lat": 34.0419718,
        "lon": 131.8393755
      },
      "nodes": [
        3205364261,
        3205364361,
        3205363963,
        3205364461,
        3205364261
      ],
      "tags": {
        "branch": "桜木店",
        "building": "shop",
        "name": "アルク",
        "shop": "supermarket"
      }
    },
    {
      "type": "way",
      "id": 314532636,
      "center": {
        "lat": 34.0681236,
        "lon": 131.7578676
      },
      "nodes": [
        3205817961,
        3205818061,
        3205818161,
        3205818261,
        3205817961
      ],
      "tags": {
        "branch": "イオンタウン周南店",
        "building": "shop",
        "name": "ザ・ビッグ",
        "shop": "supermarket"
      }
    },
    {
      "type": "way",
      "id": 314652987,
      "center": {
        "lat": 34.0644007,
        "lon": 131.7784147
      },
      "nodes": [
        3207006362,
        3207006363,
        3207005370,
        3207004366,
        3207004367,
        3207008861,
        3207006362
      ],
      "tags": {
        "branch": "周南店",
        "building": "shop",
        "name": "トライアル",
        "shop": "supermarket"
      }
    },
    {
      "type": "way",
      "id": 314669174,
      "center": {
        "lat": 34.072924,
        "lon": 131.7695125
      },
      "nodes": [
        3207169661,
        3207169761,
        3207168962,
        3207169662,
        3207169861,
        3207169961,
        3207170061,
        3207170161,
        3207169661
      ],
      "tags": {
        "branch": "新南陽店",
        "building": "shop",
        "name": "フジ",
        "shop": "supermarket"
      }
    },
    {
      "type": "way",
      "id": 314788377,
      "center": {
        "lat": 34.0570669,
        "lon": 131.7994978
      },
      "nodes": [
        3208342461,
        3208342561,
        3208342462,
        3208334262,
        3208342461
      ],
      "tags": {
        "branch": "徳山西店",
        "building": "shop",
        "name": "ザ・ビッグ",
        "name:en": "Big Aeon",
        "shop": "supermarket"
      }
    },
    {
      "type": "way",
      "id": 314791993,
      "center": {
        "lat": 34.0631926,
        "lon": 131.8004906
      },
      "nodes": [
        3208385162,
        3208385462,
        3208385762,
        3208385163,
        3208385164,
        3208385664,
        3208384566,
        3208385162
      ],
      "tags": {
        "branch": "今宿店",
        "building": "shop",
        "name": "アルク",
        "shop": "supermarket"
      }
    },
    {
      "type": "way",
      "id": 315851153,
      "center": {
        "lat": 34.2226308,
        "lon": 132.0892964
      },
      "nodes": [
        3219825897,
        3219825785,
        3219825004,
        3219825509,
        3219825897
      ],
      "tags": {
        "building": "retail",
        "name": "サンマート 美和店",
        "shop": "supermarket"
      }
    },
    {
      "type": "way",
      "id": 323595837,
      "center": {
        "lat": 34.1126117,
        "lon": 131.916859
      },
      "nodes": [
        3303780361,
        3303780461,
        3303780362,
        3303777363,
        3303780361
      ],
      "tags": {
        "building": "retail",
        "shop": "supermarket"
      }
    },
    {
      "type": "way",
      "id": 323720957,
      "center": {
        "lat": 33.9311102,
        "lon": 132.1934402
      },
      "nodes": [
        3305029161,
        3305029261,
        3305029262,
        3305029162,
        3305029161
      ],
      "tags": {
        "building": "retail",
        "name": "マルキュウ大島小松店",
        "shop": "supermarket"
      }
    },
    {
      "type": "way",
      "id": 325139063,
      "center": {
        "lat": 34.2037132,
        "lon": 132.2276501
      },
      "nodes": [
        3318064261,
        12175990241,
        12175990248,
        12175990249,
        3318064461,
        12175990247,
        12175990246,
        12175990242,
        12175990245,
        12175990240,
        3318064561,
        3318064661,
        12175990239,
        12175990244,
        12175990243,
        12175990238,
        3318064261
      ],
      "tags": {
        "building": "yes",
        "name": "マルキュウ",
        "shop": "supermarket"
      }
    },
    {
      "type": "way",
      "id": 327749957,
      "center": {
        "lat": 34.1555905,
        "lon": 131.4610365
      },
      "nodes": [
        3345630033,
        3345630034,
        3345630035,
        3345630036,
        3345630033
      ],
      "tags": {
        "building": "retail",
        "name": "Direx",
        "shop": "supermarket"
      }
    },
    {
      "type": "way",
      "id": 327749958,
      "center": {
        "lat": 34.1525841,
        "lon": 131.4639634
      },
      "nodes": [
        3345630037,
        3345630038,
        3345630039,
        3345630040,
        3345630041,
        3345630042,
        3345630043,
        3345630037
      ],
      "tags": {
        "building": "retail",
        "name": "Aruk",
        "shop": "supermarket"
      }
    },
    {
      "type": "way",
      "id": 328492845,
      "center": {
        "lat": 34.0496176,
        "lon": 131.8131064
      },
      "nodes": [
        3353276393,
        3353276593,
        3353272095,
        3353276594,
        3353276393
      ],
      "tags": {
        "building": "shop",
        "name": "アルク",
        "shop": "supermarket"
      }
    },
    {
      "type": "way",
      "id": 329797927,
      "center": {
        "lat": 34.0154432,
        "lon": 131.853061
      },
      "nodes": [
        3367436293,
        3367433896,
        3367436294,
        3367433897,
        3367436293
      ],
      "tags": {
        "building": "shop",
        "name": "トライアル",
        "name:en": "Trial",
        "shop": "supermarket"
      }
    },
    {
      "type": "way",
      "id": 332618202,
      "center": {
        "lat": 34.0053323,
        "lon": 131.175919
      },
      "nodes": [
        3397666354,
        3397666356,
        3397666357,
        3397666359,
        3397666361,
        9055674550,
        9055674549,
        9055674548,
        9055674547,
        3397666358,
        3397666360,
        9055674543,
        9055674541,
        9055674542,
        9055674544,
        9055674545,
        9055674546,
        3397666355,
        9055674551,
        9055674552,
        3397666354
      ],
      "tags": {
        "branch": "小野田店",
        "building": "shop",
        "name": "アルク",
        "shop": "supermarket"
      }
    },
    {
      "type": "way",
      "id": 333976478,
      "center": {
        "lat": 34.0469686,
        "lon": 131.831065
      },
      "nodes": [
        3410477693,
        3410475194,
        3410475394,
        3410475395,
        3410477693
      ],
      "tags": {
        "building": "shop",
        "name": "たから",
        "shop": "supermarket"
      }
    },
    {
      "type": "way",
      "id": 337526826,
      "center": {
        "lat": 34.0812266,
        "lon": 131.7669368
      },
      "nodes": [
        3445999399,
        3445999400,
        3446003997,
        3446025293,
        3445999399
      ],
      "tags": {
        "building": "retail",
        "name": "スーパー周南",
        "shop": "supermarket"
      }
    },
    {
      "type": "way",
      "id": 349703476,
      "center": {
        "lat": 33.9599995,
        "lon": 131.2584441
      },
      "nodes": [
        3555427935,
        5419351940,
        5419351939,
        5419351934,
        5419351935,
        5419351930,
        5419351933,
        5419351931,
        5419351932,
        3555427936,
        3555427937,
        3555427938,
        5419351929,
        5419351928,
        5419351927,
        5419351925,
        5419351926,
        3555427939,
        5419351936,
        5419351937,
        5419351938,
        3555427940,
        9572930208,
        3555427935
      ],
      "tags": {
        "branch": "宇部店",
        "building": "retail",
        "name": "トライアル",
        "opening_hours": "24/7",
        "shop": "supermarket",
        "source": "GSImaps/std"
      }
    },
    {
      "type": "way",
      "id": 350352291,
      "center": {
        "lat": 34.0723755,
        "lon": 131.7578999
      },
      "nodes": [
        3561052593,
        3561044195,
        3561052693,
        3561052893,
        3561052593
      ],
      "tags": {
        "building": "shop",
        "name": "アルク",
        "shop": "supermarket"
      }
    },
    {
      "type": "way",
      "id": 351442237,
      "center": {
        "lat": 34.0323437,
        "lon": 131.8363305
      },
      "nodes": [
        3572019308,
        3572019309,
        3572035705,
        3572027302,
        3572027303,
        3572027304,
        3572019310,
        3572019308
      ],
      "tags": {
        "building": "shop",
        "name": "マックスバリュ",
        "shop": "supermarket"
      }
    },
    {
      "type": "way",
      "id": 353411368,
      "center": {
        "lat": 33.9582856,
        "lon": 131.2526935
      },
      "nodes": [
        3591930028,
        3591930031,
        3591930021,
        3591930017,
        3591930016,
        3591930019,
        3591930020,
        3591930023,
        3591930024,
        3591930026,
        3591930025,
        3591930028
      ],
      "tags": {
        "branch": "琴芝店",
        "building": "shop",
        "name": "アルク",
        "shop": "supermarket",
        "source": "GSImaps/std"
      }
    },
    {
      "type": "way",
      "id": 353411401,
      "center": {
        "lat": 33.9607347,
        "lon": 131.2407601
      },
      "nodes": [
        3591930088,
        3591930194,
        3591930087,
        3591930079,
        3591930088
      ],
      "tags": {
        "branch": "小松原通り店",
        "building": "shop",
        "name": "ウェスタまるき 小松原通り店",
        "shop": "supermarket",
        "source": "GSImaps/std"
      }
    },
    {
      "type": "way",
      "id": 353411443,
      "center": {
        "lat": 33.9543785,
        "lon": 131.239569
      },
      "nodes": [
        3591929644,
        11853828907,
        3591929612,
        3591929618,
        3591929626,
        3591929629,
        3591929665,
        3591929644
      ],
      "tags": {
        "branch": "宇部中央店",
        "brand": "トライアル",
        "brand:en": "Trial",
        "brand:ja": "トライアル",
        "brand:wikidata": "Q11321723",
        "brand:wikipedia": "ja:トライアルカンパニー",
        "building": "retail",
        "name": "トライアル",
        "name:en": "Trial",
        "name:ja": "トライアル",
        "opening_hours": "24/7",
        "shop": "supermarket",
        "source": "GSImaps/std"
      }
    },
    {
      "type": "way",
      "id": 356928497,
      "center": {
        "lat": 34.0554776,
        "lon": 131.5941755
      },
      "nodes": [
        3623246895,
        3623285193,
        3623246896,
        3623285293,
        3623246895
      ],
      "tags": {
        "building": "retail",
        "name": "ディオ",
        "shop": "supermarket"
      }
    },
    {
      "type": "way",
      "id": 356932947,
      "center": {
        "lat": 33.9417602,
        "lon": 131.2707999
      },
      "nodes": [
        3623342669,
        3623342661,
        3623342663,
        9982642633,
        9982642632,
        3623342643,
        3623342662,
        3623342667,
        3623342673,
        3623342671,
        3623342678,
        3623342688,
        9982642634,
        3623342672,
        3623342669
      ],
      "tags": {
        "branch": "恩田店",
        "building": "retail",
        "name": "アルク",
        "shop": "supermarket",
        "source": "GSImaps/std"
      }
    },
    {
      "type": "way",
      "id": 357029138,
      "center": {
        "lat": 34.05241,
        "lon": 131.5797245
      },
      "nodes": [
        3624229193,
        3624215094,
        3624216994,
        3624215095,
        3624215096,
        7229895429,
        7229895428,
        3624229293,
        3624229193
      ],
      "tags": {
        "building": "shop",
        "name": "ザ・ビッグ",
        "shop": "supermarket"
      }
    },
    {
      "type": "way",
      "id": 365924600,
      "center": {
        "lat": 33.9482193,
        "lon": 131.2501215
      },
      "nodes": [
        3699238900,
        3699238897,
        3699238895,
        3699238886,
        3699238881,
        3699238892,
        3699238874,
        3699238885,
        3699238900
      ],
      "tags": {
        "building": "retail",
        "name": "まるき常盤通り店",
        "shop": "supermarket",
        "source": "GSImaps/std"
      }
    },
    {
      "type": "way",
      "id": 369072036,
      "center": {
        "lat": 34.0264173,
        "lon": 131.862869
      },
      "nodes": [
        3728963828,
        3728963829,
        3728963928,
        3728959627,
        3728963830,
        3728965525,
        3728964026,
        3728965625,
        3728963831,
        3728963832,
        3728964126,
        3728963833,
        3728959628,
        3728963828
      ],
      "tags": {
        "building": "shop",
        "name": "マックスバリュ",
        "shop": "supermarket"
      }
    },
    {
      "type": "way",
      "id": 369375287,
      "center": {
        "lat": 34.0297356,
        "lon": 131.8580958
      },
      "nodes": [
        3731695125,
        3731695126,
        3731676626,
        3731695225,
        3731695125
      ],
      "tags": {
        "addr:block_number": "4番",
        "addr:city": "下松市",
        "addr:housenumber": "15号",
        "addr:neighbourhood": "1丁目",
        "addr:postcode": "744－0071",
        "addr:province": "山口県",
        "addr:quarter": "清瀬町",
        "building": "retail",
        "name": "アルゾ　下松店",
        "opening_hours": "Mo-Su 09:00-21:00",
        "shop": "supermarket"
      }
    },
    {
      "type": "way",
      "id": 369651578,
      "center": {
        "lat": 34.0236315,
        "lon": 131.8573513
      },
      "nodes": [
        3734272087,
        3734269370,
        3734272088,
        3734268715,
        3734272360,
        3734269247,
        3734268549,
        3734272089,
        3734272087
      ],
      "tags": {
        "building": "shop",
        "name": "Aプライス",
        "shop": "supermarket"
      }
    },
    {
      "type": "way",
      "id": 371667244,
      "center": {
        "lat": 34.009858,
        "lon": 131.8760201
      },
      "nodes": [
        3752263030,
        3752263016,
        3752263729,
        3752272225,
        3752263030
      ],
      "tags": {
        "building": "shop",
        "name": "マルエス",
        "shop": "supermarket"
      }
    },
    {
      "type": "way",
      "id": 371986059,
      "center": {
        "lat": 33.956868,
        "lon": 131.2662123
      },
      "nodes": [
        3755273991,
        3755273989,
        3755273978,
        3755273979,
        3755273970,
        3755273971,
        3755273964,
        3755273966,
        3755273962,
        3755273963,
        3755273958,
        3755273959,
        3755273991
      ],
      "tags": {
        "building": "retail",
        "name": "まるき",
        "shop": "supermarket",
        "source": "GSImaps/std"
      }
    },
    {
      "type": "way",
      "id": 374499083,
      "center": {
        "lat": 34.1365932,
        "lon": 131.4364821
      },
      "nodes": [
        3778917862,
        3778917863,
        3778917864,
        3778917865,
        3778917866,
        3778917867,
        3778917868,
        3778917869,
        3778917870,
        3778917871,
        3778917872,
        3778917875,
        3778917862
      ],
      "tags": {
        "addr:postcode": "753-0851",
        "addr:street": "山口小郡秋穂線",
        "building": "shop",
        "name": "フジグラン山口",
        "phone": "083-995-6536",
        "shop": "supermarket"
      }
    },
    {
      "type": "way",
      "id": 375944877,
      "center": {
        "lat": 33.9464968,
        "lon": 131.2604501
      },
      "nodes": [
        3792829320,
        3792829306,
        3792829302,
        3792829304,
        3792829301,
        3792829312,
        3792829320
      ],
      "tags": {
        "branch": "恩田店",
        "building": "supermarket",
        "name": "マックスバリュ",
        "shop": "supermarket",
        "source": "GSImaps/std"
      }
    },
    {
      "type": "way",
      "id": 376762076,
      "center": {
        "lat": 34.0610987,
        "lon": 131.7966538
      },
      "nodes": [
        3801487267,
        3801487268,
        3801487269,
        3801487270,
        3801487267
      ],
      "tags": {
        "building": "shop",
        "name": "サンライフ",
        "shop": "supermarket"
      }
    },
    {
      "type": "way",
      "id": 376762286,
      "center": {
        "lat": 34.0611095,
        "lon": 131.797956
      },
      "nodes": [
        3801475189,
        3801443706,
        3801493365,
        3801493482,
        3801475190,
        3801475191,
        3801475189
      ],
      "tags": {
        "building": "shop",
        "name": "ストアー両国屋",
        "shop": "supermarket"
      }
    },
    {
      "type": "way",
      "id": 378114876,
      "center": {
        "lat": 34.0001733,
        "lon": 131.2202716
      },
      "nodes": [
        3815309001,
        3815309000,
        3815309005,
        3815309006,
        3815309003,
        3815309002,
        3815308999,
        3815308998,
        8070385058,
        8070385059,
        3815308989,
        3815308988,
        3815308993,
        3815308992,
        3815308991,
        3815308990,
        3815308979,
        3815308978,
        3815308969,
        3815308968,
        3815308970,
        3815308976,
        3815308975,
        3815308977,
        3815308995,
        3815308994,
        3815309001
      ],
      "tags": {
        "branch": "西宇部店",
        "building": "shop",
        "name": "ウエスタまるき 西宇部店",
        "name:en": "Maruki",
        "shop": "supermarket",
        "source": "GSImaps/std"
      }
    },
    {
      "type": "way",
      "id": 378114877,
      "center": {
        "lat": 34.0032838,
        "lon": 131.2198527
      },
      "nodes": [
        3815309631,
        3815309570,
        3815309522,
        3815309568,
        3815309567,
        3815309576,
        3815309582,
        3815309596,
        3815309592,
        3815309595,
        3815309588,
        3815309579,
        3815309575,
        3815309600,
        3815309604,
        5344701141,
        5344701142,
        3815309622,
        5344701140,
        5344701139,
        3815309624,
        3815309633,
        3815309636,
        3815309640,
        3815309642,
        3815309639,
        3815309641,
        3815309626,
        3815309627,
        3815309621,
        3815309631
      ],
      "tags": {
        "building": "yes",
        "name": "フジ 西宇部店",
        "shop": "supermarket",
        "source": "GSImaps/std"
      }
    },
    {
      "type": "way",
      "id": 378115000,
      "center": {
        "lat": 34.0019638,
        "lon": 131.2185733
      },
      "nodes": [
        3815309169,
        5344701144,
        3815309178,
        3815309065,
        3815309062,
        3815309105,
        3815309106,
        3815309169
      ],
      "tags": {
        "branch": "西宇部店",
        "building": "retail",
        "name": "アルク 西宇部店",
        "shop": "supermarket",
        "source": "GSImaps/std"
      }
    },
    {
      "type": "way",
      "id": 382600072,
      "center": {
        "lat": 34.0619256,
        "lon": 131.8048965
      },
      "nodes": [
        3858131604,
        3858136259,
        3858133983,
        3858131605,
        3858131604
      ],
      "tags": {
        "building": "shop",
        "name": "たから",
        "shop": "supermarket"
      }
    },
    {
      "type": "way",
      "id": 388818262,
      "center": {
        "lat": 34.0658999,
        "lon": 130.9052855
      },
      "nodes": [
        3919959781,
        3919959782,
        3919959783,
        3919959784,
        3919959785,
        3919959786,
        3919959787,
        3919959788,
        3919959789,
        3919959790,
        3919959791,
        3919959792,
        3919959781
      ],
      "tags": {
        "brand": "業務スーパー",
        "brand:en": "Gyomu Super",
        "brand:ja": "業務スーパー",
        "brand:ja-Latn": "Gyōmu sūpā",
        "brand:wikidata": "Q11590183",
        "building": "retail",
        "building:levels": "1",
        "contact:website": "http://www.fujimoto-shouten.co.jp/sunny.html",
        "name": "業務スーパー",
        "name:en": "Gyomu Super",
        "name:ja": "業務スーパー",
        "name:ja-Latn": "Gyōmu sūpā",
        "shop": "supermarket",
        "source": "local knowledge",
        "source:geometry": "GSImaps/ort"
      }
    },
    {
      "type": "way",
      "id": 388983632,
      "center": {
        "lat": 34.0257481,
        "lon": 130.9148601
      },
      "nodes": [
        3921531708,
        3921531709,
        3921531710,
        3921531711,
        3921531712,
        3921531708
      ],
      "tags": {
        "building": "retail",
        "shop": "supermarket",
        "source": "local knowledge"
      }
    },
    {
      "type": "way",
      "id": 391860485,
      "center": {
        "lat": 33.9414796,
        "lon": 132.0704356
      },
      "nodes": [
        3951224361,
        3951224465,
        3951224362,
        3951224363,
        3951251457,
        3951224364,
        7012992625,
        7012992626,
        3951224365,
        3951224366,
        3951224361
      ],
      "tags": {
        "building": "retail",
        "name": "マックスバリュ",
        "shop": "supermarket"
      }
    },
    {
      "type": "way",
      "id": 391863066,
      "center": {
        "lat": 34.0866292,
        "lon": 131.396881
      },
      "nodes": [
        5304333582,
        3951263258,
        3951251463,
        3951251765,
        3951251766,
        3951262862,
        3951251767,
        3951251464,
        5304333582
      ],
      "tags": {
        "building": "shop",
        "name": "マックスバリュ 小郡南店",
        "shop": "supermarket",
        "source": "GSImaps/std;survey"
      }
    },
    {
      "type": "way",
      "id": 401696840,
      "center": {
        "lat": 34.0558365,
        "lon": 131.5727965
      },
      "nodes": [
        4041090290,
        4041096189,
        4041090192,
        4041096289,
        4041096190,
        4041090291,
        4041090290
      ],
      "tags": {
        "building": "shop",
        "name": "アルク",
        "shop": "supermarket"
      }
    },
    {
      "type": "way",
      "id": 405831487,
      "center": {
        "lat": 34.1553396,
        "lon": 131.5011831
      },
      "nodes": [
        4079824908,
        4079824909,
        4079824910,
        4079824911,
        4079824912,
        4079824913,
        4079824914,
        4079824915,
        4079824908
      ],
      "tags": {
        "building": "retail",
        "name": "アルク 大内店",
        "service": "retail",
        "shop": "supermarket"
      }
    },
    {
      "type": "way",
      "id": 405833069,
      "center": {
        "lat": 34.1535742,
        "lon": 131.5074264
      },
      "nodes": [
        4079840785,
        4079840786,
        4079840787,
        4079840788,
        4079843789,
        4079843790,
        4079840785
      ],
      "tags": {
        "amenity": "pharmacy",
        "building": "retail",
        "name": "コスモス",
        "shop": "supermarket"
      }
    },
    {
      "type": "way",
      "id": 405965521,
      "center": {
        "lat": 34.1601878,
        "lon": 131.4914323
      },
      "nodes": [
        4080978025,
        4080978026,
        4080978027,
        4080978028,
        4080978029,
        4080978030,
        5310156160,
        4080978031,
        4080978032,
        4080978033,
        4080978034,
        4080978035,
        4080978036,
        4080978037,
        4080978025
      ],
      "tags": {
        "building": "retail",
        "name": "ゆめタウン山口",
        "opening_hours": "Mo-Su 09:00-21:00",
        "service": "retail",
        "shop": "supermarket",
        "website": "https://www.izumi.jp/tenpo/yamaguchi",
        "wikidata": "Q11280924",
        "wikipedia": "ja:ゆめタウン山口"
      }
    },
    {
      "type": "way",
      "id": 409782418,
      "center": {
        "lat": 34.1603237,
        "lon": 131.4508101
      },
      "nodes": [
        4116432446,
        4116432447,
        4116432448,
        4116432449,
        4116432450,
        4116432451,
        4116432446
      ],
      "tags": {
        "building": "retail",
        "name": "アルク葵店",
        "shop": "supermarket"
      }
    },
    {
      "type": "way",
      "id": 413517841,
      "center": {
        "lat": 33.9792021,
        "lon": 130.9356199
      },
      "nodes": [
        4148303337,
        4148303338,
        4148303339,
        4148303340,
        9047615283,
        9047615284,
        4148303341,
        4148303337
      ],
      "tags": {
        "addr:city": "下関市",
        "addr:street": "県道248号下関港垢田線",
        "building": "retail",
        "name": "ゆめマート",
        "shop": "supermarket",
        "source": "survey"
      }
    },
    {
      "type": "way",
      "id": 417748834,
      "center": {
        "lat": 34.0088313,
        "lon": 131.3612805
      },
      "nodes": [
        4182397989,
        7513099625,
        7513099620,
        7513099621,
        7513099622,
        7513099623,
        7513099624,
        4182398089,
        4182392993,
        7513099627,
        7513099626,
        4182392994,
        4182397989
      ],
      "tags": {
        "building": "shop",
        "name": "ふじみや",
        "shop": "supermarket"
      }
    },
    {
      "type": "way",
      "id": 417786366,
      "center": {
        "lat": 34.0955472,
        "lon": 131.3971183
      },
      "nodes": [
        4182709990,
        4182710396,
        4182711090,
        4182709992,
        4182709993,
        4182709990
      ],
      "tags": {
        "building": "shop",
        "name": "コープやまぐちここと 小郡店",
        "shop": "supermarket"
      }
    },
    {
      "type": "way",
      "id": 425343737,
      "center": {
        "lat": 33.9562864,
        "lon": 132.0474995
      },
      "nodes": [
        4246831057,
        4246831058,
        4246831059,
        4394459009,
        4246831060,
        4246831061,
        4246831062,
        4246831063,
        4394459000,
        4394458999,
        4246831064,
        4246831057
      ],
      "tags": {
        "building": "yes",
        "name": "ピクロス田布施店",
        "shop": "supermarket"
      }
    },
    {
      "type": "way",
      "id": 437412965,
      "center": {
        "lat": 34.0069645,
        "lon": 130.9469477
      },
      "nodes": [
        4352251340,
        4352251341,
        4352251342,
        4352251343,
        4352251344,
        4352251347,
        4352251348,
        4352251349,
        4352251340
      ],
      "tags": {
        "alt_name:en": "Co-op",
        "brand": "コープ",
        "brand:en": "CO・OP",
        "brand:ja": "コープ",
        "brand:wikidata": "Q11508615",
        "building": "retail",
        "name": "コープ",
        "name:en": "CO・OP",
        "name:ja": "コープ",
        "official_name": "日本生活協同組合連合会",
        "official_name:en": "Japanese Consumers' Co-operative Union",
        "shop": "supermarket",
        "source": "local knowledge",
        "source:geometry": "GSImaps/ort"
      }
    },
    {
      "type": "way",
      "id": 450570615,
      "center": {
        "lat": 33.9561189,
        "lon": 131.1851974
      },
      "nodes": [
        4474878804,
        4474878794,
        4474878799,
        4474878798,
        4474878578,
        4474878581,
        4474878572,
        4474878573,
        4474878559,
        4474878561,
        4474878563,
        4474878564,
        4474878568,
        4474878570,
        4474878577,
        4474878576,
        4474878583,
        4474878582,
        4474878804
      ],
      "tags": {
        "building": "yes",
        "name": "まるき",
        "shop": "supermarket"
      }
    },
    {
      "type": "way",
      "id": 465831131,
      "center": {
        "lat": 34.1557956,
        "lon": 131.4926176
      },
      "nodes": [
        4607439435,
        4607439436,
        4607439437,
        4607439438,
        4607439439,
        4607439440,
        4607439441,
        4607439435
      ],
      "tags": {
        "building": "retail",
        "name": "ウエスタまるき山口大内店",
        "shop": "supermarket"
      }
    },
    {
      "type": "way",
      "id": 465851858,
      "center": {
        "lat": 34.1558808,
        "lon": 131.4938705
      },
      "nodes": [
        4607612222,
        4607612223,
        4607612224,
        4607612225,
        4607612226,
        4607612227,
        4607612228,
        4607612229,
        4607612222
      ],
      "tags": {
        "building": "retail",
        "name": "新鮮市場大内店",
        "shop": "supermarket"
      }
    },
    {
      "type": "way",
      "id": 465864279,
      "center": {
        "lat": 34.1011548,
        "lon": 131.3943484
      },
      "nodes": [
        4607718190,
        4607718191,
        4607718192,
        4607718193,
        4607718190
      ],
      "tags": {
        "building": "retail",
        "name": "ザ・ビッグ小郡店",
        "shop": "supermarket"
      }
    },
    {
      "type": "way",
      "id": 465967739,
      "center": {
        "lat": 34.1641761,
        "lon": 131.4469571
      },
      "nodes": [
        4608636017,
        4608636018,
        4608636019,
        4608636020,
        4608636021,
        4608636022,
        4608636017
      ],
      "tags": {
        "building": "retail",
        "name": "Aプライス山口店",
        "shop": "supermarket"
      }
    },
    {
      "type": "way",
      "id": 465975433,
      "center": {
        "lat": 34.1584701,
        "lon": 131.4493265
      },
      "nodes": [
        4608709848,
        4608709849,
        4608709850,
        4608709851,
        4608709848
      ],
      "tags": {
        "building": "retail",
        "name": "ウエスタまるき山口湯田店",
        "shop": "supermarket"
      }
    },
    {
      "type": "way",
      "id": 466029137,
      "center": {
        "lat": 34.1437721,
        "lon": 131.4562194
      },
      "nodes": [
        4609256568,
        4609256569,
        4609256570,
        4609256571,
        4609256572,
        4609256573,
        4609256568
      ],
      "tags": {
        "brand": "マックスバリュ",
        "brand:en": "Maxvalu Tokai",
        "brand:ja": "マックスバリュ",
        "brand:wikidata": "Q1960109",
        "brand:wikipedia": "en:MaxValu",
        "building": "retail",
        "name": "マックスバリュ",
        "name:en": "Maxvalu Tokai",
        "name:ja": "マックスバリュ",
        "shop": "supermarket"
      }
    },
    {
      "type": "way",
      "id": 468741677,
      "center": {
        "lat": 33.9831842,
        "lon": 130.9479611
      },
      "nodes": [
        4632152673,
        4632152668,
        4632152789,
        4632152678,
        4632152671,
        4632152667,
        9043473768,
        9043473767,
        4632152688,
        4632152684,
        4632152673
      ],
      "tags": {
        "building": "retail",
        "name": "ゆめマート",
        "shop": "supermarket"
      }
    },
    {
      "type": "way",
      "id": 474106650,
      "center": {
        "lat": 34.0967458,
        "lon": 131.3909245
      },
      "nodes": [
        4681246786,
        4681246787,
        4681246788,
        4681250589,
        4681250590,
        4681250591,
        4681250592,
        4681246786
      ],
      "tags": {
        "building": "retail",
        "name": "アルク小郡店",
        "shop": "supermarket"
      }
    },
    {
      "type": "way",
      "id": 475283671,
      "center": {
        "lat": 34.0489003,
        "lon": 131.5395
      },
      "nodes": [
        4690493323,
        4690493324,
        4690493325,
        4690493326,
        4690493323
      ],
      "tags": {
        "building": "retail",
        "name": "マックスバリュ防府西店",
        "shop": "supermarket"
      }
    },
    {
      "type": "way",
      "id": 477971690,
      "center": {
        "lat": 33.9745418,
        "lon": 131.2086334
      },
      "nodes": [
        4712585409,
        4712585410,
        4712585411,
        4712585412,
        4712585413,
        4712585414,
        4712585409
      ],
      "tags": {
        "building": "yes",
        "name": "まるき",
        "shop": "supermarket",
        "source": "survey"
      }
    },
    {
      "type": "way",
      "id": 477971915,
      "center": {
        "lat": 33.9820263,
        "lon": 131.2070973
      },
      "nodes": [
        4712588287,
        7085653311,
        7085653310,
        4712588288,
        4712588789,
        4712588790,
        4712588791,
        4712588792,
        4712588287
      ],
      "tags": {
        "branch": "宇部店",
        "building": "shop",
        "name": "ダイレックス宇部店",
        "shop": "supermarket",
        "source": "GSImaps/std;survey"
      }
    },
    {
      "type": "way",
      "id": 483624725,
      "center": {
        "lat": 33.9986619,
        "lon": 130.9250141
      },
      "nodes": [
        4763682612,
        4763682613,
        4763682614,
        4763682615,
        4763682616,
        4763682617,
        4763682618,
        4763682619,
        4763682620,
        4763687321,
        4763687322,
        4763682612
      ],
      "tags": {
        "branch": "綾羅木店",
        "building": "yes",
        "name": "ハローデイ",
        "shop": "supermarket"
      }
    },
    {
      "type": "way",
      "id": 483625943,
      "center": {
        "lat": 33.988422,
        "lon": 130.9292625
      },
      "nodes": [
        4763698938,
        13012899624,
        4763698939,
        13012899623,
        4763698940,
        4763698941,
        4763698942,
        4763698943,
        4763698944,
        4763698945,
        4763698946,
        4763698949,
        13012899625,
        4763698950,
        4763698938
      ],
      "tags": {
        "branch": "山の田店",
        "building": "yes",
        "name": "レッドキャベツ",
        "shop": "supermarket"
      }
    },
    {
      "type": "way",
      "id": 483838362,
      "center": {
        "lat": 33.9640682,
        "lon": 130.9388733
      },
      "nodes": [
        4765840660,
        4765840661,
        4765840662,
        4765840663,
        4765840660
      ],
      "tags": {
        "building": "yes",
        "name": "レッドキャベツ 上田中店",
        "shop": "supermarket"
      }
    },
    {
      "type": "way",
      "id": 505005619,
      "center": {
        "lat": 33.9875556,
        "lon": 130.9186833
      },
      "nodes": [
        4950588232,
        4950588233,
        4950588234,
        4950588235,
        4950588236,
        4950588237,
        4950588232
      ],
      "tags": {
        "building": "yes",
        "name": "マルショク 新垢田店",
        "shop": "supermarket"
      }
    },
    {
      "type": "way",
      "id": 522788381,
      "center": {
        "lat": 34.1723997,
        "lon": 131.4678708
      },
      "nodes": [
        5091003751,
        5091003752,
        5091003753,
        5091003754,
        5091003755,
        5091003756,
        5091003751
      ],
      "tags": {
        "building": "retail",
        "name": "アルク山口店",
        "note": "営業時間は9:00-24:00の表記がありますが、20時にはシャッターが閉まっているようです。2025-08-01",
        "opening_hours": "Mo-Su 09:00-24:00",
        "shop": "supermarket"
      }
    },
    {
      "type": "way",
      "id": 547913494,
      "center": {
        "lat": 34.1702566,
        "lon": 132.2125466
      },
      "nodes": [
        5293705527,
        5293705528,
        5293705529,
        5293705530,
        5293705527
      ],
      "tags": {
        "building": "yes",
        "name": "(株）フレスタ室の木店",
        "name:en": "Fresta Food Market",
        "shop": "supermarket"
      }
    },
    {
      "type": "way",
      "id": 548874079,
      "center": {
        "lat": 33.9471451,
        "lon": 131.2619251
      },
      "nodes": [
        5302260477,
        5302260476,
        5302260475,
        5302260474,
        5302260473,
        5302260472,
        5302260471,
        5302260470,
        5302260469,
        5302260468,
        5302260467,
        5302260466,
        5302260465,
        5302260464,
        5302260477
      ],
      "tags": {
        "branch": "宇部店",
        "building": "shop",
        "name": "コープやまぐちここと",
        "shop": "supermarket",
        "source": "GSImaps/std"
      }
    },
    {
      "type": "way",
      "id": 555901368,
      "center": {
        "lat": 34.0056428,
        "lon": 131.3624955
      },
      "nodes": [
        5362839284,
        5362839285,
        5362839286,
        7513099721,
        7513099720,
        7513099722,
        7513099723,
        7513099724,
        7513099725,
        5362839287,
        5362839284
      ],
      "tags": {
        "building": "yes",
        "name": "山口県漁業協同組合 阿知須支店",
        "shop": "supermarket"
      }
    },
    {
      "type": "way",
      "id": 561529898,
      "center": {
        "lat": 34.4078971,
        "lon": 131.4034246
      },
      "nodes": [
        5414351938,
        5414351937,
        5414351936,
        5414351935,
        5414351934,
        5414351933,
        5414351932,
        5414351931,
        5414351930,
        5414351929,
        5414351928,
        5414351938
      ],
      "tags": {
        "building": "retail",
        "name": "アトラス萩",
        "shop": "supermarket"
      }
    },
    {
      "type": "way",
      "id": 561533122,
      "center": {
        "lat": 34.4083317,
        "lon": 131.3923899
      },
      "nodes": [
        5414378415,
        5414378414,
        5414378419,
        5414378418,
        5414378417,
        5414378416,
        5414378415
      ],
      "tags": {
        "branch": "平安古店",
        "building": "retail",
        "name": "キヌヤ",
        "shop": "supermarket",
        "source": "GSImaps/std;survey"
      }
    },
    {
      "type": "way",
      "id": 561705079,
      "center": {
        "lat": 34.1744989,
        "lon": 131.4749792
      },
      "nodes": [
        5415903054,
        5415903053,
        5415903052,
        5415903051,
        5415903050,
        5415903049,
        5415903048,
        5415903047,
        5415903046,
        5415903045,
        5415903044,
        5415903043,
        5415903042,
        5415903041,
        5415903040,
        5415903054
      ],
      "tags": {
        "branch": "どうもん店",
        "building": "shop",
        "name": "コープやまぐちここと",
        "shop": "supermarket",
        "source": "GSImaps/std"
      }
    },
    {
      "type": "way",
      "id": 562664549,
      "center": {
        "lat": 33.9612348,
        "lon": 131.2627143
      },
      "nodes": [
        5424031072,
        5424031071,
        5424031070,
        5424031069,
        5424031072
      ],
      "tags": {
        "branch": "宇部店",
        "building": "shop",
        "name": "A-プライス",
        "shop": "supermarket",
        "source": "GSImaps/std;survey"
      }
    },
    {
      "type": "way",
      "id": 562664551,
      "center": {
        "lat": 33.9599937,
        "lon": 131.2677114
      },
      "nodes": [
        5424031110,
        5424031109,
        5424031108,
        5424031107,
        5424031106,
        5424031105,
        5424031104,
        5424031103,
        5424031102,
        5424031101,
        5424031100,
        5424031099,
        5424031098,
        5424031097,
        5424031096,
        5424031095,
        5424031094,
        5424031093,
        5424031092,
        5424031091,
        5424031090,
        5424031089,
        5424031088,
        5424031087,
        5424031086,
        5424031085,
        5424031084,
        5424031083,
        5424031082,
        5424031081,
        5424031080,
        5424031079,
        5424031110
      ],
      "tags": {
        "addr:city": "宇部",
        "addr:housenumber": "5-20",
        "addr:postcode": "7550085",
        "addr:street": "山口県宇部市沼3丁目5-20",
        "branch": "上宇部店",
        "building": "shop",
        "name": "百菜屋",
        "opening_hours": "9:00-22:00",
        "shop": "supermarket"
      }
    },
    {
      "type": "way",
      "id": 567353498,
      "center": {
        "lat": 33.9653494,
        "lon": 131.2323298
      },
      "nodes": [
        5461525302,
        5461525301,
        5461525300,
        5461525299,
        5461525298,
        5461525297,
        5461525296,
        5461525295,
        5461525302
      ],
      "tags": {
        "branch": "南浜店",
        "building": "shop",
        "name": "アルク",
        "shop": "supermarket",
        "source": "GSImaps/std;survey"
      }
    },
    {
      "type": "way",
      "id": 618928000,
      "center": {
        "lat": 34.0540769,
        "lon": 131.1727682
      },
      "nodes": [
        5849533712,
        6269482890,
        5849533713,
        6269482885,
        5849533714,
        5849533715,
        6269482583,
        6269482584,
        6269482887,
        6269482886,
        6269482888,
        6269482889,
        5849533716,
        5849533717,
        6269482892,
        6269482891,
        5849533718,
        5849533719,
        5849533720,
        5849533721,
        5849533722,
        5849533723,
        5849533724,
        5849533725,
        5849533712
      ],
      "tags": {
        "branch": "厚狭店",
        "building": "yes",
        "name": "マルキュウ",
        "name:en": "Marukyu",
        "note:ja": "丸久から店舗名が変更になったようです",
        "opening_hours": "Mo-Su 08:00-22:00",
        "shop": "supermarket",
        "survey:date": "2024-10-05"
      }
    },
    {
      "type": "way",
      "id": 620384764,
      "center": {
        "lat": 34.0578095,
        "lon": 131.1530551
      },
      "nodes": [
        5861415227,
        5861415228,
        6437423328,
        6437423329,
        6437423330,
        6437423331,
        5861415229,
        5861415230,
        5861415231,
        6437423332,
        6437423333,
        5861415232,
        5861415233,
        5861415227
      ],
      "tags": {
        "building": "yes",
        "name": "ウェスタまるき",
        "shop": "supermarket"
      }
    },
    {
      "type": "way",
      "id": 621681066,
      "center": {
        "lat": 34.0440978,
        "lon": 131.2189533
      },
      "nodes": [
        5872921200,
        5872921201,
        7244903948,
        7244903947,
        7244903946,
        7244903945,
        5872921202,
        7244903944,
        7244903943,
        5872921205,
        5872921204,
        5872921203,
        5872921200
      ],
      "tags": {
        "building": "yes",
        "name": "ウェスタまるき楠店",
        "shop": "supermarket"
      }
    },
    {
      "type": "way",
      "id": 661710566,
      "center": {
        "lat": 34.168934,
        "lon": 132.2293249
      },
      "nodes": [
        6194948436,
        6194948435,
        6194948434,
        6194948431,
        6194948432,
        6194948433,
        6194948436
      ],
      "tags": {
        "building": "yes",
        "name": "AEON BIG",
        "shop": "supermarket"
      }
    },
    {
      "type": "way",
      "id": 667196040,
      "center": {
        "lat": 34.3745547,
        "lon": 131.061597
      },
      "nodes": [
        6246853498,
        6246853499,
        6246853500,
        6246853501,
        6246853502,
        6246853503,
        6246853504,
        6246853505,
        6246853506,
        6246853507,
        6246853508,
        6246853509,
        6246853498
      ],
      "tags": {
        "building": "yes",
        "shop": "supermarket"
      }
    },
    {
      "type": "way",
      "id": 704720045,
      "center": {
        "lat": 34.0240316,
        "lon": 131.4637869
      },
      "nodes": [
        6618072380,
        6618072379,
        6618072378,
        6618072377,
        6618072380
      ],
      "tags": {
        "building": "yes",
        "name": "スーパーよしもと",
        "shop": "supermarket",
        "source": "GSImaps/ort"
      }
    },
    {
      "type": "way",
      "id": 713427964,
      "center": {
        "lat": 34.0178375,
        "lon": 130.9182925
      },
      "nodes": [
        6707884085,
        6707884086,
        6707884087,
        6707884088,
        6707884085
      ],
      "tags": {
        "building": "yes",
        "contact:website": "http://www.mrk09.co.jp/area_info/%e3%82%a2%e3%83%ab%e3%82%af%e5%ae%89%e5%b2%a1%e5%ba%97/",
        "name": "アルク",
        "shop": "supermarket"
      }
    },
    {
      "type": "way",
      "id": 740120977,
      "center": {
        "lat": 33.9860157,
        "lon": 131.1780633
      },
      "nodes": [
        6929656083,
        6929656082,
        6929656081,
        6929656080,
        6929656079,
        6929656078,
        6929656083
      ],
      "tags": {
        "branch": "中川店",
        "building": "shop",
        "name": "ウェスタまるき",
        "shop": "supermarket"
      }
    },
    {
      "type": "way",
      "id": 741436753,
      "center": {
        "lat": 34.0137178,
        "lon": 131.1826022
      },
      "nodes": [
        6941247241,
        6941247240,
        6941247239,
        6941247238,
        6941247237,
        6941247236,
        6941247235,
        6941247234,
        6941247241
      ],
      "tags": {
        "building": "shop",
        "name": "マックスバリュ",
        "shop": "supermarket",
        "source": "GSImaps/std"
      }
    },
    {
      "type": "way",
      "id": 862156871,
      "center": {
        "lat": 33.9832995,
        "lon": 131.2177896
      },
      "nodes": [
        8033007319,
        8033007320,
        8033007321,
        8033007322,
        8033007323,
        8033007324,
        8033007319
      ],
      "tags": {
        "addr:block_number": "中野開作428-1",
        "addr:city": "宇部市",
        "addr:postcode": "7590203",
        "addr:province": "山口県",
        "building": "yes",
        "name": "アルク厚南店",
        "opening_hours": "09:00-22:00",
        "operator": "株式会社丸久",
        "payment:cash": "yes",
        "payment:credit_cards": "yes",
        "shop": "supermarket"
      }
    },
    {
      "type": "way",
      "id": 1069977638,
      "center": {
        "lat": 34.1579977,
        "lon": 132.1766462
      },
      "nodes": [
        9820362964,
        9820362965,
        9820362966,
        9820362967,
        9820362968,
        9820362969,
        9820362970,
        9820362971,
        9820362972,
        9820362973,
        9820362974,
        9820362975,
        9820362964
      ],
      "tags": {
        "building": "yes",
        "name": "山口銀行 丸久川西店",
        "shop": "supermarket"
      }
    },
    {
      "type": "way",
      "id": 1121040361,
      "center": {
        "lat": 33.9947572,
        "lon": 131.2187124
      },
      "nodes": [
        10253619814,
        10253619815,
        10253619816,
        10253619817,
        10253619814
      ],
      "tags": {
        "branch": "スーパーセンタートライアル際波店",
        "brand": "トライアル",
        "brand:en": "Trial",
        "brand:ja": "トライアル",
        "brand:wikidata": "Q11321723",
        "building": "yes",
        "name": "トライアル",
        "name:en": "Trial",
        "name:ja": "トライアル",
        "shop": "supermarket"
      }
    },
    {
      "type": "way",
      "id": 1126822282,
      "center": {
        "lat": 34.0126524,
        "lon": 130.9511632
      },
      "nodes": [
        10303695237,
        10303695238,
        10303695239,
        10303695240,
        10303695241,
        10303695242,
        10303695243,
        10303695244,
        10303695245,
        10303695246,
        10303695247,
        10303695237
      ],
      "tags": {
        "branch": "下関店",
        "building": "yes",
        "building:levels": "1",
        "contact:website": "https://cms.mechao.tv/fadie01/store?id=035efb7df541581a3acec5f75f6e6ce5",
        "name": "ファディ",
        "roof:shape": "flat",
        "shop": "supermarket",
        "stroller": "yes",
        "wheelchair": "yes"
      }
    },
    {
      "type": "way",
      "id": 1235811009,
      "center": {
        "lat": 34.1417696,
        "lon": 130.9189504
      },
      "nodes": [
        11472825244,
        11472825245,
        11472825246,
        11472825247,
        11472825248,
        11472825249,
        11472825250,
        11472825251,
        11472825252,
        11472825253,
        11472825254,
        11472825255,
        11472825244
      ],
      "tags": {
        "branch": "豊浦店",
        "building": "yes",
        "building:levels": "1",
        "name": "まるき",
        "shop": "supermarket"
      }
    },
    {
      "type": "relation",
      "id": 6326931,
      "center": {
        "lat": 33.9505574,
        "lon": 132.0442589
      },
      "members": [
        {
          "type": "way",
          "ref": 425751685,
          "role": "outer"
        }
      ],
      "tags": {
        "building": "yes",
        "name": "マックスバリュ田布施店",
        "shop": "supermarket",
        "type": "multipolygon"
      }
    }
  ]
}