{
  "version": 0.6,
  "generator": "Overpass API 0.7.62.8 e802775f",
  "osm3s": {
    "timestamp_osm_base": "2025-10-15T12:13:00Z",
    "timestamp_areas_base": "2025-10-15T04:02:15Z",
    "copyright": "The data included in this document is from www.openstreetmap.org. The data is made available under ODbL."
  },
  "elements": [
    {
      "type": "node",
      "id": 1782606758,
      "lat": 35.6555852,
      "lon": 138.5452113,
      "tags": {
        "branch": "貢川店",
        "brand": "OGINO",
        "name": "オギノ (OGINO)",
        "name:en": "OGINO",
        "name:ja": "オギノ",
        "name:ja_rm": "Ogino",
        "operator": "オギノ",
        "shop": "supermarket",
        "website": "https://www.ogino.co.jp/"
      }
    },
    {
      "type": "node",
      "id": 1782645597,
      "lat": 35.6256726,
      "lon": 138.5508359,
      "tags": {
        "branch": "国母店",
        "brand": "OGINO",
        "name": "オギノ (OGINO)",
        "name:en": "OGINO",
        "name:ja": "オギノ",
        "name:ja_rm": "Ogino",
        "opening_hours": "Mo-Su 10:00-21:00",
        "operator": "オギノ",
        "shop": "supermarket",
        "source": "bing 2007, (URL)",
        "website": "https://www.ogino.co.jp/"
      }
    },
    {
      "type": "node",
      "id": 1782669296,
      "lat": 35.6728686,
      "lon": 138.5675456,
      "tags": {
        "branch": "朝日店",
        "brand": "OGINO",
        "name": "オギノ (OGINO)",
        "name:en": "OGINO",
        "name:ja": "オギノ",
        "name:ja_rm": "Ogino",
        "operator": "オギノ",
        "shop": "supermarket",
        "source": "Bing 2007",
        "website": "https://www.ogino.co.jp/"
      }
    },
    {
      "type": "node",
      "id": 1782672561,
      "lat": 35.6582948,
      "lon": 138.5839528,
      "tags": {
        "branch": "城東店",
        "brand": "OGINO",
        "name": "オギノ (OGINO)",
        "name:en": "OGINO",
        "name:ja": "オギノ",
        "name:ja_rm": "Ogino",
        "operator": "オギノ",
        "shop": "supermarket",
        "source": "Bing 2007",
        "website": "https://www.ogino.co.jp/"
      }
    },
    {
      "type": "node",
      "id": 1783124646,
      "lat": 35.6331076,
      "lon": 138.5412386,
      "tags": {
        "branch": "甲府昭和店",
        "brand": "トライアル",
        "brand:en": "Trial",
        "brand:ja": "トライアル",
        "brand:wikidata": "Q11321723",
        "name": "トライアル",
        "name:en": "Trial",
        "name:ja": "トライアル",
        "name:ja_rm": "Traial",
        "operator": "トライアル",
        "shop": "supermarket",
        "source": "Bing 2007",
        "website": "http://www.trial-net.co.jp/"
      }
    },
    {
      "type": "node",
      "id": 1783356135,
      "lat": 35.6087337,
      "lon": 138.5431404,
      "tags": {
        "branch": "山梨中央店",
        "brand": "マックスバリュ",
        "brand:en": "Maxvalu Tokai",
        "brand:ja": "マックスバリュ",
        "brand:wikidata": "Q1960109",
        "name": "マックスバリュ",
        "name:en": "Maxvalu Tokai",
        "name:ja": "マックスバリュ",
        "name:ja_rm": "Makkusubaryu",
        "opening_hours": "Mo-Su 07:00-22:00",
        "operator": "イオン",
        "shop": "supermarket",
        "source": "Bing 2007, (URL)",
        "website": "http://www.mv-tokai.com/shop/shopdetail_97.html"
      }
    },
    {
      "type": "node",
      "id": 1783497482,
      "lat": 35.6701111,
      "lon": 138.5598606,
      "tags": {
        "branch": "塩部店",
        "brand": "イッツモア",
        "name": "イッツモア (ITSMORE)",
        "name:en": "ITSMORE",
        "name:ja": "イッツモア",
        "operator": "イチヤマ",
        "shop": "supermarket",
        "source": "Bing 2007",
        "website": "https://ichiyamamart.com/"
      }
    },
    {
      "type": "node",
      "id": 1783706546,
      "lat": 35.6651637,
      "lon": 138.542608,
      "tags": {
        "branch": "甲府長松寺店",
        "brand": "MaxValu",
        "name": "ザ・ビッグ",
        "name:en": "BIG",
        "name:ja": "ザ・ビッグ",
        "operator": "イオン",
        "shop": "supermarket",
        "source": "Bing 2007",
        "website": "http://www.mv-tokai.com/"
      }
    },
    {
      "type": "node",
      "id": 1783727317,
      "lat": 35.6414295,
      "lon": 138.5861752,
      "tags": {
        "branch": "甲府住吉店",
        "brand": "ザ・ビッグ",
        "brand:en": "THE BIG",
        "brand:ja": "ザ・ビッグ",
        "brand:wikidata": "Q11306676",
        "name": "ザ・ビッグ",
        "name:en": "THE BIG",
        "name:ja": "ザ・ビッグ",
        "operator": "イオン",
        "shop": "supermarket",
        "source": "Bing 2007",
        "website": "http://www.mv-tokai.com/"
      }
    },
    {
      "type": "node",
      "id": 1786084279,
      "lat": 35.6691954,
      "lon": 138.5465442,
      "tags": {
        "name": "いちやまマート",
        "shop": "supermarket"
      }
    },
    {
      "type": "node",
      "id": 1787438851,
      "lat": 35.6802604,
      "lon": 138.5262282,
      "tags": {
        "name": "おかじま",
        "shop": "supermarket"
      }
    },
    {
      "type": "node",
      "id": 1788790743,
      "lat": 35.6257805,
      "lon": 138.6037481,
      "tags": {
        "branch": "石和井戸店",
        "brand": "ザ・ビッグ",
        "brand:en": "THE BIG",
        "brand:ja": "ザ・ビッグ",
        "brand:wikidata": "Q11306676",
        "name": "ザ・ビッグ",
        "name:en": "THE BIG",
        "name:ja": "ザ・ビッグ",
        "name:ja_rm": "Ogino",
        "operator": "オギノ",
        "shop": "supermarket",
        "source": "Bing 2007",
        "website": "https://www.ogino.co.jp/"
      }
    },
    {
      "type": "node",
      "id": 1789999706,
      "lat": 35.6112976,
      "lon": 138.5415629,
      "tags": {
        "branch": "玉穂店",
        "brand": "イッツモア",
        "name": "イッツモア (ITSMORE)",
        "name:en": "ITSMORE",
        "name:ja": "イッツモア",
        "operator": "イチヤママート",
        "shop": "supermarket",
        "source": "Bing 2007",
        "website": "https://ichiyamamart.com/"
      }
    },
    {
      "type": "node",
      "id": 1790053507,
      "lat": 35.6938471,
      "lon": 138.6857792,
      "tags": {
        "branch": "山梨店",
        "brand": "イッツモア",
        "name": "イッツモア (ITSMORE)",
        "name:en": "イッツモア",
        "name:ja": "ITSMORE",
        "operator": "イチヤママート",
        "shop": "supermarket",
        "source": "Bing 2007",
        "website": "https://ichiyamamart.com/"
      }
    },
    {
      "type": "node",
      "id": 1790165446,
      "lat": 35.4686943,
      "lon": 138.8063455,
      "tags": {
        "branch": "城山店",
        "brand": "イッツモア",
        "name": "イッツモア (ITSMORE)",
        "name:en": "ITSMORE",
        "name:ja": "イッツモア",
        "operator": "イチヤママート",
        "shop": "supermarket",
        "source": "Bing 2007",
        "website": "https://ichiyamamart.com/"
      }
    },
    {
      "type": "node",
      "id": 1790280865,
      "lat": 35.4776966,
      "lon": 138.8098024,
      "tags": {
        "addr:block_number": "1",
        "addr:city": "富士吉田市",
        "addr:housenumber": "40",
        "addr:neighbourhood": "6",
        "addr:postcode": "403-0032",
        "addr:province": "山梨県",
        "addr:quarter": "上吉田東",
        "branch": "富士吉田店",
        "brand": "ザ・ビッグ",
        "brand:en": "THE BIG",
        "brand:ja": "ザ・ビッグ",
        "brand:wikidata": "Q11306676",
        "name": "ザ・ビッグ",
        "name:en": "THE BIG",
        "name:ja": "ザ・ビッグ",
        "name:ja_rm": "Makkusubaryu",
        "opening_hours": "Mo-Su 07:00-22:00",
        "operator": "イオン",
        "phone": "+81-555-24-1700",
        "shop": "supermarket",
        "source": "Bing 2007"
      }
    },
    {
      "type": "node",
      "id": 1790708841,
      "lat": 35.6702782,
      "lon": 138.6582873,
      "tags": {
        "branch": "春日居店",
        "brand": "OGINO",
        "name": "オギノ (OGINO)",
        "name:en": "OGINO",
        "name:ja": "オギノ",
        "name:ja_rm": "Ogino",
        "opening_hours": "Mo-Su,PH 09:00-21:00",
        "operator": "オギノ",
        "shop": "supermarket",
        "source": "Bing 2007",
        "website": "https://www.ogino.co.jp/"
      }
    },
    {
      "type": "node",
      "id": 1791278440,
      "lat": 35.6179274,
      "lon": 138.4688407,
      "tags": {
        "branch": "櫛形店",
        "brand": "マックスバリュ",
        "brand:en": "MaxValu",
        "brand:ja": "マックスバリュ",
        "brand:wikidata": "Q11340427",
        "name": "マックスバリュ",
        "name:en": "MaxValu",
        "name:ja": "マックスバリュ",
        "name:ja_rm": "Makkusubaryu",
        "operator": "イオン",
        "shop": "supermarket",
        "source": "Bing 2007",
        "website": "http://www.mv-tokai.com/"
      }
    },
    {
      "type": "node",
      "id": 1791278442,
      "lat": 35.6180554,
      "lon": 138.466904,
      "tags": {
        "branch": "南アルプス店",
        "brand": "トライアル",
        "brand:en": "Trial",
        "brand:ja": "トライアル",
        "brand:wikidata": "Q11321723",
        "name": "トライアル",
        "name:en": "Trial",
        "name:ja": "トライアル",
        "operator": "TRIAL",
        "shop": "supermarket",
        "source": "Bing 2007",
        "website": "http://www.trial-net.co.jp/"
      }
    },
    {
      "type": "node",
      "id": 1791843661,
      "lat": 35.6465217,
      "lon": 138.6738277,
      "tags": {
        "name": "いちやま",
        "shop": "supermarket"
      }
    },
    {
      "type": "node",
      "id": 1792506832,
      "lat": 35.6415514,
      "lon": 138.6265122,
      "tags": {
        "branch": "笛吹店",
        "brand": "オギノ",
        "name": "オギノ笛吹店　食品館 (OGINO)",
        "name:en": "OGINO",
        "name:ja": "オギノ",
        "name:ja_rm": "Ogino",
        "operator": "オギノ",
        "shop": "supermarket",
        "source": "Bing 2007",
        "website": "https://www.ogino.co.jp/"
      }
    },
    {
      "type": "node",
      "id": 1792616023,
      "lat": 35.6390542,
      "lon": 138.590778,
      "tags": {
        "branch": "増坪店",
        "brand": "イッツモア",
        "name": "イッツモア (ITSMORE)",
        "name:en": "ITSMORE",
        "name:ja": "イッツモア",
        "name:ja_rm": "Itsmore",
        "operator": "イチヤママート",
        "shop": "supermarket",
        "source": "Bing 2007",
        "website": "https://ichiyamamart.com/"
      }
    },
    {
      "type": "node",
      "id": 1792963299,
      "lat": 35.6844338,
      "lon": 138.4847682,
      "tags": {
        "branch": "双葉店",
        "brand": "アピタ",
        "brand:en": "APITA",
        "brand:ja": "アピタ",
        "brand:wikidata": "Q55384637",
        "name": "アピタ",
        "name:en": "APITA",
        "name:ja": "アピタ",
        "name:ja_rm": "Apita",
        "operator": "ユニー",
        "shop": "supermarket",
        "source": "Bing 2007",
        "website": "https://www.uny.co.jp/shop/181/"
      }
    },
    {
      "type": "node",
      "id": 1793715079,
      "lat": 35.67874,
      "lon": 138.6613468,
      "tags": {
        "name": "ベイシア",
        "opening_hours": "Mo-Su,PH 09:00-20:00",
        "shop": "supermarket"
      }
    },
    {
      "type": "node",
      "id": 1793794684,
      "lat": 35.7085574,
      "lon": 138.456002,
      "tags": {
        "branch": "富士見店",
        "brand": "スーパーやまと",
        "name": "閉鎖",
        "shop": "supermarket"
      }
    },
    {
      "type": "node",
      "id": 1794917149,
      "lat": 35.7002121,
      "lon": 138.7235735,
      "tags": {
        "branch": "塩山店",
        "brand": "いちやまマート",
        "name": "いちやまマート",
        "name:en": "Ichiyamamart",
        "name:ja": "いちやまマート",
        "name:ja_rm": "Ichiyamamart",
        "opening_hours": "Mo-Su 09:30-21:45",
        "operator": "いちやまマート",
        "shop": "supermarket",
        "source": "Bing 2007, (URL)",
        "website": "https://ichiyamamart.com/"
      }
    },
    {
      "type": "node",
      "id": 1794919596,
      "lat": 35.6962499,
      "lon": 138.7213607,
      "tags": {
        "name": "オギノ",
        "name:en": "OGINO",
        "name:ja": "オギノ",
        "name:ja_kana": "オギノ",
        "shop": "supermarket"
      }
    },
    {
      "type": "node",
      "id": 1795165713,
      "lat": 35.7024692,
      "lon": 138.7248803,
      "tags": {
        "name": "オギノ",
        "name:en": "OGINO",
        "name:ja": "オギノ",
        "name:ja_kana": "オギノ",
        "shop": "supermarket"
      }
    },
    {
      "type": "node",
      "id": 1798442758,
      "lat": 35.4902369,
      "lon": 138.783602,
      "tags": {
        "name": "イッツモア",
        "name:en": "ITSMORE",
        "name:ja": "イッツモア",
        "shop": "supermarket"
      }
    },
    {
      "type": "node",
      "id": 1798541230,
      "lat": 35.7199576,
      "lon": 138.4524918,
      "tags": {
        "name": "オギノ",
        "name:en": "OGINO",
        "name:ja": "オギノ",
        "name:ja_rm": "Ogino",
        "shop": "supermarket"
      }
    },
    {
      "type": "node",
      "id": 1804998410,
      "lat": 35.639187,
      "lon": 138.4724372,
      "tags": {
        "brand": "ザ・ビッグ",
        "brand:en": "THE BIG",
        "brand:ja": "ザ・ビッグ",
        "brand:wikidata": "Q11306676",
        "name": "ザ・ビッグ",
        "name:en": "THE BIG",
        "name:ja": "ザ・ビッグ",
        "operator": "イオンリテール",
        "shop": "supermarket"
      }
    },
    {
      "type": "node",
      "id": 1805178921,
      "lat": 35.6566353,
      "lon": 138.6343681,
      "tags": {
        "branch": "石和店",
        "brand": "イオン",
        "brand:en": "AEON",
        "brand:ja": "イオン",
        "brand:wikidata": "Q11285951",
        "name": "イオン",
        "name:en": "AEON",
        "name:ja": "イオン",
        "name:ja_rm": "Ion",
        "opening_hours": "Mo-Su 09:00-22:00",
        "operator": "イオン",
        "shop": "supermarket",
        "source": "Bing 2007",
        "website": "https://www.aeon.jp/"
      }
    },
    {
      "type": "node",
      "id": 1805182639,
      "lat": 35.6458116,
      "lon": 138.6321392,
      "tags": {
        "branch": "石和店",
        "brand": "アピタ",
        "name": "MEGAドン・キホーテUNY石和店",
        "operator": "ユニー",
        "shop": "supermarket"
      }
    },
    {
      "type": "node",
      "id": 1808381367,
      "lat": 35.4908695,
      "lon": 138.461918,
      "tags": {
        "branch": "六郷店",
        "brand": "スーパーやまと",
        "name": "旧スーパーやまと",
        "name:en": "Super Yamato",
        "name:ja": "スーパーやまと",
        "name:ja_rm": "Superyamato",
        "opening_hours": "Mo-Su 09:00-20:00",
        "operator": "やまと",
        "shop": "supermarket",
        "source": "Bing 2007, (URL)",
        "website": "http://www.j-gate.net/~yamato/rokugo.html"
      }
    },
    {
      "type": "node",
      "id": 1808887837,
      "lat": 35.7171965,
      "lon": 138.4532485,
      "tags": {
        "branch": "フジミモール店",
        "brand": "ザ・ビッグ",
        "brand:en": "THE BIG",
        "brand:ja": "ザ・ビッグ",
        "brand:wikidata": "Q11306676",
        "name": "ザ・ビッグ",
        "name:en": "THE BIG",
        "name:ja": "ザ・ビッグ",
        "name:ja_rm": "SuperYamato",
        "opening_hours": "Mo-Su 09:00-20:00",
        "operator": "やまと",
        "shop": "supermarket",
        "source": "Bing 2007, (URL)",
        "website": "http://www.j-gate.net/~yamato/fujimi_m.html"
      }
    },
    {
      "type": "node",
      "id": 1809494974,
      "lat": 35.6039857,
      "lon": 138.4675735,
      "tags": {
        "branch": "峡西店",
        "brand": "OGINO",
        "name": "オギノ (OGINO)",
        "name:en": "OGINO",
        "name:ja": "オギノ",
        "name:ja_rm": "Ogino",
        "opening_hours": "Mo-Su 09:00-21:00",
        "operator": "オギノ",
        "shop": "supermarket",
        "source": "Bing 2007, (URL)",
        "website": "https://www.ogino.co.jp/"
      }
    },
    {
      "type": "node",
      "id": 1812297394,
      "lat": 35.5947322,
      "lon": 138.5188842,
      "tags": {
        "name": "オギノ (OGINO)",
        "name:en": "OGINO",
        "name:ja": "オギノ",
        "shop": "supermarket"
      }
    },
    {
      "type": "node",
      "id": 1812916920,
      "lat": 35.6506133,
      "lon": 138.5460161,
      "tags": {
        "name": "いちやまマート",
        "shop": "supermarket"
      }
    },
    {
      "type": "node",
      "id": 1812974877,
      "lat": 35.6212529,
      "lon": 138.5618724,
      "tags": {
        "name": "スーパーやまと",
        "shop": "supermarket"
      }
    },
    {
      "type": "node",
      "id": 1813049045,
      "lat": 35.6860664,
      "lon": 138.6840758,
      "tags": {
        "name": "りゅうきょう",
        "shop": "supermarket"
      }
    },
    {
      "type": "node",
      "id": 2290004614,
      "lat": 35.481373,
      "lon": 138.709266,
      "tags": {
        "name": "やおや 鳴沢店",
        "shop": "supermarket"
      }
    },
    {
      "type": "node",
      "id": 2440989658,
      "lat": 35.556837,
      "lon": 138.9081088,
      "tags": {
        "name": "スーパーウスイ",
        "shop": "supermarket"
      }
    },
    {
      "type": "node",
      "id": 2440993980,
      "lat": 35.538752,
      "lon": 138.880737,
      "tags": {
        "name": "セルバ",
        "shop": "supermarket"
      }
    },
    {
      "type": "node",
      "id": 2471673735,
      "lat": 35.433952,
      "lon": 138.8474661,
      "tags": {
        "name": "オギノ山中湖店",
        "name:en": "OGINO Yamanakako",
        "opening_hours": "10:00-21:00",
        "phone": "0555-73-8711",
        "shop": "supermarket"
      }
    },
    {
      "type": "node",
      "id": 2501259285,
      "lat": 35.4886801,
      "lon": 138.8049757,
      "tags": {
        "name": "Selva",
        "shop": "supermarket"
      }
    },
    {
      "type": "node",
      "id": 2510001392,
      "lat": 35.491104,
      "lon": 138.743111,
      "tags": {
        "branch": "富士河口湖店",
        "brand": "マックスバリュ",
        "brand:en": "MaxValu",
        "brand:ja": "マックスバリュ",
        "brand:wikidata": "Q11340427",
        "name": "マックスバリュ",
        "name:en": "MaxValu",
        "name:ja": "マックスバリュ",
        "phone": "+81 555 72 3770",
        "shop": "supermarket"
      }
    },
    {
      "type": "node",
      "id": 2579041422,
      "lat": 35.471132,
      "lon": 138.805524,
      "tags": {
        "name": "Beisia",
        "shop": "supermarket",
        "source": "survey"
      }
    },
    {
      "type": "node",
      "id": 3102684448,
      "lat": 35.7209437,
      "lon": 138.7147751,
      "tags": {
        "name": "グディーズナカヤ",
        "name:en": "Goodies Nakaya",
        "shop": "supermarket"
      }
    },
    {
      "type": "node",
      "id": 3176569135,
      "lat": 35.5020082,
      "lon": 138.7676081,
      "tags": {
        "name:en": "Takadaya",
        "name:zh": "青田屋",
        "shop": "supermarket"
      }
    },
    {
      "type": "node",
      "id": 3730357646,
      "lat": 35.6263914,
      "lon": 139.1161124,
      "tags": {
        "name": "サラダ館上野原店",
        "shop": "supermarket"
      }
    },
    {
      "type": "node",
      "id": 3867433219,
      "lat": 35.6838974,
      "lon": 138.7190811,
      "tags": {
        "branch": "甲州店",
        "name": "フーズマーケットおかじま",
        "shop": "supermarket"
      }
    },
    {
      "type": "node",
      "id": 3895174974,
      "lat": 35.6517158,
      "lon": 138.614346,
      "tags": {
        "addr:block_number": "2",
        "addr:city": "甲府市",
        "addr:neighbourhood": "539",
        "addr:postcode": "400-0812",
        "addr:province": "山梨県",
        "addr:quarter": "和戸町",
        "branch": "甲府和戸店",
        "brand": "ザ・ビッグ",
        "brand:en": "THE BIG",
        "brand:ja": "ザ・ビッグ",
        "brand:wikidata": "Q11306676",
        "name": "ザ・ビッグ",
        "name:en": "THE BIG",
        "name:ja": "ザ・ビッグ",
        "opening_hours": "Mo-Su 07:00-21:45",
        "operator": "AEON",
        "phone": "+81-55-227-1312",
        "shop": "supermarket"
      }
    },
    {
      "type": "node",
      "id": 3898435393,
      "lat": 35.6710367,
      "lon": 138.7261597,
      "tags": {
        "name": "グディーズ・ナカヤ",
        "name:en": "Goodies Nagaya",
        "shop": "supermarket"
      }
    },
    {
      "type": "node",
      "id": 4112031190,
      "lat": 35.6683753,
      "lon": 138.5215459,
      "tags": {
        "name": "オギノ 竜王駅前店",
        "shop": "supermarket"
      }
    },
    {
      "type": "node",
      "id": 4206130787,
      "lat": 35.7116607,
      "lon": 138.4517296,
      "tags": {
        "name": "オギノ",
        "name:en": "OGINO",
        "name:ja": "オギノ",
        "name:ja_rm": "ogino",
        "shop": "supermarket"
      }
    },
    {
      "type": "node",
      "id": 4206133288,
      "lat": 35.7166598,
      "lon": 138.4519325,
      "tags": {
        "name": "業務スーパー",
        "shop": "supermarket"
      }
    },
    {
      "type": "node",
      "id": 4249934089,
      "lat": 35.613729,
      "lon": 138.946025,
      "tags": {
        "name": "イオン",
        "shop": "supermarket"
      }
    },
    {
      "type": "node",
      "id": 4403730192,
      "lat": 35.8110574,
      "lon": 138.3310764,
      "tags": {
        "name": "エブリ",
        "shop": "supermarket"
      }
    },
    {
      "type": "node",
      "id": 4565295300,
      "lat": 35.4819633,
      "lon": 138.7972074,
      "tags": {
        "addr:block_number": "11番11号",
        "addr:city": "富士吉田市",
        "addr:neighbourhood": "1丁目",
        "addr:postcode": "403-0005",
        "addr:province": "山梨県",
        "addr:quarter": "上吉田",
        "addr:street": "富士みち",
        "name": "一富士商店",
        "name:en": "Ichifuji store",
        "name:ja": "一富士商店",
        "payment:cash": "yes",
        "phone": "0555-22-1230",
        "shop": "supermarket"
      }
    },
    {
      "type": "node",
      "id": 4718263189,
      "lat": 35.4960426,
      "lon": 138.7640506,
      "tags": {
        "name:en": "Welcia",
        "shop": "supermarket"
      }
    },
    {
      "type": "node",
      "id": 4775929322,
      "lat": 35.5316103,
      "lon": 138.7721597,
      "tags": {
        "shop": "supermarket"
      }
    },
    {
      "type": "node",
      "id": 4780952921,
      "lat": 35.501558,
      "lon": 138.7591242,
      "tags": {
        "amenity": "pharmacy",
        "dispensing": "yes",
        "healthcare": "pharmacy",
        "name": "サンロード",
        "opening_hours": "Mo-Su 09:00-24:00",
        "shop": "supermarket"
      }
    },
    {
      "type": "node",
      "id": 5085316773,
      "lat": 35.4902389,
      "lon": 138.764266,
      "tags": {
        "name": "セルバ",
        "shop": "supermarket"
      }
    },
    {
      "type": "node",
      "id": 5093650407,
      "lat": 35.4326988,
      "lon": 138.4409686,
      "tags": {
        "name": "セルバ",
        "shop": "supermarket"
      }
    },
    {
      "type": "node",
      "id": 5093678367,
      "lat": 35.4864241,
      "lon": 138.4498221,
      "tags": {
        "name": "オギノキャロット",
        "shop": "supermarket"
      }
    },
    {
      "type": "node",
      "id": 5093694785,
      "lat": 35.2805051,
      "lon": 138.4529387,
      "tags": {
        "name": "オギノキャロット",
        "shop": "supermarket"
      }
    },
    {
      "type": "node",
      "id": 5140588238,
      "lat": 35.6467161,
      "lon": 138.5480067,
      "tags": {
        "branch": "甲府昭和店",
        "brand": "バロー",
        "brand:en": "Valor",
        "brand:ja": "バロー",
        "brand:wikidata": "Q11328346",
        "brand:wikipedia": "ja:バロー (チェーンストア)",
        "name": "バロー",
        "name:en": "Valor",
        "name:ja": "バロー",
        "shop": "supermarket"
      }
    },
    {
      "type": "node",
      "id": 5172712483,
      "lat": 35.6449567,
      "lon": 138.5559656,
      "tags": {
        "name": "オギノ",
        "shop": "supermarket"
      }
    },
    {
      "type": "node",
      "id": 5175768355,
      "lat": 35.6438967,
      "lon": 138.5163799,
      "tags": {
        "name": "オギノ",
        "shop": "supermarket"
      }
    },
    {
      "type": "node",
      "id": 5177561776,
      "lat": 35.6351294,
      "lon": 138.5627953,
      "tags": {
        "name": "甲府生鮮市場",
        "shop": "supermarket"
      }
    },
    {
      "type": "node",
      "id": 5185954469,
      "lat": 35.6439195,
      "lon": 138.5526294,
      "tags": {
        "name": "スパーTAC",
        "shop": "supermarket"
      }
    },
    {
      "type": "node",
      "id": 5187441421,
      "lat": 35.6246391,
      "lon": 138.5728495,
      "tags": {
        "name": "オギノ",
        "shop": "supermarket"
      }
    },
    {
      "type": "node",
      "id": 5208353586,
      "lat": 35.6760699,
      "lon": 138.5230269,
      "tags": {
        "name": "ザ･ビッグ",
        "shop": "supermarket"
      }
    },
    {
      "type": "node",
      "id": 5224302115,
      "lat": 35.6630978,
      "lon": 138.4922477,
      "tags": {
        "name": "オギノ",
        "shop": "supermarket"
      }
    },
    {
      "type": "node",
      "id": 5224605745,
      "lat": 35.6423557,
      "lon": 138.4655114,
      "tags": {
        "name": "Aコープ",
        "shop": "supermarket"
      }
    },
    {
      "type": "node",
      "id": 5248489602,
      "lat": 35.5577428,
      "lon": 138.4690335,
      "tags": {
        "name": "オギノ",
        "shop": "supermarket"
      }
    },
    {
      "type": "node",
      "id": 5255533784,
      "lat": 35.6481066,
      "lon": 138.5986896,
      "tags": {
        "brand": "バロー",
        "brand:en": "Valor",
        "brand:ja": "バロー",
        "brand:wikidata": "Q11328346",
        "name": "バロー",
        "name:en": "Valor",
        "name:ja": "バロー",
        "shop": "supermarket"
      }
    },
    {
      "type": "node",
      "id": 5275127260,
      "lat": 35.6368616,
      "lon": 138.5445824,
      "tags": {
        "brand": "業務スーパー",
        "brand:en": "Gyomu Super",
        "brand:ja": "業務スーパー",
        "brand:ja-Latn": "Gyōmu sūpā",
        "brand:wikidata": "Q11590183",
        "brand:wikipedia": "ja:神戸物産",
        "name": "業務スーパー",
        "name:en": "Gyomu Super",
        "name:ja": "業務スーパー",
        "name:ja-Latn": "Gyōmu sūpā",
        "shop": "supermarket"
      }
    },
    {
      "type": "node",
      "id": 5301780363,
      "lat": 35.6302512,
      "lon": 138.6570999,
      "tags": {
        "name": "セルバ",
        "shop": "supermarket"
      }
    },
    {
      "type": "node",
      "id": 5769080583,
      "lat": 35.6394032,
      "lon": 138.5275173,
      "tags": {
        "name": "いちやまマート",
        "shop": "supermarket"
      }
    },
    {
      "type": "node",
      "id": 5858844580,
      "lat": 35.5810698,
      "lon": 139.1107702,
      "tags": {
        "name": "大黒屋",
        "shop": "supermarket"
      }
    },
    {
      "type": "node",
      "id": 5858844582,
      "lat": 35.5809819,
      "lon": 139.1060931,
      "tags": {
        "name": "フードショップあまの",
        "shop": "supermarket"
      }
    },
    {
      "type": "node",
      "id": 6461890581,
      "lat": 35.682284,
      "lon": 138.4977669,
      "tags": {
        "name": "わかつき食料品店",
        "shop": "supermarket"
      }
    },
    {
      "type": "node",
      "id": 6464465558,
      "lat": 35.6674819,
      "lon": 138.5171337,
      "tags": {
        "brand": "ヤマザキショップ",
        "name": "ストアーはらだ",
        "shop": "supermarket"
      }
    },
    {
      "type": "node",
      "id": 6466196665,
      "lat": 35.6505727,
      "lon": 138.6338963,
      "tags": {
        "name": "川合商店",
        "shop": "supermarket"
      }
    },
    {
      "type": "node",
      "id": 6755651093,
      "lat": 35.6240004,
      "lon": 138.5270271,
      "tags": {
        "brand": "イオン",
        "brand:en": "AEON",
        "brand:ja": "イオン",
        "brand:wikidata": "Q11285951",
        "brand:wikipedia": "ja:イオン (店舗ブランド)",
        "name": "イオン",
        "name:en": "AEON",
        "name:ja": "イオン",
        "shop": "supermarket"
      }
    },
    {
      "type": "node",
      "id": 6762789485,
      "lat": 35.5439165,
      "lon": 138.8995851,
      "tags": {
        "name": "フーズマーケットおかじま都留店",
        "shop": "supermarket"
      }
    },
    {
      "type": "node",
      "id": 6989667155,
      "lat": 35.6180531,
      "lon": 139.1176024,
      "tags": {
        "branch": "上野原店",
        "brand": "いちやまマート",
        "name": "いちやまマート",
        "opening_hours": "Mo-Su 10:00-21:00",
        "phone": "+81-554-62-6800",
        "shop": "supermarket",
        "wikidata": "Q11259578",
        "wikipedia": "ja:いちやまマート"
      }
    },
    {
      "type": "node",
      "id": 8099219083,
      "lat": 35.9072979,
      "lon": 138.4441143,
      "tags": {
        "name": "トミーズ",
        "name:en": "Tommy's",
        "shop": "supermarket"
      }
    },
    {
      "type": "node",
      "id": 8268750328,
      "lat": 35.8551044,
      "lon": 138.3796784,
      "tags": {
        "name": "スーパー八ヶ岳",
        "shop": "supermarket"
      }
    },
    {
      "type": "node",
      "id": 8268801837,
      "lat": 35.8290036,
      "lon": 138.3695032,
      "tags": {
        "name": "スーパーやまと",
        "shop": "supermarket"
      }
    },
    {
      "type": "node",
      "id": 8268993634,
      "lat": 35.8761047,
      "lon": 138.3565459,
      "tags": {
        "name": "三分一湧水館",
        "shop": "supermarket"
      }
    },
    {
      "type": "node",
      "id": 8908585044,
      "lat": 35.6353748,
      "lon": 138.5561536,
      "tags": {
        "brand": "ドン・キホーテ",
        "brand:en": "Don Quijote",
        "brand:ja": "ドン・キホーテ",
        "brand:wikidata": "Q1185381",
        "brand:wikipedia": "ja:ドン・キホーテ (企業)",
        "name": "MEGAドン・キホーテ 甲府店",
        "name:en": "MEGA Don Quijote",
        "name:ja": "MEGAドン・キホーテ",
        "opening_hours": "Mo-Su 09:00-02:00",
        "shop": "supermarket",
        "short_name": "MEGAドンキ",
        "short_name:en": "MegaDonki",
        "short_name:ja": "MEGAドンキ"
      }
    },
    {
      "type": "node",
      "id": 9481005292,
      "lat": 35.8614311,
      "lon": 138.3813752,
      "tags": {
        "name": "ひまわり市場",
        "shop": "supermarket"
      }
    },
    {
      "type": "node",
      "id": 11733071425,
      "lat": 35.6396915,
      "lon": 138.5438697,
      "tags": {
        "branch": "甲府昭和店",
        "brand": "イトーヨーカドー",
        "brand:en": "Ito-Yokado",
        "brand:ja": "イトーヨーカドー",
        "brand:wikidata": "Q3088746",
        "brand:wikipedia": "en:Ito-Yokado",
        "name": "イトーヨーカドー",
        "name:en": "Ito-Yokado",
        "name:ja": "イトーヨーカドー",
        "name:ja_rm": "Itoh-yohka-do",
        "opening_hours": "Mo-Fr 10:00-22:00; Sa,Su,PH 9:00-22:00",
        "operator": "イトーヨーカ堂",
        "shop": "supermarket",
        "source": "Bing 2007, (URL)",
        "website": "https://www.itoyokado.co.jp/"
      }
    },
    {
      "type": "node",
      "id": 12996535163,
      "lat": 35.6263227,
      "lon": 138.6040559,
      "tags": {
        "brand": "業務スーパー",
        "brand:en": "Gyomu Super",
        "brand:ja": "業務スーパー",
        "brand:ja-Latn": "Gyōmu sūpā",
        "brand:wikidata": "Q105687460",
        "name": "業務スーパー",
        "name:en": "Gyomu Super",
        "name:ja": "業務スーパー",
        "name:ja-Latn": "Gyōmu sūpā",
        "shop": "supermarket"
      }
    },
    {
      "type": "node",
      "id": 13052092453,
      "lat": 35.4752197,
      "lon": 138.7996494,
      "tags": {
        "brand": "業務スーパー",
        "brand:en": "Gyomu Super",
        "brand:ja": "業務スーパー",
        "brand:ja-Latn": "Gyōmu sūpā",
        "brand:wikidata": "Q105687460",
        "name": "業務スーパー",
        "name:en": "Gyomu Super",
        "name:ja": "業務スーパー",
        "name:ja-Latn": "Gyōmu sūpā",
        "shop": "supermarket"
      }
    },
    {
      "type": "way",
      "id": 89049925,
      "center": {
        "lat": 35.5017787,
        "lon": 138.7574836
      },
      "nodes": [
        1033305690,
        1033305823,
        1033305665,
        1033305886,
        1033305775,
        1033305635,
        1033305868,
        1033305723,
        1033305690
      ],
      "tags": {
        "addr": "545ｰ3 Funatsu, Fujikawaguchiko, Minamitsuru District, Yamanashi 401-0301 Japan",
        "branch": "河口湖店",
        "building": "retail",
        "name": "オギノ",
        "name:en": "Ogino",
        "name:ja": "オギノ",
        "name:zh": "Ogino",
        "opening_hours": "Mo-Su 09:00-21:00",
        "phone": "+81 555 72 6100",
        "shop": "supermarket",
        "website": "https://www.ogino.co.jp/spotsearch/826"
      }
    },
    {
      "type": "way",
      "id": 167250909,
      "center": {
        "lat": 35.6852434,
        "lon": 138.5079747
      },
      "nodes": [
        1786749550,
        1786560846,
        1786560847,
        1786560851,
        1786560877,
        1786560850,
        1786560829,
        1786560820,
        1786749550
      ],
      "tags": {
        "branch": "双葉店",
        "brand": "オギノ",
        "building": "supermarket",
        "name": "オギノ (OGINO)",
        "name:en": "OGINO",
        "name:ja": "オギノ",
        "name:ja_rm": "Ogino",
        "operator": "オギノ",
        "shop": "supermarket",
        "source": "bing 2007;Bing 2007",
        "website": "https://www.ogino.co.jp/"
      }
    },
    {
      "type": "way",
      "id": 168159291,
      "center": {
        "lat": 35.5669333,
        "lon": 138.5040029
      },
      "nodes": [
        1794579623,
        1794579670,
        1794579629,
        1794579650,
        1794579623
      ],
      "tags": {
        "building": "retail",
        "name": "SELVA",
        "shop": "supermarket",
        "source": "Bing 2007"
      }
    },
    {
      "type": "way",
      "id": 168201792,
      "center": {
        "lat": 35.6962256,
        "lon": 138.7214203
      },
      "nodes": [
        1794919617,
        1794919614,
        3058163948,
        3058163949,
        1794919600,
        1794919615,
        1794919617
      ],
      "tags": {
        "building": "retail",
        "name": "オギノ",
        "name:en": "Ogino",
        "shop": "supermarket",
        "source": "Bing 2007"
      }
    },
    {
      "type": "way",
      "id": 168418088,
      "center": {
        "lat": 35.4596205,
        "lon": 138.8421264
      },
      "nodes": [
        1796885160,
        1796885183,
        1796885172,
        1796885165,
        1796885163,
        1796885169,
        1796885156,
        1796885184,
        1796885157,
        1796885187,
        1796885160
      ],
      "tags": {
        "building": "retail",
        "name": "セルバ",
        "shop": "supermarket",
        "source": "knowledge"
      }
    },
    {
      "type": "way",
      "id": 197383919,
      "center": {
        "lat": 35.6235461,
        "lon": 139.1102465
      },
      "nodes": [
        2076282284,
        2076282247,
        2076282195,
        2076282167,
        2076282284
      ],
      "tags": {
        "name": "OGINO",
        "shop": "supermarket"
      }
    },
    {
      "type": "way",
      "id": 263493124,
      "center": {
        "lat": 35.5308195,
        "lon": 138.6104105
      },
      "nodes": [
        2691087564,
        2691087554,
        2691087546,
        2691087542,
        2691087515,
        2691087536,
        2691087545,
        2691087547,
        2691087564
      ],
      "tags": {
        "building": "retail",
        "name": "上九ふれあい農産物直売所",
        "shop": "supermarket",
        "source": "Bing,2011-1"
      }
    },
    {
      "type": "way",
      "id": 277462650,
      "center": {
        "lat": 35.5321828,
        "lon": 139.0476709
      },
      "nodes": [
        2819484458,
        2819484459,
        2819484454,
        2819484452,
        2819484458
      ],
      "tags": {
        "building": "retail",
        "name": "北海屋",
        "shop": "supermarket",
        "source": "Bing, 2011-1"
      }
    },
    {
      "type": "way",
      "id": 277934484,
      "center": {
        "lat": 35.5420277,
        "lon": 138.8972663
      },
      "nodes": [
        2823711497,
        2823711417,
        2823711490,
        2823711570,
        2823711579,
        2823711604,
        2823711593,
        2823711602,
        2823711588,
        2823711567,
        2823711497
      ],
      "tags": {
        "addr:block_number": "11",
        "addr:city": "都留市",
        "addr:housenumber": "1",
        "addr:neighbourhood": "2丁目",
        "addr:postcode": "402-0054",
        "addr:province": "山梨県",
        "addr:quarter": "田原",
        "branch": "都留店",
        "brand": "オギノ",
        "brand:wikidata": "Q11291853",
        "brand:wikipedia": "ja:オギノ",
        "building": "yes",
        "building:levels": "1",
        "name": "オギノ",
        "name:en": "Ogino",
        "name:ja": "オギノ",
        "opening_hours": "Mo-Su 09:00-21:00",
        "shop": "supermarket",
        "source": "GSI/KIBAN 2500;NARO;GSImaps/seamlessphoto;survey",
        "source_ref": "http://wiki.osm.org/wiki/GSI_KIBAN",
        "website": "https://www.ogino.co.jp/spotsearch/805?doing_wp_cron=1645624495.5133581161499023437500"
      }
    },
    {
      "type": "way",
      "id": 300999285,
      "center": {
        "lat": 35.7012358,
        "lon": 138.6967826
      },
      "nodes": [
        3051087134,
        3051159233,
        3051087135,
        3051159234,
        3051158909,
        3051087134
      ],
      "tags": {
        "building": "retail",
        "building:levels": "1",
        "name": "ウエルシア山梨七日市場店",
        "name:en": "Welcia",
        "opening_hours": "Mo-Su,PH 09:00-21:45",
        "roof:levels": "0",
        "shop": "supermarket",
        "wheelchair": "yes"
      }
    },
    {
      "type": "way",
      "id": 300999286,
      "center": {
        "lat": 35.7013945,
        "lon": 138.697559
      },
      "nodes": [
        3067594908,
        3067594909,
        3067594910,
        3051087139,
        3051087140,
        3067594911,
        3067594912,
        3067594913,
        3067594914,
        3067594915,
        3067594916,
        3067594917,
        3051087141,
        3111682664,
        3067594908
      ],
      "tags": {
        "addr:city": "山梨市",
        "addr:country": "JP",
        "addr:housenumber": "831-1",
        "addr:postcode": "405-0007",
        "addr:street": "七日市場",
        "building": "retail",
        "building:levels": "1",
        "contact:website": "http://www.freshsaeki.co.jp/yamanashi",
        "name": "フーズマーケットおかじま七日市場店",
        "name:en": "Okajima Foodsmarket",
        "opening_hours": "09:00-21:45",
        "roof:levels": "0",
        "shop": "supermarket",
        "wheelchair": "yes"
      }
    },
    {
      "type": "way",
      "id": 301682955,
      "center": {
        "lat": 35.6767641,
        "lon": 138.6895041
      },
      "nodes": [
        3057772589,
        3057772590,
        3057772591,
        3057772592,
        3057772593,
        3175739669,
        3175739670,
        3057772589
      ],
      "tags": {
        "building": "retail",
        "name": "オギノ",
        "name:en": "Ogino",
        "opening_hours": "Mo-Su,PH 09:00-21:00",
        "shop": "supermarket"
      }
    },
    {
      "type": "way",
      "id": 301682957,
      "center": {
        "lat": 35.6765698,
        "lon": 138.6902423
      },
      "nodes": [
        3057772607,
        3057772608,
        3057772609,
        3057772610,
        3175739671,
        3057772607
      ],
      "tags": {
        "branch": "山梨店",
        "building": "retail",
        "name": "業務スーパーアクロス",
        "shop": "supermarket"
      }
    },
    {
      "type": "way",
      "id": 305969197,
      "center": {
        "lat": 35.648638,
        "lon": 138.6346665
      },
      "nodes": [
        7799699261,
        3106935929,
        7799699262,
        3106935931,
        3106935932,
        7799699261
      ],
      "tags": {
        "building": "yes",
        "name": "クックーY",
        "shop": "supermarket"
      }
    },
    {
      "type": "way",
      "id": 384139144,
      "center": {
        "lat": 35.697804,
        "lon": 138.7026869
      },
      "nodes": [
        3874288426,
        3874288427,
        3874288428,
        3874288429,
        3874288426
      ],
      "tags": {
        "building": "yes",
        "name": "杉原商店",
        "shop": "supermarket"
      }
    },
    {
      "type": "way",
      "id": 386186711,
      "center": {
        "lat": 35.6501353,
        "lon": 138.5875059
      },
      "nodes": [
        3895152489,
        3895152490,
        3895152491,
        7678319282,
        7678319283,
        7678319284,
        7678319281,
        3895152492,
        3895152493,
        3895152494,
        7678319285,
        7678319286,
        3895152489
      ],
      "tags": {
        "brand": "業務スーパー",
        "brand:en": "Gyomu Super",
        "brand:ja": "業務スーパー",
        "brand:ja-Latn": "Gyōmu sūpā",
        "brand:wikidata": "Q11590183",
        "brand:wikipedia": "ja:神戸物産",
        "building": "retail",
        "name": "業務スーパー",
        "name:en": "Gyomu Super",
        "name:ja": "業務スーパー",
        "name:ja-Latn": "Gyōmu sūpā",
        "shop": "supermarket"
      }
    },
    {
      "type": "way",
      "id": 423299218,
      "center": {
        "lat": 35.7943721,
        "lon": 138.423299
      },
      "nodes": [
        4229621684,
        4229621685,
        4229621686,
        4229621687,
        4229621688,
        4229622489,
        4229622490,
        4229622491,
        4229622492,
        4229621684
      ],
      "tags": {
        "branch": "北杜須玉店",
        "brand": "ザ・ビッグ",
        "brand:en": "THE BIG",
        "brand:ja": "ザ・ビッグ",
        "brand:wikidata": "Q11306676",
        "building": "retail",
        "name": "ザ・ビッグ",
        "name:en": "THE BIG",
        "name:ja": "ザ・ビッグ",
        "shop": "supermarket"
      }
    },
    {
      "type": "way",
      "id": 423385546,
      "center": {
        "lat": 35.7249512,
        "lon": 138.4491424
      },
      "nodes": [
        4230010517,
        4230010518,
        4230010519,
        4230010520,
        4230010517
      ],
      "tags": {
        "brand": "トライアル",
        "brand:en": "Trial",
        "brand:ja": "トライアル",
        "brand:wikidata": "Q11321723",
        "building": "yes",
        "name": "トライアル",
        "name:en": "Trial",
        "name:ja": "トライアル",
        "shop": "supermarket"
      }
    },
    {
      "type": "way",
      "id": 532677733,
      "center": {
        "lat": 35.6467302,
        "lon": 138.5231329
      },
      "nodes": [
        5168682613,
        5168682614,
        5168682615,
        5168682616,
        5168682617,
        5168682618,
        5168682619,
        5168682620,
        5168688821,
        5168688822,
        5168688823,
        5168688824,
        5168688825,
        5168688826,
        5168688827,
        5168688828,
        5168688829,
        5168688830,
        5168688831,
        5168688832,
        5168688833,
        5168688834,
        5168682613
      ],
      "tags": {
        "building": "yes",
        "name": "アマノパークス",
        "shop": "supermarket"
      }
    },
    {
      "type": "way",
      "id": 541450185,
      "center": {
        "lat": 35.5946908,
        "lon": 138.5213079
      },
      "nodes": [
        5235745098,
        5235745099,
        5282150195,
        5235745100,
        5235745101,
        5235745102,
        5235745103,
        5235745104,
        5235745105,
        5235745106,
        5235745098
      ],
      "tags": {
        "brand": "トライアル",
        "brand:en": "Trial",
        "brand:ja": "トライアル",
        "brand:wikidata": "Q11321723",
        "brand:wikipedia": "ja:トライアルカンパニー",
        "building": "yes",
        "name": "トライアル",
        "name:en": "Trial",
        "name:ja": "トライアル",
        "shop": "supermarket"
      }
    },
    {
      "type": "way",
      "id": 545015230,
      "center": {
        "lat": 35.5867554,
        "lon": 138.4969673
      },
      "nodes": [
        5267976612,
        5267976613,
        5267976614,
        5267976615,
        5267976612
      ],
      "tags": {
        "building": "yes",
        "name": "ザ・ビッグ甲西店",
        "shop": "supermarket"
      }
    },
    {
      "type": "way",
      "id": 552494822,
      "center": {
        "lat": 35.5913001,
        "lon": 138.474227
      },
      "nodes": [
        5334255842,
        5334255843,
        5334255844,
        5334255845,
        5334255846,
        5334255847,
        5334255848,
        5334255849,
        5334255850,
        5334255851,
        5334255852,
        5334255853,
        5334255842
      ],
      "tags": {
        "building": "yes",
        "name": "おかじま甲西食品館",
        "shop": "supermarket"
      }
    },
    {
      "type": "way",
      "id": 710586420,
      "center": {
        "lat": 35.6172588,
        "lon": 139.0737009
      },
      "nodes": [
        6680829716,
        6680829722,
        6680829654,
        6680829721,
        6680829720,
        6680829653,
        6680829719,
        6680829649,
        6680829644,
        6680829645,
        6680829641,
        6680829640,
        6680829615,
        6680829718,
        6680829717,
        6680829716
      ],
      "tags": {
        "amenity": "parking",
        "building": "yes",
        "name": "公正屋",
        "parking": "rooftop",
        "shop": "supermarket"
      }
    },
    {
      "type": "way",
      "id": 725092184,
      "center": {
        "lat": 35.618062,
        "lon": 139.1176026
      },
      "nodes": [
        6799522679,
        6799524385,
        6799522684,
        6799522683,
        6799522682,
        6799522681,
        6799522679
      ],
      "tags": {
        "building": "retail",
        "shop": "supermarket"
      }
    },
    {
      "type": "way",
      "id": 1031073623,
      "center": {
        "lat": 35.2833615,
        "lon": 138.4628392
      },
      "nodes": [
        9504011852,
        9504011853,
        9504011854,
        9504011855,
        9504011852
      ],
      "tags": {
        "building": "yes",
        "name": "Aコープ富士見屋",
        "shop": "supermarket"
      }
    },
    {
      "type": "way",
      "id": 1421559574,
      "center": {
        "lat": 35.6221074,
        "lon": 139.1151649
      },
      "nodes": [
        13063680643,
        13063680644,
        13063680645,
        13063680646,
        13063680647,
        13063680648,
        13063680643
      ],
      "tags": {
        "addr:block_number": "745",
        "addr:city": "上野原市",
        "addr:housenumber": "1",
        "addr:neighbourhood": "上野原",
        "addr:postcode": "409-0112",
        "addr:province": "山梨県",
        "branch": "上野原店",
        "building": "yes",
        "name": "公正屋",
        "opening_hours": "Mo-Fr 09:30-20:00",
        "operator": "公正屋",
        "phone": "+81-554-63-3180",
        "shop": "supermarket"
      }
    }
  ]
}