{
  "version": 0.6,
  "generator": "Overpass API 0.7.62.8 e802775f",
  "osm3s": {
    "timestamp_osm_base": "2025-10-15T12:28:26Z",
    "timestamp_areas_base": "2025-10-15T04:02:15Z",
    "copyright": "The data included in this document is from www.openstreetmap.org. The data is made available under ODbL."
  },
  "elements": [
    {
      "type": "node",
      "id": 829948414,
      "lat": 34.863034,
      "lon": 132.0259914,
      "tags": {
        "name": "トライアル",
        "shop": "supermarket"
      }
    },
    {
      "type": "node",
      "id": 2054765125,
      "lat": 35.4280667,
      "lon": 132.8105624,
      "tags": {
        "name": "平田ショッピングセンター ViVA",
        "shop": "supermarket"
      }
    },
    {
      "type": "node",
      "id": 2054765131,
      "lat": 35.4299364,
      "lon": 132.8127525,
      "tags": {
        "name": "丸合 平田店",
        "shop": "supermarket"
      }
    },
    {
      "type": "node",
      "id": 2516169785,
      "lat": 35.4343529,
      "lon": 133.240115,
      "tags": {
        "name": "ラムー",
        "shop": "supermarket"
      }
    },
    {
      "type": "node",
      "id": 3043639390,
      "lat": 34.6760312,
      "lon": 131.8440693,
      "tags": {
        "shop": "supermarket"
      }
    },
    {
      "type": "node",
      "id": 3043639405,
      "lat": 34.6833321,
      "lon": 131.8429267,
      "tags": {
        "brand": "イオン",
        "brand:en": "AEON",
        "brand:ja": "イオン",
        "brand:wikidata": "Q11285951",
        "name": "イオン",
        "name:en": "AEON",
        "name:ja": "イオン",
        "shop": "supermarket"
      }
    },
    {
      "type": "node",
      "id": 3628092229,
      "lat": 34.9967719,
      "lon": 132.7150724,
      "tags": {
        "name": "JA赤名マーケット",
        "shop": "supermarket"
      }
    },
    {
      "type": "node",
      "id": 4080997445,
      "lat": 35.3686892,
      "lon": 132.7537448,
      "tags": {
        "name": "ラピタ",
        "shop": "supermarket"
      }
    },
    {
      "type": "node",
      "id": 4311386962,
      "lat": 36.0994926,
      "lon": 133.0182551,
      "tags": {
        "addr:city": "西ノ島町",
        "addr:housenumber": "186-3",
        "addr:postcode": "684-0303",
        "addr:street": "美田",
        "name": "ユアーズこだま島前店",
        "opening_hours": "Mo-Su,PH 10:00-20:00",
        "phone": "+81 8514 6 1700",
        "shop": "supermarket"
      }
    },
    {
      "type": "node",
      "id": 4808860275,
      "lat": 35.4272391,
      "lon": 133.1506391,
      "tags": {
        "addr:city": "松江市",
        "addr:housenumber": "1221-1",
        "addr:neighbourhood": "いや",
        "addr:postcode": "699-0101",
        "addr:province": "島根県",
        "addr:quarter": "東出雲町",
        "name": "ホック",
        "name:en": "HOK",
        "opening_hours": "10:00-22:00",
        "shop": "supermarket"
      }
    },
    {
      "type": "node",
      "id": 5085031999,
      "lat": 35.2954532,
      "lon": 132.9012913,
      "tags": {
        "name": "マルシェリーズ",
        "shop": "supermarket"
      }
    },
    {
      "type": "node",
      "id": 5449430980,
      "lat": 35.0124911,
      "lon": 132.2214048,
      "tags": {
        "name": "あけぼの商店",
        "shop": "supermarket"
      }
    },
    {
      "type": "node",
      "id": 5537515332,
      "lat": 35.1988078,
      "lon": 132.4808361,
      "tags": {
        "name": "イオンタウン大田",
        "shop": "supermarket",
        "wikidata": "Q89762096",
        "wikipedia": "ja:イオンタウン大田"
      }
    },
    {
      "type": "node",
      "id": 5651933276,
      "lat": 35.2959704,
      "lon": 132.8848212,
      "tags": {
        "name": "ローソン三刀屋木次インター店",
        "name:ko": "로손",
        "opening_hours": "24/7",
        "shop": "supermarket"
      }
    },
    {
      "type": "node",
      "id": 5657045888,
      "lat": 36.1013406,
      "lon": 133.0781516,
      "tags": {
        "name": "てらした商店",
        "shop": "supermarket"
      }
    },
    {
      "type": "node",
      "id": 5779250254,
      "lat": 35.5195742,
      "lon": 133.0071398,
      "tags": {
        "name:en": "Lawson",
        "shop": "supermarket"
      }
    },
    {
      "type": "node",
      "id": 6222291012,
      "lat": 35.3732633,
      "lon": 132.7602361,
      "tags": {
        "name": "グッデイ北部店",
        "shop": "supermarket"
      }
    },
    {
      "type": "node",
      "id": 7187264588,
      "lat": 35.4329618,
      "lon": 133.2203764,
      "tags": {
        "addr:housenumber": "島根県安来市赤江町１０３３",
        "addr:postcode": "692-0001",
        "addr:street": "国道9号",
        "name": "コスモス",
        "name:en": "Discount drug cosmos",
        "name:ja": "ディスカウントドラッグコスモス",
        "opening_hours": "Mo-Su 10:00-21:00",
        "phone": "0854-28-9112",
        "shop": "supermarket",
        "website": "https://www.cosmospc.co.jp"
      }
    },
    {
      "type": "node",
      "id": 9816064373,
      "lat": 36.2173013,
      "lon": 133.3060967,
      "tags": {
        "addr:block_number": "431",
        "addr:city": "隠岐の島町",
        "addr:county": "隠岐郡",
        "addr:housenumber": "1",
        "addr:postcode": "6850025",
        "addr:province": "島根県",
        "addr:quarter": "平",
        "name": "ショッピングセンターひまり隠岐店",
        "shop": "supermarket"
      }
    },
    {
      "type": "node",
      "id": 9816064376,
      "lat": 36.2163321,
      "lon": 133.3165527,
      "tags": {
        "addr:block_number": "376",
        "addr:city": "隠岐の島町",
        "addr:county": "隠岐郡",
        "addr:postcode": "6850016",
        "addr:province": "島根県",
        "addr:quarter": "城北町",
        "name": "ショッピングプラザ　サンテラス",
        "opening_hours": "PH,Mo-Su 10:00-20:00",
        "shop": "supermarket"
      }
    },
    {
      "type": "node",
      "id": 9883184647,
      "lat": 35.4718943,
      "lon": 133.05432,
      "tags": {
        "name": "みしまや　中央店",
        "name:en": "Mishimaya",
        "shop": "supermarket"
      }
    },
    {
      "type": "node",
      "id": 10935275472,
      "lat": 34.8935895,
      "lon": 132.4546695,
      "tags": {
        "name": "いわみプラザショッピングセンタ",
        "shop": "supermarket",
        "website": "https://tokubai.co.jp/%E5%85%A8%E6%97%A5%E9%A3%9F%E3%83%81%E3%82%A7%E3%83%BC%E3%83%B3/20089"
      }
    },
    {
      "type": "node",
      "id": 11993337097,
      "lat": 35.167119,
      "lon": 132.8593956,
      "tags": {
        "branch": "よしだ店",
        "brand": "エーコープ",
        "brand:en": "A-COOP",
        "brand:ja": "エーコープ",
        "brand:wikidata": "Q11291524",
        "name": "エーコープ",
        "name:en": "A-COOP",
        "name:ja": "エーコープ",
        "organic": "only",
        "shop": "supermarket"
      }
    },
    {
      "type": "node",
      "id": 12709513320,
      "lat": 35.3718881,
      "lon": 132.7355999,
      "tags": {
        "name:en": "Marui",
        "shop": "supermarket"
      }
    },
    {
      "type": "node",
      "id": 12709518481,
      "lat": 35.3661294,
      "lon": 132.7247619,
      "tags": {
        "name:en": "Lapita",
        "shop": "supermarket"
      }
    },
    {
      "type": "node",
      "id": 12724456260,
      "lat": 35.1913032,
      "lon": 132.5041779,
      "tags": {
        "operator:en": "GoodDay",
        "shop": "supermarket"
      }
    },
    {
      "type": "node",
      "id": 12751918221,
      "lat": 35.4288751,
      "lon": 132.8135374,
      "tags": {
        "name": "セブンイレブン 出雲平田町藪崎店",
        "shop": "supermarket"
      }
    },
    {
      "type": "node",
      "id": 12848335825,
      "lat": 34.9826203,
      "lon": 132.1846293,
      "tags": {
        "name": "キヌヤ",
        "shop": "supermarket"
      }
    },
    {
      "type": "node",
      "id": 13084807403,
      "lat": 35.4749492,
      "lon": 133.0434632,
      "tags": {
        "name": "マルイ 黒田店",
        "opening_hours": "24/7",
        "shop": "supermarket"
      }
    },
    {
      "type": "way",
      "id": 179446940,
      "center": {
        "lat": 35.4638061,
        "lon": 133.069272
      },
      "nodes": [
        1898241793,
        1898241792,
        1898241797,
        9905120502,
        1898241795,
        9905120486,
        1898241798,
        11049596623,
        11049596622,
        9905120487,
        9905120488,
        9905120489,
        9905120490,
        11049596619,
        1898241794,
        9905120491,
        9905120492,
        11049596606,
        9905120493,
        9905120494,
        9905120495,
        9905120496,
        1898241796,
        9905120497,
        9905120498,
        9905120499,
        9905120500,
        9905120501,
        9905120503,
        9905120508,
        9905120507,
        9905120506,
        9905120505,
        9905120504,
        1898241793
      ],
      "tags": {
        "addr:city": "松江市",
        "addr:country": "JP",
        "addr:neighbourhood": "東朝日町151",
        "addr:postcode": "690-0001",
        "addr:province": "島根県",
        "branch": "松江店",
        "branch:en": "Matsue",
        "brand": "イオン",
        "brand:en": "AEON",
        "brand:ja": "イオン",
        "brand:wikidata": "Q11285951",
        "building": "retail",
        "name": "イオン",
        "name:en": "AEON",
        "name:ja": "イオン",
        "shop": "supermarket",
        "wheelchair": "yes"
      }
    },
    {
      "type": "way",
      "id": 179447761,
      "center": {
        "lat": 35.4826701,
        "lon": 133.0640552
      },
      "nodes": [
        1898255970,
        1898255972,
        1898255971,
        1898255967,
        1898255969,
        1898255968,
        9983299852,
        9983299851,
        9983299850,
        9983299849,
        1898255970
      ],
      "tags": {
        "branch": "菅田店",
        "brand": "イオン",
        "brand:en": "AEON",
        "brand:ja": "イオン",
        "brand:wikidata": "Q11285951",
        "building": "yes",
        "name": "イオン",
        "name:en": "AEON",
        "name:ja": "イオン",
        "shop": "supermarket"
      }
    },
    {
      "type": "way",
      "id": 262523049,
      "center": {
        "lat": 35.481291,
        "lon": 133.0694462
      },
      "nodes": [
        2681898798,
        2681898799,
        2681898801,
        2681898803,
        9983242984,
        9983242985,
        2681898798
      ],
      "tags": {
        "building": "retail",
        "name": "みしまや",
        "shop": "supermarket"
      }
    },
    {
      "type": "way",
      "id": 299668048,
      "center": {
        "lat": 34.6794523,
        "lon": 131.8571879
      },
      "nodes": [
        3037033220,
        3037033223,
        3037033224,
        3037033225,
        12654065976,
        12654065975,
        3037033226,
        3037033227,
        3037033228,
        3037033229,
        3037033230,
        3037033231,
        3037033220
      ],
      "tags": {
        "building": "retail",
        "building:levels": "1",
        "name": "キヌヤ東町店",
        "shop": "supermarket"
      }
    },
    {
      "type": "way",
      "id": 318048517,
      "center": {
        "lat": 35.4644701,
        "lon": 133.0731246
      },
      "nodes": [
        3244182001,
        9905144885,
        9905144886,
        3244182002,
        9905144887,
        9905144888,
        9905144889,
        9905144890,
        9905144891,
        9905144892,
        9905144893,
        9905144899,
        9905144894,
        9905144898,
        9905144895,
        9905144896,
        9905144897,
        3244182001
      ],
      "tags": {
        "branch": "松江店",
        "building": "yes",
        "name": "エブリイ",
        "shop": "supermarket",
        "source": "GSI/KIBAN 2500;NARO"
      }
    },
    {
      "type": "way",
      "id": 323149854,
      "center": {
        "lat": 34.3509026,
        "lon": 131.9305182
      },
      "nodes": [
        3299433061,
        3299433062,
        3299433161,
        3299433261,
        3299433061
      ],
      "tags": {
        "branch": "六日市店",
        "building": "retail",
        "name": "サンマート",
        "shop": "supermarket"
      }
    },
    {
      "type": "way",
      "id": 427201024,
      "center": {
        "lat": 35.4855369,
        "lon": 133.042548
      },
      "nodes": [
        4264449903,
        9933801560,
        9933801561,
        4264449904,
        4264449905,
        9933801562,
        9933801563,
        4264449906,
        9933801564,
        9933801565,
        9933801566,
        9933801567,
        9933801568,
        4264449907,
        9933801569,
        9933801570,
        9933801571,
        9933801572,
        9933801573,
        9933801574,
        4264449908,
        9933801575,
        9933801576,
        9933801577,
        4264449909,
        4264449910,
        4264449911,
        4264449912,
        4264449913,
        4264449914,
        4264449903
      ],
      "tags": {
        "branch": "春日店",
        "building": "yes",
        "name": "みしまや",
        "shop": "supermarket"
      }
    },
    {
      "type": "way",
      "id": 431350830,
      "center": {
        "lat": 35.4048412,
        "lon": 132.8998746
      },
      "nodes": [
        4305580595,
        4305580596,
        4305580597,
        4305580598,
        4305580599,
        4305580600,
        4305580601,
        4305580602,
        4305580603,
        4305580604,
        4305580605,
        4305580606,
        4305580607,
        4305580608,
        4305580609,
        4305580610,
        4305580611,
        4305580612,
        4305580613,
        4305580614,
        4305580615,
        4305580616,
        4305580617,
        4305580618,
        4305580619,
        4305580620,
        4305580621,
        4305580622,
        4305580595
      ],
      "tags": {
        "building": "yes",
        "name": "宍道ショッピングスクエア ベル",
        "shop": "supermarket"
      }
    },
    {
      "type": "way",
      "id": 432575195,
      "center": {
        "lat": 34.4584128,
        "lon": 131.7691647
      },
      "nodes": [
        4315714507,
        6448777154,
        6448777153,
        4315767092,
        4315767093,
        4315769190,
        6448777149,
        6448777150,
        6448777151,
        6448777152,
        4315714507
      ],
      "tags": {
        "name": "キヌヤ",
        "payment:coins": "yes",
        "shop": "supermarket"
      }
    },
    {
      "type": "way",
      "id": 432696641,
      "center": {
        "lat": 35.4771158,
        "lon": 133.0035777
      },
      "nodes": [
        4316493878,
        4316493874,
        4316493879,
        9998636347,
        4316493884,
        4316493989,
        4316493993,
        4316494039,
        4316494035,
        4316494042,
        4316494040,
        4316494032,
        4316494030,
        4316494033,
        4316494031,
        4316494048,
        4316494036,
        4316494045,
        4316494038,
        4316493871,
        4316493878
      ],
      "tags": {
        "branch": "ふるえ店",
        "brand": "エーコープ",
        "brand:en": "A-COOP",
        "brand:ja": "エーコープ",
        "brand:wikidata": "Q11291524",
        "building": "yes",
        "name": "エーコープ",
        "name:en": "A-COOP",
        "name:ja": "エーコープ",
        "organic": "only",
        "shop": "supermarket"
      }
    },
    {
      "type": "way",
      "id": 439002247,
      "center": {
        "lat": 35.4393414,
        "lon": 132.8237572
      },
      "nodes": [
        4366310152,
        4366310153,
        10179049151,
        10179049152,
        10179049153,
        10179049154,
        4366310154,
        4366310155,
        4366310156,
        4366310157,
        10179049155,
        10179049156,
        4366310152
      ],
      "tags": {
        "branch": "平田店",
        "building": "yes",
        "name": "ラピタ",
        "shop": "supermarket"
      }
    },
    {
      "type": "way",
      "id": 440456070,
      "center": {
        "lat": 35.3735534,
        "lon": 132.8076057
      },
      "nodes": [
        4381948279,
        4381948280,
        4381948281,
        4381948282,
        4381948283,
        4381948284,
        4381948279
      ],
      "tags": {
        "building": "yes",
        "name": "グッディー斐川店",
        "shop": "supermarket"
      }
    },
    {
      "type": "way",
      "id": 448801651,
      "center": {
        "lat": 35.4584588,
        "lon": 133.0807598
      },
      "nodes": [
        4457777026,
        4457777027,
        11368508845,
        11368508846,
        11368508847,
        11368508848,
        4457777028,
        4457777029,
        11368508844,
        11368508843,
        11368508842,
        11368508841,
        4457777026
      ],
      "tags": {
        "building": "yes",
        "name": "ＪＡグリーンつだ",
        "shop": "supermarket"
      }
    },
    {
      "type": "way",
      "id": 487391323,
      "center": {
        "lat": 35.4561612,
        "lon": 133.084439
      },
      "nodes": [
        4798561892,
        11675820612,
        11675820611,
        4798561893,
        4798561894,
        11675820621,
        4798561895,
        11675820620,
        11675820619,
        4798561896,
        11675820618,
        11675820617,
        11675820616,
        11675820615,
        11675820614,
        11675820613,
        4798561892
      ],
      "tags": {
        "building": "yes",
        "name": "ホック",
        "shop": "supermarket"
      }
    },
    {
      "type": "way",
      "id": 491894277,
      "center": {
        "lat": 35.3255469,
        "lon": 132.9635228
      },
      "nodes": [
        4839811615,
        4839811616,
        4839811617,
        4839811618,
        4839811615
      ],
      "tags": {
        "building": "yes",
        "name": "グリーンシティー",
        "shop": "supermarket"
      }
    },
    {
      "type": "way",
      "id": 491896308,
      "center": {
        "lat": 35.3648384,
        "lon": 132.7380104
      },
      "nodes": [
        4839834442,
        4839834443,
        4839834444,
        4839834445,
        4839834442
      ],
      "tags": {
        "building": "yes",
        "name": "イオン出雲天神店",
        "shop": "supermarket"
      }
    },
    {
      "type": "way",
      "id": 491907331,
      "center": {
        "lat": 35.3896131,
        "lon": 132.8270804
      },
      "nodes": [
        4839924470,
        4839924471,
        4839924472,
        4839924473,
        4839924474,
        4839924475,
        4839924470
      ],
      "tags": {
        "building": "yes",
        "name": "トライアル斐川店",
        "shop": "supermarket"
      }
    },
    {
      "type": "way",
      "id": 491907336,
      "center": {
        "lat": 35.4087908,
        "lon": 132.8461094
      },
      "nodes": [
        4839924494,
        4839924495,
        4839924496,
        4839924497,
        4839924498,
        4839924499,
        4839924494
      ],
      "tags": {
        "building": "yes",
        "name": "生鮮食品おだ 斐川店",
        "shop": "supermarket"
      }
    },
    {
      "type": "way",
      "id": 492114050,
      "center": {
        "lat": 35.3798984,
        "lon": 132.7466548
      },
      "nodes": [
        4841652037,
        4841652038,
        4841652039,
        4841652040,
        4841652041,
        4841652042,
        4841652037
      ],
      "tags": {
        "building": "yes",
        "name": "食の専門市場あんり",
        "shop": "supermarket"
      }
    },
    {
      "type": "way",
      "id": 493683319,
      "center": {
        "lat": 35.3373665,
        "lon": 132.7028218
      },
      "nodes": [
        4855633948,
        4855633949,
        4855633950,
        4855633951,
        4855633952,
        4855633953,
        4855633954,
        4855633955,
        4855633948
      ],
      "tags": {
        "building": "yes",
        "name": "ゆめマート神西",
        "shop": "supermarket"
      }
    },
    {
      "type": "way",
      "id": 497320919,
      "center": {
        "lat": 35.3219463,
        "lon": 132.9670374
      },
      "nodes": [
        4889012356,
        4889012357,
        4889012358,
        4889012359,
        4889012360,
        11930131000,
        5830817659,
        4889012361,
        4889012356
      ],
      "tags": {
        "building": "yes",
        "name": "Aコープだいとう店",
        "shop": "supermarket"
      }
    },
    {
      "type": "way",
      "id": 557318971,
      "center": {
        "lat": 35.429087,
        "lon": 133.0562513
      },
      "nodes": [
        5374978961,
        5374978962,
        5374978963,
        5374978964,
        5374978961
      ],
      "tags": {
        "building": "yes",
        "name": "フードスタジアム山京",
        "shop": "supermarket"
      }
    },
    {
      "type": "way",
      "id": 557638447,
      "center": {
        "lat": 35.438883,
        "lon": 133.0862374
      },
      "nodes": [
        5377823025,
        5377823026,
        5377823027,
        10047041728,
        5377823028,
        5377823030,
        5377823031,
        5377823032,
        5377823033,
        5377823034,
        5377823035,
        5377823025
      ],
      "tags": {
        "branch": "山代店",
        "building": "yes",
        "name": "フーズマーケットホック",
        "shop": "supermarket"
      }
    },
    {
      "type": "way",
      "id": 558115205,
      "center": {
        "lat": 35.4535755,
        "lon": 133.0937924
      },
      "nodes": [
        5381909834,
        5381909835,
        5381909836,
        5381909837,
        5381909834
      ],
      "tags": {
        "building": "yes",
        "name": "ディオ 松江東店",
        "shop": "supermarket"
      }
    },
    {
      "type": "way",
      "id": 562041836,
      "center": {
        "lat": 35.4444769,
        "lon": 133.0859389
      },
      "nodes": [
        5418694643,
        5418694644,
        5418694645,
        5418694646,
        5418694647,
        5418694648,
        5418694649,
        5418694650,
        5418694651,
        5418694653,
        5418694643
      ],
      "tags": {
        "brand": "トライアル",
        "brand:en": "Trial",
        "brand:ja": "トライアル",
        "brand:wikidata": "Q11321723",
        "building": "yes",
        "name": "トライアル",
        "name:en": "Trial",
        "name:ja": "トライアル",
        "shop": "supermarket"
      }
    },
    {
      "type": "way",
      "id": 562747212,
      "center": {
        "lat": 35.4376819,
        "lon": 133.0493926
      },
      "nodes": [
        5424616003,
        11974714994,
        11974714993,
        11974715003,
        11974715004,
        5424616004,
        11974715002,
        11974715001,
        5424616005,
        11974715000,
        11974714999,
        11974714998,
        11974714997,
        5424616006,
        11974715005,
        11974715008,
        11974715007,
        11974715006,
        11974714996,
        11974714995,
        5424616003
      ],
      "tags": {
        "branch": "田和山店",
        "building": "yes",
        "name": "みしまや",
        "shop": "supermarket"
      }
    },
    {
      "type": "way",
      "id": 563355635,
      "center": {
        "lat": 35.4429328,
        "lon": 133.0641379
      },
      "nodes": [
        5429007693,
        5429007694,
        5429007695,
        5429007696,
        5429007697,
        5429007698,
        5429007699,
        5429007700,
        5429007701,
        5429007702,
        5429007703,
        5429007704,
        5429007693
      ],
      "tags": {
        "building": "yes",
        "name": "ホック",
        "shop": "supermarket"
      }
    },
    {
      "type": "way",
      "id": 563619264,
      "center": {
        "lat": 35.4469128,
        "lon": 133.0714876
      },
      "nodes": [
        5431181585,
        9897822011,
        9897822012,
        9897822013,
        9897822014,
        9897822015,
        9897822016,
        5431181586,
        9897891117,
        9897891118,
        9897891119,
        9897891120,
        9897891121,
        9897891122,
        9897891123,
        9897891124,
        5431181587,
        5431181588,
        5431181589,
        5431181590,
        5431181591,
        5431181592,
        9897891126,
        9897891125,
        9897891127,
        9897891128,
        5431181585
      ],
      "tags": {
        "branch": "古志原店",
        "building": "yes",
        "name": "古志原ショッピングセンター",
        "shop": "supermarket"
      }
    },
    {
      "type": "way",
      "id": 565034439,
      "center": {
        "lat": 35.4326789,
        "lon": 133.1420116
      },
      "nodes": [
        5442760802,
        5442760803,
        5442760804,
        5442760805,
        5442760806,
        5442760807,
        5442760808,
        5442760809,
        5442760810,
        5442760811,
        5442760812,
        5442760813,
        5442760802
      ],
      "tags": {
        "building": "yes",
        "name": "アイパルテ",
        "shop": "supermarket"
      }
    },
    {
      "type": "way",
      "id": 565449632,
      "center": {
        "lat": 35.4342752,
        "lon": 133.0848122
      },
      "nodes": [
        5445699870,
        5445699873,
        5445699874,
        5445699879,
        5445699880,
        5445699881,
        5445699882,
        5445699883,
        5445699870
      ],
      "tags": {
        "building": "yes",
        "name": "ひまり",
        "shop": "supermarket"
      }
    },
    {
      "type": "way",
      "id": 567848454,
      "center": {
        "lat": 35.4468719,
        "lon": 133.0611687
      },
      "nodes": [
        5464669506,
        5464669507,
        12050379898,
        12050379897,
        12050379896,
        5464669508,
        5464669509,
        5464669510,
        5464669511,
        5464669512,
        5464669513,
        5464669506
      ],
      "tags": {
        "branch": "上乃木店",
        "building": "yes",
        "name": "みしまや",
        "shop": "supermarket"
      }
    },
    {
      "type": "way",
      "id": 580767692,
      "center": {
        "lat": 35.4410809,
        "lon": 133.0611642
      },
      "nodes": [
        5558652805,
        5558652806,
        5558652807,
        5558652808,
        5558652809,
        5558652805
      ],
      "tags": {
        "branch": "松江南店",
        "building": "yes",
        "building:levels": "1",
        "name": "ディオ",
        "shop": "supermarket"
      }
    },
    {
      "type": "way",
      "id": 586371473,
      "center": {
        "lat": 34.6833784,
        "lon": 131.8428727
      },
      "nodes": [
        5602557040,
        5602557041,
        5602557042,
        5602557043,
        5602557040
      ],
      "tags": {
        "brand": "イオン",
        "brand:en": "AEON",
        "brand:ja": "イオン",
        "brand:wikidata": "Q11285951",
        "building": "yes",
        "name": "イオン",
        "name:en": "AEON",
        "name:ja": "イオン",
        "shop": "supermarket"
      }
    },
    {
      "type": "way",
      "id": 592123088,
      "center": {
        "lat": 35.2959649,
        "lon": 132.8848306
      },
      "nodes": [
        5651943843,
        5651943844,
        5651943845,
        5651943846,
        5651943843
      ],
      "tags": {
        "building": "yes",
        "name": "ローソン三刀屋木次インター店",
        "name:ko": "로손",
        "shop": "supermarket"
      }
    },
    {
      "type": "way",
      "id": 592123089,
      "center": {
        "lat": 35.3023618,
        "lon": 132.8932961
      },
      "nodes": [
        5651943847,
        5651943848,
        5651943849,
        5651943850,
        5651943847
      ],
      "tags": {
        "building": "yes",
        "name": "ローソン三刀屋店",
        "name:ko": "로손",
        "shop": "supermarket"
      }
    },
    {
      "type": "way",
      "id": 592123090,
      "center": {
        "lat": 35.3016895,
        "lon": 132.8936934
      },
      "nodes": [
        5651943851,
        5651943852,
        5651943853,
        5651943854,
        5651943851
      ],
      "tags": {
        "building": "yes",
        "name": "ファミリーマート雲南三刀屋店",
        "shop": "supermarket"
      }
    },
    {
      "type": "way",
      "id": 611200538,
      "center": {
        "lat": 35.1794646,
        "lon": 133.0941304
      },
      "nodes": [
        5787209880,
        5787209881,
        5787236786,
        5787209882,
        5787209883,
        4685376877,
        4685376886,
        5787209880
      ],
      "tags": {
        "building": "yes",
        "name": "Ａコープ横田店",
        "shop": "supermarket"
      }
    },
    {
      "type": "way",
      "id": 617146368,
      "center": {
        "lat": 35.4944872,
        "lon": 133.0765392
      },
      "nodes": [
        5834071602,
        5834071603,
        5834071604,
        5834071602
      ],
      "tags": {
        "building": "yes",
        "shop": "supermarket"
      }
    },
    {
      "type": "way",
      "id": 617146369,
      "center": {
        "lat": 35.4940658,
        "lon": 133.0763791
      },
      "nodes": [
        5834071605,
        5834071606,
        5834071607,
        5834071608,
        5834071609,
        5834071610,
        5834071611,
        5834071612,
        5834071613,
        5834071614,
        5834071615,
        5834071616,
        5834071617,
        5834071618,
        5834071619,
        5834071620,
        5834071621,
        5834071622,
        5834071623,
        5834071624,
        5834071625,
        5834071626,
        5834071627,
        5834071605
      ],
      "tags": {
        "branch": "川津店",
        "building": "yes",
        "name": "まるごう",
        "shop": "supermarket"
      }
    },
    {
      "type": "way",
      "id": 636570980,
      "center": {
        "lat": 35.4809916,
        "lon": 133.0430533
      },
      "nodes": [
        6002788317,
        6002788318,
        9933790699,
        9933790700,
        9933790698,
        9933790697,
        6002788319,
        6002788320,
        6002788321,
        6002788322,
        6002788323,
        9933790695,
        9933790696,
        6002788317
      ],
      "tags": {
        "branch": "黒田店",
        "building": "yes",
        "name": "フーズマーケットホック",
        "shop": "supermarket"
      }
    },
    {
      "type": "way",
      "id": 637496584,
      "center": {
        "lat": 35.4743172,
        "lon": 133.0770936
      },
      "nodes": [
        10076913401,
        6009894060,
        6009894061,
        6009894062,
        6009894063,
        6009894064,
        12077823592,
        10076913408,
        10076913409,
        10076913412,
        10076913411,
        10076913410,
        10076913413,
        10076913414,
        10076913401
      ],
      "tags": {
        "branch": "楽山店",
        "building": "yes",
        "name": "みしまや",
        "shop": "supermarket"
      }
    },
    {
      "type": "way",
      "id": 641449454,
      "center": {
        "lat": 35.4449594,
        "lon": 133.0579379
      },
      "nodes": [
        6040850819,
        6040850820,
        6040850821,
        6040850822,
        6040850823,
        6040850824,
        6040850825,
        6040850826,
        6040850827,
        6040850828,
        6040850829,
        6040850830,
        6040850831,
        6040850832,
        6040850833,
        6040850835,
        6040850836,
        6040850837,
        9966857216,
        6040850838,
        6040850819
      ],
      "tags": {
        "branch": "乃木店",
        "building": "yes",
        "name": "フーズマーケットホック",
        "shop": "supermarket"
      }
    },
    {
      "type": "way",
      "id": 651139036,
      "center": {
        "lat": 34.8981087,
        "lon": 132.0909468
      },
      "nodes": [
        6106571848,
        6132630988,
        6132630989,
        6106571849,
        6132630990,
        6132630991,
        6132630992,
        6132630993,
        6132630994,
        6132630995,
        6132630996,
        6132630998,
        6132630997,
        6132630999,
        6132631000,
        6132631001,
        6132631002,
        6132631003,
        6132631004,
        6132631005,
        6132631006,
        6132631007,
        6132631008,
        6106571850,
        6132631009,
        6132631010,
        6132631011,
        6106571851,
        6132631014,
        6132631013,
        6132631012,
        6132630986,
        6132630985,
        6132630987,
        6106571852,
        6106571848
      ],
      "tags": {
        "building": "yes",
        "name": "ゆめマート浜田",
        "shop": "supermarket"
      }
    },
    {
      "type": "way",
      "id": 654227110,
      "center": {
        "lat": 34.934778,
        "lon": 132.1084916
      },
      "nodes": [
        6130590096,
        6130590097,
        6130590098,
        6130590099,
        6130590100,
        6130590101,
        6130590102,
        6130590096
      ],
      "tags": {
        "building": "yes",
        "name": "キヌヤ",
        "shop": "supermarket"
      }
    },
    {
      "type": "way",
      "id": 654467988,
      "center": {
        "lat": 34.8997848,
        "lon": 132.0932428
      },
      "nodes": [
        6132614093,
        6132614094,
        6132614095,
        6132614096,
        6132614097,
        6132614098,
        6132614099,
        6132614100,
        6132614101,
        6132614102,
        6132614103,
        6132614104,
        6132614093
      ],
      "tags": {
        "building": "yes",
        "name": "プリル",
        "shop": "supermarket"
      }
    },
    {
      "type": "way",
      "id": 655634428,
      "center": {
        "lat": 34.8999641,
        "lon": 132.0716248
      },
      "nodes": [
        6142579816,
        6142579817,
        12661129089,
        6142579818,
        6142579819,
        6142579820,
        6142579821,
        6142579822,
        6142579823,
        6142579824,
        6142579825,
        6142579826,
        6142579827,
        6142579828,
        11433529926,
        6142579829,
        11433529925,
        11433529924,
        6142579831,
        11433529923,
        6142579832,
        11433529922,
        6142579833,
        6142579834,
        6142579835,
        12657648838,
        6142579836,
        6142579837,
        6142579838,
        6142579839,
        6142579840,
        11433529928,
        11433529927,
        6142579816
      ],
      "tags": {
        "brand": "ゆめタウン",
        "brand:en": "YouMe Town",
        "brand:ja": "ゆめタウン",
        "brand:wikidata": "Q11280900",
        "building": "yes",
        "name": "ゆめタウン",
        "name:en": "YouMe Town",
        "name:ja": "ゆめタウン",
        "shop": "supermarket"
      }
    },
    {
      "type": "way",
      "id": 656941900,
      "center": {
        "lat": 34.8665284,
        "lon": 132.0254099
      },
      "nodes": [
        6153314649,
        6153314650,
        6153314651,
        6153314652,
        6153314653,
        6153314654,
        6153314655,
        6153314656,
        6153314649
      ],
      "tags": {
        "building": "yes",
        "name": "キヌヤ",
        "shop": "supermarket"
      }
    },
    {
      "type": "way",
      "id": 656957225,
      "center": {
        "lat": 34.8629854,
        "lon": 132.0259817
      },
      "nodes": [
        6153447264,
        6153447265,
        6153447284,
        6153447266,
        6153447267,
        6153447268,
        6153447269,
        6153447270,
        6153447271,
        6153447272,
        6153447273,
        6153447274,
        6153447275,
        6153447276,
        6153447277,
        6153447278,
        6153447279,
        6153447280,
        6153447281,
        6153447282,
        6153447283,
        6153447264
      ],
      "tags": {
        "building": "yes",
        "shop": "supermarket"
      }
    },
    {
      "type": "way",
      "id": 659439117,
      "center": {
        "lat": 34.9922226,
        "lon": 132.1902508
      },
      "nodes": [
        6174068129,
        6174068130,
        6174068131,
        6174068132,
        6174068133,
        6174068134,
        6174068135,
        6174068136,
        6174068137,
        6174068138,
        6174068139,
        6174068140,
        6174068141,
        6174068142,
        6174068129
      ],
      "tags": {
        "building": "yes",
        "name": "キヌヤ都野津店（閉店）",
        "shop": "supermarket"
      }
    },
    {
      "type": "way",
      "id": 660858523,
      "center": {
        "lat": 35.0097279,
        "lon": 132.2189972
      },
      "nodes": [
        6187223612,
        6187223613,
        6187223614,
        6187223615,
        6187223616,
        6187223617,
        6187223618,
        6187223619,
        6187223620,
        6187223621,
        6187223622,
        6187223623,
        6187223624,
        6187223625,
        6187223626,
        6187223627,
        6187223628,
        6187223629,
        6187223630,
        12657802299,
        6187223631,
        12657802274,
        12657802273,
        12657802272,
        12657802275,
        12657802281,
        12657802283,
        12657802282,
        12657802285,
        12657802284,
        12657802286,
        12657802276,
        12657802277,
        12657802278,
        12657802279,
        12657802280,
        12657802271,
        6187223632,
        6187223633,
        6187223612
      ],
      "tags": {
        "brand": "ゆめタウン",
        "brand:en": "YouMe Town",
        "brand:ja": "ゆめタウン",
        "brand:wikidata": "Q11280900",
        "building": "yes",
        "name": "ゆめタウン",
        "name:en": "YouMe Town",
        "name:ja": "ゆめタウン",
        "shop": "supermarket"
      }
    },
    {
      "type": "way",
      "id": 660879413,
      "center": {
        "lat": 35.0112663,
        "lon": 132.2195766
      },
      "nodes": [
        6187418830,
        6187418831,
        6187418832,
        6187418833,
        6187418834,
        6187418835,
        6187418836,
        6187418837,
        6187418838,
        6187418839,
        6187418840,
        6187418841,
        6187418842,
        6187418843,
        12647165060,
        6187418830
      ],
      "tags": {
        "building": "yes",
        "name": "Aコープごうつ",
        "shop": "supermarket"
      }
    },
    {
      "type": "way",
      "id": 661420445,
      "center": {
        "lat": 34.8924412,
        "lon": 132.4381375
      },
      "nodes": [
        6192235269,
        12828297241,
        6192235270,
        6192235271,
        12828297243,
        12828297244,
        12828297245,
        12828297242,
        6192235272,
        6192235273,
        6192235274,
        12828297240,
        6192235269
      ],
      "tags": {
        "building": "yes",
        "name": "アベル",
        "shop": "supermarket"
      }
    },
    {
      "type": "way",
      "id": 666216906,
      "center": {
        "lat": 35.4947924,
        "lon": 132.8736611
      },
      "nodes": [
        6237311801,
        6237311802,
        6237311803,
        6237311804,
        6237311805,
        6237311806,
        6237311807,
        6237311808,
        6237311801
      ],
      "tags": {
        "building": "yes",
        "name": "中山商店",
        "shop": "supermarket"
      }
    },
    {
      "type": "way",
      "id": 677370330,
      "center": {
        "lat": 35.4272167,
        "lon": 133.1505216
      },
      "nodes": [
        6342571095,
        6342571096,
        6342571097,
        6342571098,
        6342571099,
        6342571100,
        6342571101,
        6342571102,
        6342571103,
        6342571104,
        6342571095
      ],
      "tags": {
        "building": "yes",
        "shop": "supermarket"
      }
    },
    {
      "type": "way",
      "id": 682929637,
      "center": {
        "lat": 34.9025351,
        "lon": 132.0843489
      },
      "nodes": [
        6396583139,
        6396583140,
        11432527572,
        11432527573,
        11432527574,
        11432527575,
        6396583141,
        6396583142,
        6396583143,
        6396583144,
        11432527571,
        11432527570,
        6396583139
      ],
      "tags": {
        "building": "yes",
        "name": "ダップス浜田店",
        "shop": "supermarket"
      }
    },
    {
      "type": "way",
      "id": 687006538,
      "center": {
        "lat": 35.5239411,
        "lon": 132.9843785
      },
      "nodes": [
        6440078355,
        6440078356,
        6440078357,
        6440078358,
        6440078359,
        6440078360,
        6440078361,
        6440078362,
        6440078363,
        6440078355
      ],
      "tags": {
        "building": "yes",
        "name": "みしまや鹿島店",
        "shop": "supermarket"
      }
    },
    {
      "type": "way",
      "id": 688606399,
      "center": {
        "lat": 34.8600737,
        "lon": 132.2594047
      },
      "nodes": [
        6457830848,
        6457830849,
        6457830850,
        6457830851,
        6457830852,
        6457830853,
        6457830848
      ],
      "tags": {
        "building": "yes",
        "name": "A.COOPあさひ",
        "shop": "supermarket"
      }
    },
    {
      "type": "way",
      "id": 1075536258,
      "center": {
        "lat": 35.4733088,
        "lon": 133.0574282
      },
      "nodes": [
        9863962319,
        9863962320,
        9907431021,
        9907431022,
        9863962321,
        9907431023,
        9907431026,
        9907431025,
        9907431024,
        9863962322,
        9907431020,
        9907431019,
        9863962319
      ],
      "tags": {
        "branch": "母衣町店",
        "building": "yes",
        "name": "ラパン",
        "shop": "supermarket"
      }
    },
    {
      "type": "way",
      "id": 1076037983,
      "center": {
        "lat": 35.4508573,
        "lon": 133.0622159
      },
      "nodes": [
        9868026484,
        12373389568,
        12373389569,
        9868026485,
        9868026486,
        12373389571,
        12373389572,
        12373389573,
        12373389570,
        9868026487,
        9868026484
      ],
      "tags": {
        "branch": "エクスプレス上乃木店",
        "brand": "イオン",
        "brand:en": "AEON",
        "brand:ja": "イオン",
        "brand:wikidata": "Q11285951",
        "building": "yes",
        "name": "イオン",
        "name:en": "AEON",
        "name:ja": "イオン",
        "shop": "supermarket"
      }
    },
    {
      "type": "way",
      "id": 1076037985,
      "center": {
        "lat": 35.4522567,
        "lon": 133.0605291
      },
      "nodes": [
        9868026496,
        9868026497,
        9868026498,
        12404510153,
        9868026499,
        9868026496
      ],
      "tags": {
        "branch": "上乃木店",
        "building": "yes",
        "name": "ラパン",
        "shop": "supermarket"
      }
    },
    {
      "type": "way",
      "id": 1076070921,
      "center": {
        "lat": 35.4693116,
        "lon": 133.0455738
      },
      "nodes": [
        9868246216,
        9868260421,
        9868260422,
        9868260417,
        9868260418,
        9868260419,
        9878657840,
        9878657841,
        9868246216
      ],
      "tags": {
        "branch": "中原店",
        "building": "yes",
        "name": "みしまや",
        "shop": "supermarket"
      }
    },
    {
      "type": "way",
      "id": 1076070932,
      "center": {
        "lat": 35.4751266,
        "lon": 133.0450885
      },
      "nodes": [
        9868260473,
        9868260474,
        9868260475,
        9868260476,
        9897887498,
        9897887505,
        9897887504,
        9897887503,
        9897887502,
        9897887501,
        9897887500,
        9897887499,
        9868260473
      ],
      "tags": {
        "branch": "黒田店",
        "building": "yes",
        "name": "シンコー",
        "shop": "supermarket"
      }
    },
    {
      "type": "way",
      "id": 1077411755,
      "center": {
        "lat": 35.4592683,
        "lon": 133.0596354
      },
      "nodes": [
        9878724661,
        9878724662,
        9878724663,
        9878724664,
        9878724665,
        9878724666,
        9878724661
      ],
      "tags": {
        "branch": "さいか店",
        "building": "yes",
        "name": "みしまや",
        "shop": "supermarket"
      }
    },
    {
      "type": "way",
      "id": 1091533103,
      "center": {
        "lat": 35.4585351,
        "lon": 133.0566316
      },
      "nodes": [
        9996833973,
        9996833974,
        9996833975,
        9996833976,
        9996833977,
        9996833978,
        9996846138,
        9996833979,
        9996833980,
        9996833981,
        9996833982,
        9996834015,
        9996833983,
        9996833984,
        9996833985,
        9996833986,
        9996833987,
        9996833988,
        9996833973
      ],
      "tags": {
        "branch": "竪町店",
        "building": "yes",
        "name": "フーズマーケットホック",
        "shop": "supermarket"
      }
    },
    {
      "type": "way",
      "id": 1097418645,
      "center": {
        "lat": 35.2407914,
        "lon": 133.1337701
      },
      "nodes": [
        10048436905,
        10048436906,
        10048436907,
        10048436908,
        10048436905
      ],
      "tags": {
        "building": "yes",
        "name": "興南堂",
        "shop": "supermarket"
      }
    },
    {
      "type": "way",
      "id": 1098566980,
      "center": {
        "lat": 35.4844324,
        "lon": 133.0591295
      },
      "nodes": [
        10058683291,
        10058683292,
        10058683293,
        10058683294,
        10058683295,
        10058683296,
        10058683297,
        10058683298,
        10058683299,
        10058683300,
        10058683291
      ],
      "tags": {
        "branch": "城北店",
        "building": "yes",
        "name": "ラパン",
        "shop": "supermarket"
      }
    },
    {
      "type": "way",
      "id": 1099838222,
      "center": {
        "lat": 35.4795631,
        "lon": 132.9579289
      },
      "nodes": [
        10068510282,
        10068510283,
        10068510284,
        10068510285,
        10068510282
      ],
      "tags": {
        "building": "yes",
        "name": "かわのはた",
        "shop": "supermarket"
      }
    },
    {
      "type": "way",
      "id": 1101153018,
      "center": {
        "lat": 35.4885499,
        "lon": 133.0739516
      },
      "nodes": [
        10076928575,
        10076928576,
        10076928577,
        10076928578,
        10076928579,
        10076928580,
        10076928581,
        10076928582,
        10076928583,
        10076928584,
        10076928585,
        10076928586,
        10076928587,
        10076928588,
        10076928589,
        10076928590,
        10076928591,
        10076928592,
        10076928593,
        10076928594,
        10076928595,
        10076928596,
        10076928597,
        10076928598,
        10076928599,
        10076928600,
        10076928575
      ],
      "tags": {
        "branch": "川津店",
        "building": "yes",
        "name": "ラパン",
        "shop": "supermarket"
      }
    },
    {
      "type": "way",
      "id": 1104667095,
      "center": {
        "lat": 35.4900009,
        "lon": 132.9217075
      },
      "nodes": [
        10108590851,
        10108590852,
        10108590853,
        10108590854,
        10108590851
      ],
      "tags": {
        "building": "yes",
        "name": "マーケット大野店",
        "shop": "supermarket"
      }
    },
    {
      "type": "way",
      "id": 1105941806,
      "center": {
        "lat": 35.3725619,
        "lon": 133.1798313
      },
      "nodes": [
        10120051761,
        10120051762,
        10120051763,
        10120051764,
        10120051765,
        10120051766,
        10120051767,
        10120051768,
        10120051769,
        10120051770,
        10120051771,
        10120051772,
        10120051773,
        10120051774,
        10120051775,
        10120051776,
        10120051777,
        10120051778,
        10120051761
      ],
      "tags": {
        "building": "yes",
        "name": "ピュアレ",
        "shop": "supermarket"
      }
    },
    {
      "type": "way",
      "id": 1107198129,
      "center": {
        "lat": 35.4017948,
        "lon": 133.0028642
      },
      "nodes": [
        10131192684,
        10131192685,
        10131192686,
        10131192687,
        10131192688,
        10131192689,
        10131192690,
        10131192691,
        10131192692,
        10131192693,
        10131192694,
        10131192695,
        10131192697,
        10131192699,
        10131192698,
        10131192696,
        10131192684
      ],
      "tags": {
        "building": "yes",
        "name": "笠谷商店",
        "shop": "supermarket"
      }
    },
    {
      "type": "way",
      "id": 1167623142,
      "center": {
        "lat": 35.4948583,
        "lon": 133.1772009
      },
      "nodes": [
        10858945833,
        10858945834,
        10858945835,
        10858945836,
        10858945833
      ],
      "tags": {
        "building": "yes",
        "shop": "supermarket"
      }
    },
    {
      "type": "way",
      "id": 1183425548,
      "center": {
        "lat": 34.8755094,
        "lon": 132.4222069
      },
      "nodes": [
        10989675744,
        10989675745,
        12827465221,
        12827465220,
        10989675746,
        10989675747,
        12840115543,
        12840115542,
        10989675744
      ],
      "tags": {
        "building": "yes",
        "name": "香楽マルシェ",
        "organic": "only",
        "shop": "supermarket"
      }
    },
    {
      "type": "way",
      "id": 1233692831,
      "center": {
        "lat": 35.4272284,
        "lon": 133.1493145
      },
      "nodes": [
        11447981898,
        11447981899,
        11447981900,
        11447981901,
        11447981902,
        11447981903,
        11447981904,
        11447981905,
        11447981908,
        11447981907,
        11447981906,
        11447981898
      ],
      "tags": {
        "branch": "東出雲店",
        "brand": "ザ・ビッグ",
        "brand:en": "THE BIG",
        "brand:ja": "ザ・ビッグ",
        "brand:wikidata": "Q11306676",
        "building": "yes",
        "name": "ザ・ビッグ",
        "name:en": "THE BIG",
        "name:ja": "ザ・ビッグ",
        "shop": "supermarket"
      }
    },
    {
      "type": "way",
      "id": 1241556739,
      "center": {
        "lat": 35.4301158,
        "lon": 133.2501101
      },
      "nodes": [
        11536083854,
        11536083855,
        11536083856,
        11536083858,
        11536083859,
        11536083857,
        11536083854
      ],
      "tags": {
        "building": "yes",
        "shop": "supermarket"
      }
    },
    {
      "type": "way",
      "id": 1288659349,
      "center": {
        "lat": 35.158349,
        "lon": 132.9662446
      },
      "nodes": [
        11950008644,
        11950008645,
        11950008646,
        11950008647,
        11950008648,
        11950008649,
        11950008644
      ],
      "tags": {
        "building": "yes",
        "shop": "supermarket"
      }
    },
    {
      "type": "way",
      "id": 1291172731,
      "center": {
        "lat": 35.3494328,
        "lon": 132.9020972
      },
      "nodes": [
        11971000656,
        11971000657,
        11971000658,
        11971000659,
        11971000660,
        11971000661,
        11971000662,
        11971000663,
        11971000656
      ],
      "tags": {
        "brand": "トライアル",
        "brand:en": "Trial",
        "brand:ja": "トライアル",
        "brand:wikidata": "Q11321723",
        "building": "yes",
        "name": "トライアル",
        "name:en": "Trial",
        "name:ja": "トライアル",
        "shop": "supermarket"
      }
    },
    {
      "type": "way",
      "id": 1310770997,
      "center": {
        "lat": 35.4340446,
        "lon": 133.0187547
      },
      "nodes": [
        12133194207,
        12133194208,
        12133194209,
        12133194210,
        12133194211,
        12133194212,
        12133194213,
        12133194218,
        12133194219,
        12133194220,
        12133194217,
        12133194214,
        12133194215,
        12133194216,
        12133194207
      ],
      "tags": {
        "building": "retail",
        "name": "シンコー",
        "shop": "supermarket"
      }
    },
    {
      "type": "way",
      "id": 1387946744,
      "center": {
        "lat": 34.9820763,
        "lon": 132.1835407
      },
      "nodes": [
        12848335837,
        12848335838,
        12848335839,
        12848335840,
        12848335837
      ],
      "tags": {
        "building": "yes",
        "name": "ダイレックス江津店",
        "shop": "supermarket"
      }
    }
  ]
}