{
  "version": 0.6,
  "generator": "Overpass API 0.7.62.8 e802775f",
  "osm3s": {
    "timestamp_osm_base": "2025-10-15T12:21:15Z",
    "timestamp_areas_base": "2025-10-15T04:02:15Z",
    "copyright": "The data included in this document is from www.openstreetmap.org. The data is made available under ODbL."
  },
  "elements": [
    {
      "type": "node",
      "id": 415663162,
      "lat": 37.4581989,
      "lon": 138.8719703,
      "tags": {
        "name": "原信",
        "name:ja_rm": "hara shin",
        "shop": "supermarket"
      }
    },
    {
      "type": "node",
      "id": 415857554,
      "lat": 37.5281963,
      "lon": 138.915354,
      "tags": {
        "name": "marui",
        "shop": "supermarket"
      }
    },
    {
      "type": "node",
      "id": 416367051,
      "lat": 37.4732235,
      "lon": 138.997939,
      "tags": {
        "name": "原信",
        "name:ja_rm": "harashin",
        "shop": "supermarket"
      }
    },
    {
      "type": "node",
      "id": 973055608,
      "lat": 37.4401073,
      "lon": 138.8150012,
      "tags": {
        "shop": "supermarket"
      }
    },
    {
      "type": "node",
      "id": 973055625,
      "lat": 37.4381347,
      "lon": 138.797949,
      "tags": {
        "name": "カトウ食材長岡店",
        "name:en": "Katou Food material store",
        "shop": "supermarket"
      }
    },
    {
      "type": "node",
      "id": 973055684,
      "lat": 37.4412014,
      "lon": 138.8221211,
      "tags": {
        "shop": "supermarket"
      }
    },
    {
      "type": "node",
      "id": 2619639352,
      "lat": 37.0988727,
      "lon": 137.9867305,
      "tags": {
        "name": "ナルス 能生町店 (NARUS)",
        "shop": "supermarket",
        "website": "http://www.hnhd.co.jp/shops/noumachi/"
      }
    },
    {
      "type": "node",
      "id": 2899042242,
      "lat": 37.0377406,
      "lon": 137.8515239,
      "tags": {
        "branch": "糸魚川店",
        "brand": "マックスバリュ",
        "brand:en": "Maxvalu Tokai",
        "brand:ja": "マックスバリュ",
        "brand:wikidata": "Q1960109",
        "brand:wikipedia": "en:MaxValu",
        "name": "マックスバリュ",
        "name:en": "Maxvalu Tokai",
        "name:ja": "マックスバリュ",
        "phone": "+81-25-5531192",
        "shop": "supermarket",
        "website": "https://www.aeon.jp/maxvalu/itoigawa/"
      }
    },
    {
      "type": "node",
      "id": 3001645018,
      "lat": 37.9198589,
      "lon": 139.0448642,
      "tags": {
        "name": "本町食品センター",
        "shop": "supermarket",
        "wheelchair": "yes"
      }
    },
    {
      "type": "node",
      "id": 3007139723,
      "lat": 37.8045056,
      "lon": 139.1126092,
      "tags": {
        "name": "ウオロク新津店",
        "name:en": "UorokuNiitsu",
        "shop": "supermarket"
      }
    },
    {
      "type": "node",
      "id": 3007139724,
      "lat": 37.8056585,
      "lon": 139.112738,
      "tags": {
        "name": "ムサシ新津店",
        "shop": "supermarket"
      }
    },
    {
      "type": "node",
      "id": 3007139725,
      "lat": 37.8072494,
      "lon": 139.1167957,
      "tags": {
        "name": "リオンドール新津店",
        "shop": "supermarket"
      }
    },
    {
      "type": "node",
      "id": 3007139937,
      "lat": 37.7919548,
      "lon": 139.1096553,
      "tags": {
        "name": "アテーナ新津店",
        "shop": "supermarket"
      }
    },
    {
      "type": "node",
      "id": 3359332433,
      "lat": 37.2293418,
      "lon": 138.9754644,
      "tags": {
        "name": "原信",
        "shop": "supermarket"
      }
    },
    {
      "type": "node",
      "id": 3359332435,
      "lat": 37.2280092,
      "lon": 138.9736432,
      "tags": {
        "name": "業務スーパー",
        "shop": "supermarket"
      }
    },
    {
      "type": "node",
      "id": 3657508913,
      "lat": 37.7350852,
      "lon": 138.7961014,
      "tags": {
        "name": "すずまる",
        "shop": "supermarket"
      }
    },
    {
      "type": "node",
      "id": 3917074580,
      "lat": 37.8650554,
      "lon": 139.0176116,
      "tags": {
        "name": "清水フードセンター",
        "shop": "supermarket"
      }
    },
    {
      "type": "node",
      "id": 4017677945,
      "lat": 37.3319529,
      "lon": 138.8112419,
      "tags": {
        "brand": "ベイシア",
        "brand:en": "Beisia",
        "brand:ja": "ベイシア",
        "brand:wikidata": "Q11336776",
        "brand:wikipedia": "ja:ベイシア",
        "name": "ベイシア",
        "name:en": "Beisia",
        "name:ja": "ベイシア",
        "shop": "supermarket"
      }
    },
    {
      "type": "node",
      "id": 4198178189,
      "lat": 37.9200976,
      "lon": 139.0462979,
      "tags": {
        "name": "青海ショッピングセンター",
        "shop": "supermarket",
        "toilets:wheelchair": "no",
        "wheelchair": "limited"
      }
    },
    {
      "type": "node",
      "id": 4345599289,
      "lat": 38.0040442,
      "lon": 138.3331968,
      "tags": {
        "name": "アークランドサカモト",
        "shop": "supermarket"
      }
    },
    {
      "type": "node",
      "id": 5323155225,
      "lat": 37.7659221,
      "lon": 138.8958175,
      "tags": {
        "name": "ウオロク巻店",
        "shop": "supermarket"
      }
    },
    {
      "type": "node",
      "id": 5349458921,
      "lat": 37.1710629,
      "lon": 138.2380498,
      "tags": {
        "internet_access": "wlan",
        "name": "ピアレマート",
        "shop": "supermarket"
      }
    },
    {
      "type": "node",
      "id": 5349459322,
      "lat": 37.1747764,
      "lon": 138.2503745,
      "tags": {
        "internet_access": "wlan",
        "name:en": "Seven eleven",
        "opening_hours": "24/7",
        "shop": "supermarket"
      }
    },
    {
      "type": "node",
      "id": 5379574720,
      "lat": 37.7924385,
      "lon": 139.1095876,
      "tags": {
        "name": "にいつフードセンターパルス店",
        "shop": "supermarket"
      }
    },
    {
      "type": "node",
      "id": 5541597522,
      "lat": 37.2288188,
      "lon": 138.9677604,
      "tags": {
        "name": "koide",
        "name:en": "Koide",
        "name:ja": "koide grocery",
        "shop": "supermarket"
      }
    },
    {
      "type": "node",
      "id": 5563961859,
      "lat": 37.3106112,
      "lon": 138.7980695,
      "tags": {
        "name": "たかのスーパー",
        "shop": "supermarket"
      }
    },
    {
      "type": "node",
      "id": 5586486347,
      "lat": 37.9567481,
      "lon": 139.3028828,
      "tags": {
        "name": "ウオロク",
        "shop": "supermarket"
      }
    },
    {
      "type": "node",
      "id": 5845048986,
      "lat": 37.0779291,
      "lon": 138.8830441,
      "tags": {
        "addr:street": "国道17号",
        "name:en": "D!Rex",
        "opening_hours": "Mo-Su 09:00-22:00",
        "shop": "supermarket"
      }
    },
    {
      "type": "node",
      "id": 5931521952,
      "lat": 37.0673528,
      "lon": 138.8771461,
      "tags": {
        "addr:city": "南魚沼市",
        "addr:neighbourhood": "101-8",
        "addr:postcode": "949-6600",
        "addr:province": "新潟県",
        "addr:quarter": "六日町",
        "name": "ショッピングセンターRARA",
        "opening_hours": "09:30-21:00",
        "shop": "supermarket"
      }
    },
    {
      "type": "node",
      "id": 5982729891,
      "lat": 37.6327642,
      "lon": 138.9770953,
      "tags": {
        "name": "ダイレックス東三条店",
        "shop": "supermarket"
      }
    },
    {
      "type": "node",
      "id": 6167927507,
      "lat": 37.7679775,
      "lon": 139.0187886,
      "tags": {
        "addr:block_number": "2",
        "addr:city": "新潟市",
        "addr:country": "JP",
        "addr:neighbourhood": "409",
        "addr:postcode": "950-1213",
        "addr:province": "新潟県",
        "addr:quarter": "能登",
        "addr:suburb": "南区",
        "branch": "白根",
        "branch:en": "Shirone",
        "name": "イオン",
        "name:en": "AEON",
        "name:ja": "イオン",
        "shop": "supermarket"
      }
    },
    {
      "type": "node",
      "id": 6167948588,
      "lat": 37.9247201,
      "lon": 139.1151121,
      "tags": {
        "addr:block_number": "1",
        "addr:city": "新潟市",
        "addr:country": "JP",
        "addr:housenumber": "2",
        "addr:neighbourhood": "3",
        "addr:postcode": "950-8678",
        "addr:province": "新潟県",
        "addr:quarter": "大形本町",
        "addr:suburb": "東区",
        "branch": "佐久平",
        "branch:en": "Sakudaira",
        "brand": "イオン",
        "brand:en": "AEON",
        "brand:ja": "イオン",
        "brand:wikidata": "Q11285951",
        "brand:wikipedia": "ja:イオン (店舗ブランド)",
        "name": "イオン",
        "name:en": "AEON",
        "name:ja": "イオン",
        "shop": "supermarket"
      }
    },
    {
      "type": "node",
      "id": 6167954022,
      "lat": 37.9427549,
      "lon": 139.3101168,
      "tags": {
        "addr:block_number": "11",
        "addr:city": "新発田市",
        "addr:country": "JP",
        "addr:housenumber": "5",
        "addr:neighbourhood": "5",
        "addr:postcode": "957-0061",
        "addr:province": "新潟県",
        "addr:quarter": "住吉町",
        "branch": "新発田",
        "branch:en": "Shibata",
        "name": "イオン",
        "name:en": "AEON",
        "name:ja": "イオン",
        "shop": "supermarket"
      }
    },
    {
      "type": "node",
      "id": 6167969955,
      "lat": 37.8965109,
      "lon": 139.005424,
      "tags": {
        "addr:block_number": "5",
        "addr:city": "新潟市",
        "addr:housenumber": "1",
        "addr:neighbourhood": "2",
        "addr:postcode": "950-2002",
        "addr:province": "新潟県",
        "addr:quarter": "青山",
        "addr:suburb": "西区",
        "branch": "新潟青山",
        "branch:en": "Niigata-Aoyama",
        "brand": "イオン",
        "brand:en": "AEON",
        "brand:ja": "イオン",
        "brand:wikidata": "Q11285951",
        "name": "イオン",
        "name:en": "AEON",
        "name:ja": "イオン",
        "phone": "025-231-9111",
        "shop": "supermarket",
        "website": "https://www.aeon.com/store/%E3%82%A4%E3%82%AA%E3%83%B3/%E3%82%A4%E3%82%AA%E3%83%B3%E6%96%B0%E6%BD%9F%E9%9D%92%E5%B1%B1%E5%BA%97/"
      }
    },
    {
      "type": "node",
      "id": 6309610271,
      "lat": 37.0403886,
      "lon": 138.2981908,
      "tags": {
        "name": "しみず屋",
        "shop": "supermarket"
      }
    },
    {
      "type": "node",
      "id": 6309610272,
      "lat": 37.0400111,
      "lon": 138.2985823,
      "tags": {
        "name": "しみず屋２号店",
        "shop": "supermarket"
      }
    },
    {
      "type": "node",
      "id": 6327469450,
      "lat": 36.9376304,
      "lon": 138.2189172,
      "tags": {
        "alt_name:en": "Narus Sakiyama",
        "name": "Narus",
        "name:en": "Narus",
        "opening_hours": "Mo-Su 09:00-22:00",
        "operator": "Harashin Narus",
        "phone": "+81 255 822700",
        "shop": "supermarket",
        "website": "https://www.hnhd.co.jp/shops/sekiyama/"
      }
    },
    {
      "type": "node",
      "id": 6336725570,
      "lat": 38.0057499,
      "lon": 138.3144074,
      "tags": {
        "name": "マルイ",
        "shop": "supermarket",
        "source": "survey"
      }
    },
    {
      "type": "node",
      "id": 6432175712,
      "lat": 38.0821284,
      "lon": 138.4185762,
      "tags": {
        "name": "キング",
        "shop": "supermarket"
      }
    },
    {
      "type": "node",
      "id": 6833679788,
      "lat": 37.740922,
      "lon": 139.1914263,
      "tags": {
        "name": "にいつフードセンター",
        "shop": "supermarket"
      }
    },
    {
      "type": "node",
      "id": 6899544619,
      "lat": 37.6740564,
      "lon": 139.463232,
      "tags": {
        "name": "カラオ",
        "shop": "supermarket"
      }
    },
    {
      "type": "node",
      "id": 6935084792,
      "lat": 37.8719088,
      "lon": 139.0881537,
      "tags": {
        "brand": "アピタ",
        "brand:en": "APITA",
        "brand:ja": "アピタ",
        "brand:wikidata": "Q55384637",
        "name": "アピタ",
        "name:en": "APITA",
        "name:ja": "アピタ",
        "shop": "supermarket"
      }
    },
    {
      "type": "node",
      "id": 6974200438,
      "lat": 37.8820209,
      "lon": 138.9671387,
      "tags": {
        "branch": "新潟県新潟市上新栄町店",
        "name": "ウオロク",
        "phone": "025-264-7055",
        "shop": "supermarket",
        "wheelchair": "yes"
      }
    },
    {
      "type": "node",
      "id": 7372441285,
      "lat": 38.0534349,
      "lon": 139.4086693,
      "tags": {
        "name": "イオンスタイル 中条店",
        "shop": "supermarket"
      }
    },
    {
      "type": "node",
      "id": 7661629199,
      "lat": 37.5243301,
      "lon": 138.9217068,
      "tags": {
        "name": "原信 見附店",
        "shop": "supermarket"
      }
    },
    {
      "type": "node",
      "id": 7947274831,
      "lat": 37.6586367,
      "lon": 139.0500605,
      "tags": {
        "name": "リオンドール",
        "shop": "supermarket"
      }
    },
    {
      "type": "node",
      "id": 7963511838,
      "lat": 37.7932236,
      "lon": 139.1265517,
      "tags": {
        "name": "リオンドール",
        "shop": "supermarket"
      }
    },
    {
      "type": "node",
      "id": 8934196486,
      "lat": 37.9471871,
      "lon": 139.1001675,
      "tags": {
        "name": "清水フードセンター",
        "shop": "supermarket"
      }
    },
    {
      "type": "node",
      "id": 9015902371,
      "lat": 38.1981678,
      "lon": 138.3402409,
      "tags": {
        "brand": "エーコープ",
        "brand:en": "A-COOP",
        "brand:ja": "エーコープ",
        "brand:wikidata": "Q11291524",
        "brand:wikipedia": "ja:エーコープ",
        "name": "エーコープ佐渡高千店",
        "name:en": "A-COOP",
        "name:ja": "エーコープ佐渡高千店",
        "shop": "supermarket"
      }
    },
    {
      "type": "node",
      "id": 9565363354,
      "lat": 37.5295671,
      "lon": 138.9076239,
      "tags": {
        "name": "ウオロク",
        "shop": "supermarket"
      }
    },
    {
      "type": "node",
      "id": 9668033641,
      "lat": 37.7715948,
      "lon": 139.1165325,
      "tags": {
        "addr:city": "新潟市",
        "addr:postcode": "956-0835",
        "addr:province": "新潟県",
        "addr:quarter": "朝日121-1",
        "addr:suburb": "秋葉区",
        "name": "酒井商店",
        "shop": "supermarket"
      }
    },
    {
      "type": "node",
      "id": 9843164162,
      "lat": 37.1735871,
      "lon": 138.2651879,
      "tags": {
        "name": "NARUS",
        "shop": "supermarket"
      }
    },
    {
      "type": "node",
      "id": 9918003317,
      "lat": 37.7610909,
      "lon": 138.8938571,
      "tags": {
        "name": "ひらせいホームセンター巻店",
        "shop": "supermarket"
      }
    },
    {
      "type": "node",
      "id": 10736554406,
      "lat": 37.2025396,
      "lon": 138.2953351,
      "tags": {
        "name": "しみず屋",
        "shop": "supermarket"
      }
    },
    {
      "type": "node",
      "id": 11145418408,
      "lat": 37.9321255,
      "lon": 139.1233106,
      "tags": {
        "name": "チャレンジャー",
        "shop": "supermarket"
      }
    },
    {
      "type": "node",
      "id": 11721560318,
      "lat": 37.3464198,
      "lon": 138.5699659,
      "tags": {
        "name": "マルイ 横山店",
        "shop": "supermarket",
        "website": "https://www.super-marui.com/?store=マルイ横山店"
      }
    },
    {
      "type": "node",
      "id": 11733095132,
      "lat": 37.2683368,
      "lon": 138.3848459,
      "tags": {
        "name": "ホームセンタームサシ柿崎店",
        "shop": "supermarket"
      }
    },
    {
      "type": "node",
      "id": 11842607860,
      "lat": 38.1189049,
      "lon": 139.4539181,
      "tags": {
        "addr:block_number": "９１－５",
        "addr:city": "村上市",
        "addr:neighbourhood": "藤沢",
        "addr:postcode": "9593131",
        "addr:province": "新潟県",
        "brand": "イオン",
        "brand:en": "AEON",
        "brand:ja": "イオン",
        "brand:wikidata": "Q11285951",
        "name": "イオン",
        "name:en": "AEON",
        "name:ja": "イオン",
        "phone": "0254620031",
        "shop": "supermarket"
      }
    },
    {
      "type": "node",
      "id": 11938845358,
      "lat": 37.1447769,
      "lon": 138.2314879,
      "tags": {
        "name": "クスリのアオキ　春日山町店",
        "shop": "supermarket"
      }
    },
    {
      "type": "node",
      "id": 11944327999,
      "lat": 37.0912604,
      "lon": 138.2318312,
      "tags": {
        "name": "なんじゃ村　南高田店",
        "shop": "supermarket"
      }
    },
    {
      "type": "node",
      "id": 11944328000,
      "lat": 37.0907405,
      "lon": 138.2317749,
      "tags": {
        "name": "ナルス　南高田店",
        "shop": "supermarket"
      }
    },
    {
      "type": "node",
      "id": 11944328001,
      "lat": 37.0893925,
      "lon": 138.2318956,
      "tags": {
        "name": "コメリパワー上越高田インター店",
        "shop": "supermarket"
      }
    },
    {
      "type": "node",
      "id": 11971403598,
      "lat": 37.8695094,
      "lon": 139.0172544,
      "tags": {
        "name": "原信　黒崎店",
        "shop": "supermarket"
      }
    },
    {
      "type": "node",
      "id": 12145600313,
      "lat": 37.3955865,
      "lon": 138.7919596,
      "tags": {
        "name": "原信 来迎寺店",
        "shop": "supermarket"
      }
    },
    {
      "type": "node",
      "id": 12145959595,
      "lat": 37.6639934,
      "lon": 138.9255751,
      "tags": {
        "name": "大万",
        "shop": "supermarket"
      }
    },
    {
      "type": "node",
      "id": 12145959600,
      "lat": 37.6629849,
      "lon": 138.9234749,
      "tags": {
        "name": "にしくらストアー",
        "shop": "supermarket"
      }
    },
    {
      "type": "node",
      "id": 12181327154,
      "lat": 37.960191,
      "lon": 139.2987978,
      "tags": {
        "name": "コメリパワー新発田店",
        "shop": "supermarket"
      }
    },
    {
      "type": "node",
      "id": 12234214026,
      "lat": 38.2341467,
      "lon": 139.4988236,
      "tags": {
        "name": "(株)ひらせいホームセンター村上東店",
        "shop": "supermarket"
      }
    },
    {
      "type": "node",
      "id": 12715007635,
      "lat": 37.8948583,
      "lon": 139.0382507,
      "tags": {
        "name": "マルイ女池店",
        "shop": "supermarket"
      }
    },
    {
      "type": "node",
      "id": 12747104715,
      "lat": 37.9058809,
      "lon": 139.0513158,
      "tags": {
        "name": "清水フードセンター　とやの店",
        "shop": "supermarket"
      }
    },
    {
      "type": "node",
      "id": 12771457944,
      "lat": 37.8969136,
      "lon": 139.0240887,
      "tags": {
        "name": "キューピット出来島店",
        "shop": "supermarket"
      }
    },
    {
      "type": "node",
      "id": 12774174626,
      "lat": 37.8987645,
      "lon": 139.0253292,
      "tags": {
        "name": "ダイソー新潟県庁前店",
        "shop": "supermarket"
      }
    },
    {
      "type": "node",
      "id": 12872385670,
      "lat": 37.8147489,
      "lon": 139.1097355,
      "tags": {
        "name": "ファミリーマート新潟川口店",
        "shop": "supermarket"
      }
    },
    {
      "type": "node",
      "id": 12918629961,
      "lat": 37.8974713,
      "lon": 139.0821612,
      "tags": {
        "name": "キューピット南紫竹店",
        "shop": "supermarket"
      }
    },
    {
      "type": "node",
      "id": 13047664556,
      "lat": 37.91344,
      "lon": 139.0806162,
      "tags": {
        "name": "イオンスタイル中山",
        "shop": "supermarket"
      }
    },
    {
      "type": "node",
      "id": 13051319427,
      "lat": 37.9142992,
      "lon": 139.0831617,
      "tags": {
        "name": "キューピット　中山店",
        "shop": "supermarket"
      }
    },
    {
      "type": "node",
      "id": 13155290505,
      "lat": 37.5418873,
      "lon": 138.8881009,
      "tags": {
        "name": "アークプラザ 見附店",
        "shop": "supermarket"
      }
    },
    {
      "type": "way",
      "id": 81050868,
      "center": {
        "lat": 37.880752,
        "lon": 139.0772209
      },
      "nodes": [
        944794385,
        944794335,
        944794386,
        3832581944,
        3832581943,
        944794337,
        944794338,
        944794366,
        944794385
      ],
      "tags": {
        "building": "retail",
        "name": "アークプラザ新潟",
        "shop": "supermarket"
      }
    },
    {
      "type": "way",
      "id": 83813364,
      "center": {
        "lat": 37.4544102,
        "lon": 138.823471
      },
      "nodes": [
        975835972,
        975835975,
        975835979,
        3907111272,
        3907111273,
        975835982,
        3907111274,
        3907111275,
        975835984,
        975835972
      ],
      "tags": {
        "building": "retail",
        "name": "イオン長岡店",
        "shop": "supermarket"
      }
    },
    {
      "type": "way",
      "id": 153931656,
      "center": {
        "lat": 37.8605182,
        "lon": 138.9500126
      },
      "nodes": [
        1665482705,
        1665482717,
        10981876047,
        10981876048,
        10981876049,
        10981876050,
        10981876051,
        1665482630,
        1665482705
      ],
      "tags": {
        "building": "retail",
        "name": "原信",
        "opening_hours": "24/7",
        "shop": "supermarket"
      }
    },
    {
      "type": "way",
      "id": 153931666,
      "center": {
        "lat": 37.8665715,
        "lon": 138.9541815
      },
      "nodes": [
        1665482677,
        11275555402,
        11275555401,
        1665482641,
        1661965621,
        11077186961,
        1665482671,
        6150860119,
        6150860125,
        6150860123,
        1665482677
      ],
      "tags": {
        "building": "yes",
        "internet_access": "wlan",
        "name": "ウオロク 大学前店",
        "opening_hours": "09:00-24:00",
        "shop": "supermarket",
        "website": "https://www.uoroku.co.jp/shop/daigakumae.html"
      }
    },
    {
      "type": "way",
      "id": 155090713,
      "center": {
        "lat": 37.8683097,
        "lon": 138.9947546
      },
      "nodes": [
        1675243768,
        9567999105,
        1675243861,
        1675243765,
        3917074316,
        1675243756,
        1675243751,
        1675243768
      ],
      "tags": {
        "branch": "新潟西店",
        "brand": "イオン",
        "brand:en": "AEON",
        "brand:ja": "イオン",
        "brand:wikidata": "Q11285951",
        "brand:wikipedia": "ja:イオン (店舗ブランド)",
        "building": "retail",
        "name": "イオン",
        "name:en": "AEON",
        "name:ja": "イオン",
        "shop": "supermarket"
      }
    },
    {
      "type": "way",
      "id": 155229081,
      "center": {
        "lat": 37.8716884,
        "lon": 138.9729741
      },
      "nodes": [
        1676406112,
        1676406114,
        1676406184,
        1676406182,
        1676406112
      ],
      "tags": {
        "building": "retail",
        "name": "ひらせいホームセンター",
        "shop": "supermarket"
      }
    },
    {
      "type": "way",
      "id": 155237166,
      "center": {
        "lat": 37.8696073,
        "lon": 138.9653699
      },
      "nodes": [
        1676533031,
        1676532965,
        1676533006,
        1676532964,
        1676533031
      ],
      "tags": {
        "shop": "supermarket"
      }
    },
    {
      "type": "way",
      "id": 158366024,
      "center": {
        "lat": 37.9375896,
        "lon": 139.0734906
      },
      "nodes": [
        1705786489,
        1705786493,
        1705786490,
        1705786491,
        1705786488,
        1705786487,
        1705786489
      ],
      "tags": {
        "name": "清水フードセンター 山の下店",
        "shop": "supermarket"
      }
    },
    {
      "type": "way",
      "id": 177769955,
      "center": {
        "lat": 37.7554802,
        "lon": 139.0186954
      },
      "nodes": [
        1881840558,
        1881840572,
        1881840568,
        1881840566,
        1881840564,
        1881840562,
        1881840570,
        1881840560,
        1881840558
      ],
      "tags": {
        "building": "retail",
        "name": "原信",
        "shop": "supermarket"
      }
    },
    {
      "type": "way",
      "id": 184540780,
      "center": {
        "lat": 37.856963,
        "lon": 138.9353625
      },
      "nodes": [
        1950350230,
        1950350233,
        1950350229,
        1950350231,
        1950350228,
        1950350230
      ],
      "tags": {
        "building": "retail",
        "name": "いちまん",
        "name:en": "Ichiman Supermarket",
        "shop": "supermarket"
      }
    },
    {
      "type": "way",
      "id": 247177379,
      "center": {
        "lat": 37.0199023,
        "lon": 138.2588768
      },
      "nodes": [
        2541083916,
        7513079058,
        2541083918,
        2541083920,
        2541083926,
        2541083928,
        2541083916
      ],
      "tags": {
        "addr:city": "妙高市",
        "addr:housename": "新潟県妙高市美守２丁目４−１０",
        "addr:postcode": "944-0016",
        "addr:street": "国道292号",
        "building": "retail",
        "building:levels": "1",
        "name": "原信　美守店",
        "phone": "0255-72-4148",
        "shop": "supermarket"
      }
    },
    {
      "type": "way",
      "id": 286198368,
      "center": {
        "lat": 36.9443157,
        "lon": 138.808874
      },
      "nodes": [
        2898380131,
        2898396755,
        2898396756,
        2898396757,
        2898396758,
        2898396759,
        2898396760,
        2898380130,
        2898380131
      ],
      "tags": {
        "addr:city": "湯沢町",
        "addr:country": "JP",
        "addr:county": "南魚沼郡",
        "addr:postcode": "949-6101",
        "addr:province": "新潟県",
        "addr:street": "1685",
        "building": "retail",
        "name": "ショッピングセンターのぐち 湯沢ハーツ店",
        "name:en": "Shopping Center Noguchi Yuzawa Hearts",
        "name:ja": "ショッピングセンターのぐち 湯沢ハーツ店",
        "name:ja_rm": "Shoppingu Sentā Noguchi Yuzawa Hātsu Ten",
        "opening_hours": "9:00-23:00",
        "operator": "株式会社のぐち",
        "shop": "supermarket"
      }
    },
    {
      "type": "way",
      "id": 292652268,
      "center": {
        "lat": 37.4226362,
        "lon": 138.8485041
      },
      "nodes": [
        2961859642,
        2961859641,
        11976326062,
        11976326063,
        11976326064,
        11976326065,
        11976326066,
        11976326067,
        2961859639,
        11976326068,
        11976338969,
        11976338973,
        11976338972,
        11976338971,
        11976338970,
        2961859654,
        2961859655,
        2961859658,
        2961859659,
        2961859657,
        2961859656,
        11976326053,
        11976326054,
        2961859653,
        2961859652,
        11976326055,
        11976326056,
        2961859651,
        2961859650,
        2961859649,
        2961859648,
        11976326057,
        11976326058,
        2961859647,
        11976326059,
        2961859646,
        2961859645,
        11976326060,
        11976326061,
        2961859644,
        2961859643,
        2961859642
      ],
      "tags": {
        "branch": "宮内店",
        "building": "retail",
        "name": "原信",
        "shop": "supermarket",
        "source": "GSImaps/std"
      }
    },
    {
      "type": "way",
      "id": 292806651,
      "center": {
        "lat": 37.5398949,
        "lon": 138.8891949
      },
      "nodes": [
        2963474985,
        2963474979,
        2963474977,
        2963474976,
        2963474974,
        2963474981,
        2963474982,
        2963474983,
        2963474984,
        2963474986,
        2963474985
      ],
      "tags": {
        "building": "retail",
        "name": "PLANT-5 見附店",
        "shop": "supermarket",
        "source": "image,2014-06;Bing,GSI/KIBAN 2500"
      }
    },
    {
      "type": "way",
      "id": 292874980,
      "center": {
        "lat": 37.5501043,
        "lon": 138.8943885
      },
      "nodes": [
        2964313105,
        2964313101,
        2964313100,
        2964313097,
        2964313096,
        2964313099,
        2964313098,
        2964313102,
        2964313103,
        2964313104,
        2964313105
      ],
      "tags": {
        "building": "yes",
        "name": "ひらせい生鮮広場",
        "shop": "supermarket",
        "source": "image,2014-06;Bing,GSI/KIBAN 2500"
      }
    },
    {
      "type": "way",
      "id": 293391685,
      "center": {
        "lat": 37.6928744,
        "lon": 139.0615608
      },
      "nodes": [
        2969836498,
        2969836493,
        2969836496,
        2969836491,
        2969836489,
        2969836485,
        2969836479,
        2969836478,
        2969836471,
        2969836472,
        2969836480,
        2969836482,
        2969836484,
        2969836488,
        2969836498
      ],
      "tags": {
        "building": "yes",
        "name": "小池商店",
        "shop": "supermarket",
        "source": "image,2014-06;Bing;GSI/KIBAN 2500"
      }
    },
    {
      "type": "way",
      "id": 320912870,
      "center": {
        "lat": 37.2320519,
        "lon": 138.9603483
      },
      "nodes": [
        3276180292,
        3276180293,
        3276180294,
        3276180295,
        3276180296,
        3276180292
      ],
      "tags": {
        "building": "yes",
        "name": "サカキヤ",
        "shop": "supermarket"
      }
    },
    {
      "type": "way",
      "id": 321944029,
      "center": {
        "lat": 37.65114,
        "lon": 138.9349033
      },
      "nodes": [
        3287101785,
        3936041484,
        3936041483,
        3936041485,
        3936041482,
        3287101822,
        3936041495,
        3936041498,
        3936041497,
        3936041496,
        3936041494,
        3936041499,
        3936041500,
        3936041493,
        3936041492,
        3287101804,
        3936041491,
        3936041490,
        3936041489,
        3936041488,
        3936041487,
        3936041486,
        3287101785
      ],
      "tags": {
        "addr:block_number": "3",
        "addr:city": "燕市",
        "addr:country": "JP",
        "addr:housenumber": "65",
        "addr:postcode": "959-1232",
        "addr:province": "新潟県",
        "addr:quarter": "井土巻",
        "branch": "県央店",
        "branch:en": "Kenoh",
        "brand": "イオン",
        "brand:en": "AEON",
        "brand:ja": "イオン",
        "brand:wikidata": "Q11285951",
        "building": "retail",
        "name": "イオン",
        "name:en": "AEON",
        "name:ja": "イオン",
        "operator": "イオンリテール",
        "phone": "+81 256 63 3311",
        "shop": "supermarket",
        "website": "https://www.aeon.com/store/%E3%82%A4%E3%82%AA%E3%83%B3/%E3%82%A4%E3%82%AA%E3%83%B3%E7%9C%8C%E5%A4%AE%E5%BA%97/"
      }
    },
    {
      "type": "way",
      "id": 332008174,
      "center": {
        "lat": 37.9473925,
        "lon": 139.093831
      },
      "nodes": [
        3391098709,
        3391098736,
        3391098739,
        3391098715,
        3391098709
      ],
      "tags": {
        "building": "yes",
        "name": "アトレ花かいどう店",
        "shop": "supermarket"
      }
    },
    {
      "type": "way",
      "id": 343555162,
      "center": {
        "lat": 37.9312946,
        "lon": 139.1021088
      },
      "nodes": [
        3503975664,
        3503975667,
        8940020104,
        8940020105,
        8940020106,
        8940020107,
        8940020108,
        8940020103,
        8940020099,
        8940020100,
        8940020101,
        8940020102,
        3503975656,
        3503975653,
        8608683804,
        8608683805,
        3503975664
      ],
      "tags": {
        "branch": "河渡店",
        "building": "yes",
        "name": "原信",
        "shop": "supermarket"
      }
    },
    {
      "type": "way",
      "id": 343835751,
      "center": {
        "lat": 37.8716896,
        "lon": 138.9563386
      },
      "nodes": [
        3506391238,
        3506391239,
        3506391240,
        3506391241,
        3506391237,
        3506391234,
        3506391233,
        3506391232,
        3506391231,
        3506391236,
        3506391235,
        3506391238
      ],
      "tags": {
        "building": "yes",
        "name": "清水フードセンター大学前店",
        "opening_hours": "Mo-Su 09:00-22:00",
        "shop": "supermarket"
      }
    },
    {
      "type": "way",
      "id": 345919649,
      "center": {
        "lat": 37.9111341,
        "lon": 139.0253804
      },
      "nodes": [
        3525379953,
        3525379955,
        4226842372,
        4226842371,
        4226842370,
        4226842369,
        4226842368,
        4226842367,
        4226842366,
        4226842365,
        3525379954,
        4226842376,
        3525379952,
        3525379951,
        3525379950,
        3525379949,
        3525379948,
        3525379953
      ],
      "tags": {
        "branch": "関屋店",
        "building": "yes",
        "name": "清水フードセンター",
        "shop": "supermarket"
      }
    },
    {
      "type": "way",
      "id": 345937110,
      "center": {
        "lat": 37.9061125,
        "lon": 139.0128275
      },
      "nodes": [
        3525556986,
        3525556985,
        3525556987,
        3525556989,
        3525556986
      ],
      "tags": {
        "branch": "信濃町店",
        "name": "ウオロク",
        "shop": "supermarket",
        "wikidata": "Q11288825"
      }
    },
    {
      "type": "way",
      "id": 345939310,
      "center": {
        "lat": 37.9070527,
        "lon": 139.0181755
      },
      "nodes": [
        3525578083,
        3525578082,
        12904086811,
        12904086810,
        12904086809,
        12904086808,
        12904086805,
        12904086807,
        12904086804,
        12904086803,
        12904086802,
        12904086806,
        12904086801,
        3525578080,
        3525578079,
        3525578081,
        3525578083
      ],
      "tags": {
        "branch": "関屋店",
        "building": "yes",
        "name": "原信",
        "shop": "supermarket"
      }
    },
    {
      "type": "way",
      "id": 349684420,
      "center": {
        "lat": 37.0989192,
        "lon": 137.986821
      },
      "nodes": [
        3555294448,
        3555294444,
        3555294446,
        3555294450,
        3555294448
      ],
      "tags": {
        "building": "yes",
        "name": "(株)ナルス 能生町店",
        "shop": "supermarket"
      }
    },
    {
      "type": "way",
      "id": 349684424,
      "center": {
        "lat": 37.1015713,
        "lon": 137.9870299
      },
      "nodes": [
        3555294492,
        3555294477,
        3555294489,
        3555294490,
        3555294495,
        3555294492
      ],
      "tags": {
        "building": "yes",
        "name": "サンエー能生店",
        "shop": "supermarket"
      }
    },
    {
      "type": "way",
      "id": 353307227,
      "center": {
        "lat": 37.1426948,
        "lon": 138.7504814
      },
      "nodes": [
        5260731308,
        3590842762,
        5260731434,
        5260731433,
        5260708043,
        5260708044,
        5260708045,
        5260708046,
        5260708047,
        5260708048,
        5260708049,
        5260731309,
        5260731308
      ],
      "tags": {
        "building": "yes",
        "name": "原信 十日町北店",
        "shop": "supermarket"
      }
    },
    {
      "type": "way",
      "id": 353311092,
      "center": {
        "lat": 37.13845,
        "lon": 138.7455172
      },
      "nodes": [
        3590888634,
        5265367436,
        5265367437,
        3590888632,
        5265367438,
        5265367445,
        5265367442,
        5265367441,
        5265367444,
        5265367440,
        5265367443,
        5265367439,
        3590888629,
        3590888628,
        5265367432,
        5265367433,
        5265367434,
        5265367435,
        3590888634
      ],
      "tags": {
        "addr:block_number": "784",
        "addr:city": "十日町市",
        "addr:housenumber": "1",
        "addr:postcode": "948-0056",
        "addr:quarter": "川端丑",
        "addr:suburb": "新潟県",
        "building": "yes",
        "name": "イオン十日町店",
        "opening_hours": "Mo-Su 07:00-22:00",
        "operator": "イオン",
        "phone": "025-752-0033",
        "shop": "supermarket",
        "toilets:wheelchair": "yes",
        "website": "https://www.aeon.com/store/%E3%82%A4%E3%82%AA%E3%83%B3/%E3%82%A4%E3%82%AA%E3%83%B3%E5%8D%81%E6%97%A5%E7%94%BA%E5%BA%97/",
        "wheelchair": "yes"
      }
    },
    {
      "type": "way",
      "id": 377855481,
      "center": {
        "lat": 37.8831405,
        "lon": 138.980038
      },
      "nodes": [
        3812592534,
        3812592535,
        3812592536,
        3812592537,
        3812592534
      ],
      "tags": {
        "building": "retail",
        "name": "チャレンジャー寺尾店",
        "shop": "supermarket"
      }
    },
    {
      "type": "way",
      "id": 377855926,
      "center": {
        "lat": 37.8809397,
        "lon": 138.9725967
      },
      "nodes": [
        3812599287,
        3812599288,
        3812599289,
        3812599290,
        3812599291,
        3812599292,
        3812599293,
        3812599287
      ],
      "tags": {
        "building": "retail",
        "name": "マルイ寺尾店",
        "name:en": "Marui - Fresh Foods Market",
        "name:ja": "マルイ寺尾店",
        "opening_hours": "9:00-22:00",
        "shop": "supermarket"
      }
    },
    {
      "type": "way",
      "id": 378498008,
      "center": {
        "lat": 37.8519018,
        "lon": 139.142272
      },
      "nodes": [
        3819248364,
        3819248365,
        3819248374,
        3819248366,
        3819248367,
        3819248369,
        3819248370,
        3819248368,
        3819248373,
        3819248372,
        3819248371,
        3819248364
      ],
      "tags": {
        "building": "retail",
        "name": "PLANT-5",
        "shop": "supermarket"
      }
    },
    {
      "type": "way",
      "id": 381000401,
      "center": {
        "lat": 37.8979044,
        "lon": 139.1121326
      },
      "nodes": [
        3842856170,
        3842856171,
        3842856172,
        3842856173,
        3842856170
      ],
      "tags": {
        "building": "retail",
        "name": "ウオロク",
        "shop": "supermarket"
      }
    },
    {
      "type": "way",
      "id": 381543571,
      "center": {
        "lat": 37.9124313,
        "lon": 139.0517453
      },
      "nodes": [
        3847383839,
        3847383841,
        4207397963,
        3847383842,
        3847383843,
        3847383844,
        3847383845,
        3847383846,
        3847383847,
        3847383839
      ],
      "tags": {
        "building": "retail",
        "name": "原信",
        "opening_hours": "24/7",
        "shop": "supermarket"
      }
    },
    {
      "type": "way",
      "id": 381543573,
      "center": {
        "lat": 37.8991581,
        "lon": 139.063784
      },
      "nodes": [
        3847383849,
        3847383850,
        3847383851,
        3847383852,
        3847383853,
        3847383854,
        3847383855,
        3847383856,
        3847383849
      ],
      "tags": {
        "building": "retail",
        "name": "原信",
        "shop": "supermarket"
      }
    },
    {
      "type": "way",
      "id": 385719430,
      "center": {
        "lat": 37.8778747,
        "lon": 139.039134
      },
      "nodes": [
        3890562145,
        3890562146,
        3890562147,
        3890562148,
        3890562149,
        3890562150,
        3890562145
      ],
      "tags": {
        "branch": "新潟中央インター店",
        "building": "retail",
        "name": "チャレンジャー",
        "shop": "supermarket"
      }
    },
    {
      "type": "way",
      "id": 387412867,
      "center": {
        "lat": 37.4524042,
        "lon": 138.8190037
      },
      "nodes": [
        3907111289,
        3907111290,
        3907111291,
        3907111292,
        3907111293,
        3907111294,
        3907111295,
        3907111296,
        3907111297,
        3907111298,
        3907111306,
        3907111299,
        3907111300,
        3907111301,
        3907111304,
        3907111305,
        3907111307,
        3907111308,
        3907111302,
        3907111303,
        3907111289
      ],
      "tags": {
        "building": "retail",
        "name": "原信 古正寺店",
        "shop": "supermarket"
      }
    },
    {
      "type": "way",
      "id": 387597027,
      "center": {
        "lat": 37.3153058,
        "lon": 138.7949345
      },
      "nodes": [
        3908614894,
        3908614895,
        3908614896,
        3908614897,
        3908614898,
        3908614899,
        3908614900,
        3908614901,
        3908614894
      ],
      "tags": {
        "building": "retail",
        "name": "原信 西小千谷店",
        "shop": "supermarket"
      }
    },
    {
      "type": "way",
      "id": 387946020,
      "center": {
        "lat": 37.8985195,
        "lon": 139.1017469
      },
      "nodes": [
        3911787042,
        3911787043,
        12597688968,
        12597688967,
        12597688966,
        3911787044,
        12597688965,
        3911787045,
        3911787042
      ],
      "tags": {
        "building": "retail",
        "name": "キューピット",
        "shop": "supermarket"
      }
    },
    {
      "type": "way",
      "id": 387946023,
      "center": {
        "lat": 37.8962774,
        "lon": 139.098045
      },
      "nodes": [
        3911787055,
        12597689502,
        12597689501,
        12597689503,
        3911787056,
        3911789657,
        3911789658,
        12597689504,
        3911787055
      ],
      "tags": {
        "building": "retail",
        "name": "ウオエイ",
        "shop": "supermarket"
      }
    },
    {
      "type": "way",
      "id": 387946029,
      "center": {
        "lat": 37.908045,
        "lon": 139.1190345
      },
      "nodes": [
        3911789692,
        3911789693,
        3911789694,
        3911789695,
        3911789696,
        3911789697,
        3911789698,
        3911789702,
        3911789699,
        3911789700,
        3911789701,
        3911789692
      ],
      "tags": {
        "building": "retail",
        "name": "清水フードセンター",
        "shop": "supermarket"
      }
    },
    {
      "type": "way",
      "id": 391617285,
      "center": {
        "lat": 37.3624252,
        "lon": 138.5618153
      },
      "nodes": [
        3948391556,
        3948391557,
        3948391558,
        3948391559,
        3948391556
      ],
      "tags": {
        "building": "retail",
        "name": "ウオロク",
        "shop": "supermarket"
      }
    },
    {
      "type": "way",
      "id": 392386330,
      "center": {
        "lat": 37.8798175,
        "lon": 139.0482265
      },
      "nodes": [
        3956133461,
        3956130955,
        3956130956,
        3956133457,
        3956133459,
        3956133467,
        3956133461
      ],
      "tags": {
        "building": "yes",
        "name": "キラキラマーケット",
        "shop": "supermarket"
      }
    },
    {
      "type": "way",
      "id": 392794851,
      "center": {
        "lat": 37.9216262,
        "lon": 139.2109931
      },
      "nodes": [
        3959857732,
        3959857733,
        3959857734,
        3959857735,
        3959857732
      ],
      "tags": {
        "building": "retail",
        "name": "ウオロク豊栄店",
        "shop": "supermarket"
      }
    },
    {
      "type": "way",
      "id": 392794854,
      "center": {
        "lat": 37.9288789,
        "lon": 139.2187044
      },
      "nodes": [
        3959857739,
        3959857740,
        3959857741,
        3959857742,
        3959857743,
        3959857744,
        3959857745,
        3959857739
      ],
      "tags": {
        "building": "retail",
        "name": "ベイシア",
        "shop": "supermarket"
      }
    },
    {
      "type": "way",
      "id": 396353233,
      "center": {
        "lat": 37.4481371,
        "lon": 138.8525523
      },
      "nodes": [
        3991652729,
        3991652726,
        3991652722,
        6124894383,
        3991652723,
        3991652724,
        3991652725,
        3991652728,
        3991652727,
        3991652729
      ],
      "tags": {
        "building": "retail",
        "name": "イトーヨーカドー丸大",
        "name:en": "ItoYokado Marudai",
        "shop": "supermarket"
      }
    },
    {
      "type": "way",
      "id": 399934592,
      "center": {
        "lat": 37.9072933,
        "lon": 139.0701648
      },
      "nodes": [
        4025974339,
        4025974340,
        4025974341,
        4025974328,
        4025974329,
        4025974332,
        4025974333,
        4025974334,
        4025974335,
        12701304444,
        12701304443,
        12701304442,
        12701304441,
        12701304440,
        12701304439,
        4025974336,
        4025974337,
        4025974338,
        4025974330,
        4025974331,
        12701304445,
        4025974339
      ],
      "tags": {
        "building": "retail",
        "name": "AEONスーパー",
        "shop": "supermarket"
      }
    },
    {
      "type": "way",
      "id": 401906277,
      "center": {
        "lat": 37.9072807,
        "lon": 139.1091189
      },
      "nodes": [
        4043182425,
        4043182426,
        4043182427,
        4043182428,
        4043182429,
        4043182430,
        4043182425
      ],
      "tags": {
        "building": "retail",
        "name": "キューピット",
        "shop": "supermarket"
      }
    },
    {
      "type": "way",
      "id": 406118951,
      "center": {
        "lat": 37.9340262,
        "lon": 139.0865627
      },
      "nodes": [
        4082282905,
        4082282468,
        4082282464,
        4082282467,
        4082282458,
        4082282470,
        4082282477,
        4082282889,
        4082282906,
        4082282905
      ],
      "tags": {
        "building": "retail",
        "name": "チャレンジャー　赤道店",
        "shop": "supermarket"
      }
    },
    {
      "type": "way",
      "id": 406118958,
      "center": {
        "lat": 37.9382933,
        "lon": 139.0869874
      },
      "nodes": [
        4082282944,
        4082282939,
        4082282940,
        4082282933,
        4082282936,
        4082282949,
        6170037172,
        6170037171,
        4082282947,
        4082282946,
        4082282944
      ],
      "tags": {
        "branch": "錦町店",
        "building": "yes",
        "name": "原信",
        "shop": "supermarket"
      }
    },
    {
      "type": "way",
      "id": 419866418,
      "center": {
        "lat": 37.8664983,
        "lon": 138.9867766
      },
      "nodes": [
        4198569720,
        4198569721,
        4198569722,
        4198569723,
        4198569724,
        4198569725,
        4198569726,
        4198569727,
        4198569728,
        4198569729,
        4198569730,
        4202205570,
        4202205569,
        4198569731,
        4198569720
      ],
      "tags": {
        "branch": "亀貝店",
        "building": "yes",
        "name": "原信",
        "shop": "supermarket",
        "source": "mapbox"
      }
    },
    {
      "type": "way",
      "id": 420472968,
      "center": {
        "lat": 37.9288618,
        "lon": 139.047405
      },
      "nodes": [
        4204056693,
        4204056694,
        4204056695,
        4204056696,
        4204056693
      ],
      "tags": {
        "building": "yes",
        "name": "キューピット下本町店",
        "shop": "supermarket"
      }
    },
    {
      "type": "way",
      "id": 420918328,
      "center": {
        "lat": 37.8921595,
        "lon": 139.0299251
      },
      "nodes": [
        4208089164,
        12717494953,
        12717494954,
        12717494955,
        4208089165,
        12717494956,
        12717494957,
        12717494958,
        12717494959,
        4208089166,
        12717494960,
        12717494961,
        12717494962,
        12717494963,
        12717494964,
        4208089167,
        4208089164
      ],
      "tags": {
        "building": "yes",
        "name": "原信",
        "shop": "supermarket",
        "toilets:wheelchair": "yes",
        "wheelchair": "yes"
      }
    },
    {
      "type": "way",
      "id": 433207342,
      "center": {
        "lat": 37.8937911,
        "lon": 139.0826287
      },
      "nodes": [
        4320505753,
        4320505745,
        4320505747,
        4320505756,
        4320505755,
        4320505754,
        4320505753
      ],
      "tags": {
        "building": "retail",
        "name": "イオン山二ツ店",
        "shop": "supermarket"
      }
    },
    {
      "type": "way",
      "id": 435831211,
      "center": {
        "lat": 37.9180853,
        "lon": 139.1029059
      },
      "nodes": [
        4337250305,
        4337250306,
        4337250307,
        4337250308,
        4337250309,
        4337250310,
        4337250311,
        4337250312,
        13113479166,
        13113479167,
        13113479168,
        13113479169,
        4337250305
      ],
      "tags": {
        "branch": "上木戸店",
        "building": "yes",
        "name": "イオン",
        "shop": "supermarket"
      }
    },
    {
      "type": "way",
      "id": 440154692,
      "center": {
        "lat": 38.1148294,
        "lon": 139.4516685
      },
      "nodes": [
        4378741391,
        11892916274,
        4378741392,
        11892916273,
        4378741393,
        4378741396,
        4378741399,
        4378741400,
        4378741391
      ],
      "tags": {
        "building": "yes",
        "name": "原信 荒川店",
        "shop": "supermarket"
      }
    },
    {
      "type": "way",
      "id": 440425512,
      "center": {
        "lat": 38.0497316,
        "lon": 139.4101678
      },
      "nodes": [
        4381508375,
        4381508376,
        4381508377,
        4381508378,
        4381508375
      ],
      "tags": {
        "building": "yes",
        "name": "ひらせいホームセンター生鮮市場",
        "shop": "supermarket"
      }
    },
    {
      "type": "way",
      "id": 441934903,
      "center": {
        "lat": 37.8793538,
        "lon": 138.9907639
      },
      "nodes": [
        4396240477,
        4396240478,
        4396240479,
        4396240480,
        4396240481,
        4396240482,
        4396240483,
        4396240484,
        4396240485,
        4396240486,
        4396240487,
        4396240488,
        4396241189,
        4396241190,
        4396241191,
        4396241192,
        4396241193,
        4396241194,
        4396240477
      ],
      "tags": {
        "branch": "小針店",
        "building": "yes",
        "name": "清水フード",
        "shop": "supermarket"
      }
    },
    {
      "type": "way",
      "id": 451282183,
      "center": {
        "lat": 37.9194897,
        "lon": 139.2075885
      },
      "nodes": [
        4481143213,
        4481143205,
        4481143198,
        4481143199,
        4481143200,
        4481143203,
        4481143202,
        4481143206,
        4481143209,
        4481143207,
        4481143210,
        4481143211,
        4481143213
      ],
      "tags": {
        "building": "yes",
        "name": "原信豊栄店",
        "shop": "supermarket"
      }
    },
    {
      "type": "way",
      "id": 455432281,
      "center": {
        "lat": 38.2081365,
        "lon": 139.4809782
      },
      "nodes": [
        4518411390,
        4518411389,
        4518411388,
        4518411387,
        4518411386,
        4518411385,
        4518411384,
        4518411383,
        4518411382,
        4518411381,
        4518411380,
        4518411379,
        4518411378,
        4518411377,
        4518411376,
        4518411375,
        4518411390
      ],
      "tags": {
        "building": "yes",
        "name": "原信 村上インター店",
        "shop": "supermarket"
      }
    },
    {
      "type": "way",
      "id": 455435095,
      "center": {
        "lat": 38.2160624,
        "lon": 139.4873182
      },
      "nodes": [
        4518432222,
        4518432218,
        4518432217,
        4518432216,
        4518432215,
        4518432214,
        4518432209,
        4518432222
      ],
      "tags": {
        "landuse": "retail",
        "name": "ウオロク 村上店",
        "shop": "supermarket"
      }
    },
    {
      "type": "way",
      "id": 457798945,
      "center": {
        "lat": 37.8470002,
        "lon": 139.0067375
      },
      "nodes": [
        4538868527,
        4538868526,
        4538868525,
        4538868524,
        4538868523,
        4538868522,
        4538868527
      ],
      "tags": {
        "building": "yes",
        "name": "ウオエイ金巻店",
        "shop": "supermarket"
      }
    },
    {
      "type": "way",
      "id": 457999776,
      "center": {
        "lat": 37.673976,
        "lon": 138.9322804
      },
      "nodes": [
        4540548323,
        4540548322,
        4540548321,
        4540548320,
        4540548319,
        4540548318,
        4540548317,
        4540548316,
        4540548315,
        4540548323
      ],
      "tags": {
        "building": "yes",
        "name": "リオン・ドール燕北店",
        "shop": "supermarket"
      }
    },
    {
      "type": "way",
      "id": 458182362,
      "center": {
        "lat": 37.6550779,
        "lon": 138.9446752
      },
      "nodes": [
        4542206568,
        4542206567,
        4542206566,
        4542206565,
        4542206568
      ],
      "tags": {
        "building": "yes",
        "name": "(株)がんこ茶家",
        "shop": "supermarket"
      }
    },
    {
      "type": "way",
      "id": 458182364,
      "center": {
        "lat": 37.6555929,
        "lon": 138.9446482
      },
      "nodes": [
        4542206588,
        4542206587,
        4542206586,
        4542206585,
        4542206584,
        4542206583,
        4542206582,
        4542206581,
        4542206580,
        4542206579,
        4542206578,
        4542206577,
        4542206576,
        4542206575,
        4542206574,
        4542206573,
        4542206588
      ],
      "tags": {
        "building": "yes",
        "name": "チャレンジャー燕三条店",
        "shop": "supermarket"
      }
    },
    {
      "type": "way",
      "id": 459281264,
      "center": {
        "lat": 37.5469773,
        "lon": 138.8760757
      },
      "nodes": [
        4551739477,
        4551739476,
        4551739475,
        4551739474,
        4551739473,
        4551739472,
        4551739477
      ],
      "tags": {
        "building": "yes",
        "name": "マルイ中之島店",
        "shop": "supermarket"
      }
    },
    {
      "type": "way",
      "id": 463637068,
      "center": {
        "lat": 37.0430732,
        "lon": 137.8528046
      },
      "nodes": [
        4588923428,
        4588923427,
        4588923419,
        4588923426,
        4588923421,
        4588923422,
        4588923423,
        4588923424,
        4588923425,
        4588923420,
        4588923428
      ],
      "tags": {
        "branch": "横町店",
        "building": "yes",
        "name": "マルニハピー",
        "shop": "supermarket",
        "source": "GSImaps/std"
      }
    },
    {
      "type": "way",
      "id": 464477563,
      "center": {
        "lat": 37.785263,
        "lon": 139.1163447
      },
      "nodes": [
        4595784218,
        4595784219,
        4595784220,
        4595784221,
        4595784222,
        4595784223,
        4595784218
      ],
      "tags": {
        "building": "yes",
        "name": "原信新津店",
        "shop": "supermarket"
      }
    },
    {
      "type": "way",
      "id": 464477572,
      "center": {
        "lat": 37.8328424,
        "lon": 139.106239
      },
      "nodes": [
        4595784248,
        4595784249,
        4595784250,
        4595784251,
        4595784252,
        4595784253,
        4595784248
      ],
      "tags": {
        "building": "yes",
        "name": "ウオエイ荻川店",
        "shop": "supermarket"
      }
    },
    {
      "type": "way",
      "id": 464491337,
      "center": {
        "lat": 37.7951071,
        "lon": 139.1272369
      },
      "nodes": [
        4595902522,
        4595902523,
        4595902524,
        13161062311,
        4595902525,
        4595902526,
        4595902527,
        4595902528,
        4595902529,
        13161062310,
        13161062317,
        13161062309,
        4595902522
      ],
      "tags": {
        "building": "yes",
        "name": "ベルシティ新津（元長崎屋）",
        "shop": "supermarket"
      }
    },
    {
      "type": "way",
      "id": 464498985,
      "center": {
        "lat": 37.6213392,
        "lon": 138.9410634
      },
      "nodes": [
        4595978791,
        4595978792,
        4595978793,
        4595978794,
        4595978791
      ],
      "tags": {
        "building": "yes",
        "name": "マルイ 本成寺店",
        "shop": "supermarket"
      }
    },
    {
      "type": "way",
      "id": 464505754,
      "center": {
        "lat": 37.6153918,
        "lon": 138.9540222
      },
      "nodes": [
        4596056976,
        4596056977,
        4596056978,
        4596056979,
        4596056980,
        4596056981,
        4596056982,
        4596056983,
        4596056984,
        4596056985,
        4596056986,
        4596056987,
        4596056989,
        4596056990,
        4596056991,
        4596056988,
        4596056993,
        4596056992,
        4596056976
      ],
      "tags": {
        "building": "yes",
        "name": "原信 四日町店",
        "shop": "supermarket"
      }
    },
    {
      "type": "way",
      "id": 464505758,
      "center": {
        "lat": 37.6187214,
        "lon": 138.9608169
      },
      "nodes": [
        4596057008,
        4596057009,
        4596057010,
        4596057011,
        4596057008
      ],
      "tags": {
        "building": "yes",
        "name": "ウオロク 東新保店",
        "shop": "supermarket"
      }
    },
    {
      "type": "way",
      "id": 464505763,
      "center": {
        "lat": 37.6391011,
        "lon": 138.9562013
      },
      "nodes": [
        4596057044,
        4596057045,
        4596057046,
        4596057047,
        4596057048,
        4596057049,
        4596057050,
        4596057051,
        4596057052,
        4596057053,
        4596057044
      ],
      "tags": {
        "branch": "三条店",
        "brand": "イオン",
        "brand:en": "AEON",
        "brand:ja": "イオン",
        "brand:wikidata": "Q11285951",
        "building": "yes",
        "name": "イオン",
        "name:en": "AEON",
        "name:ja": "イオン",
        "shop": "supermarket"
      }
    },
    {
      "type": "way",
      "id": 464559849,
      "center": {
        "lat": 37.8755711,
        "lon": 139.1124286
      },
      "nodes": [
        4596565661,
        4596565662,
        4596565663,
        4596565664,
        4596565661
      ],
      "tags": {
        "building": "yes",
        "name": "ウオエイ亀田店",
        "shop": "supermarket"
      }
    },
    {
      "type": "way",
      "id": 464651407,
      "center": {
        "lat": 37.9215185,
        "lon": 139.2213775
      },
      "nodes": [
        4597362290,
        4597362291,
        4597362292,
        4597362293,
        4597362294,
        4597362295,
        4597362296,
        4597362297,
        4597362290
      ],
      "tags": {
        "building": "yes",
        "name": "ウオロク葛塚店",
        "shop": "supermarket"
      }
    },
    {
      "type": "way",
      "id": 464651425,
      "center": {
        "lat": 37.9177032,
        "lon": 139.2173634
      },
      "nodes": [
        4597362444,
        4597362445,
        4597362446,
        4597362447,
        4597362444
      ],
      "tags": {
        "building": "yes",
        "name": "三和",
        "shop": "supermarket"
      }
    },
    {
      "type": "way",
      "id": 464651434,
      "center": {
        "lat": 37.9149131,
        "lon": 139.2136003
      },
      "nodes": [
        4597362505,
        4597362506,
        4597362507,
        4597362508,
        4597362505
      ],
      "tags": {
        "building": "yes",
        "name": "キューピット 豊栄店",
        "shop": "supermarket"
      }
    },
    {
      "type": "way",
      "id": 464651485,
      "center": {
        "lat": 37.9223836,
        "lon": 139.1836014
      },
      "nodes": [
        4597362773,
        4597362774,
        4639384771,
        4639384770,
        4597362775,
        4597362776,
        4597362773
      ],
      "tags": {
        "building": "yes",
        "name": "キューピット 早通店",
        "shop": "supermarket"
      }
    },
    {
      "type": "way",
      "id": 466052993,
      "center": {
        "lat": 37.6380906,
        "lon": 138.9528891
      },
      "nodes": [
        4609444772,
        4609444773,
        4609444774,
        4609444775,
        4609444776,
        4609444777,
        4609444778,
        4609444779,
        4609444772
      ],
      "tags": {
        "building": "yes",
        "name": "スーパーマルセン 荒町店",
        "shop": "supermarket"
      }
    },
    {
      "type": "way",
      "id": 466364051,
      "center": {
        "lat": 37.6017543,
        "lon": 138.9582716
      },
      "nodes": [
        4611720269,
        4611720270,
        4611720271,
        4611720272,
        4611720273,
        4611720269
      ],
      "tags": {
        "building": "yes",
        "name": "(株)あいでん 南店",
        "shop": "supermarket"
      }
    },
    {
      "type": "way",
      "id": 467680915,
      "center": {
        "lat": 37.9488116,
        "lon": 139.1503321
      },
      "nodes": [
        4623051315,
        4623051316,
        4623051317,
        4623051318,
        4623051319,
        4623051320,
        4623051321,
        4623051322,
        4623051315
      ],
      "tags": {
        "building": "yes",
        "name": "ウオロク 松浜店",
        "shop": "supermarket"
      }
    },
    {
      "type": "way",
      "id": 468416826,
      "center": {
        "lat": 37.9476365,
        "lon": 139.1454814
      },
      "nodes": [
        4629512307,
        4629512308,
        4629512309,
        4629512310,
        4629512311,
        4629512312,
        4629512307
      ],
      "tags": {
        "building": "yes",
        "name": "キューピット 松浜店",
        "shop": "supermarket"
      }
    },
    {
      "type": "way",
      "id": 470694178,
      "center": {
        "lat": 37.8361146,
        "lon": 139.2261425
      },
      "nodes": [
        4648724086,
        4648724189,
        10031211850,
        10031211849,
        10031211847,
        10031211845,
        10031211844,
        10031211846,
        10031211848,
        10031211851,
        4648724190,
        4648724191,
        4648724192,
        4648724193,
        4648724194,
        4648724195,
        4648724086
      ],
      "tags": {
        "building": "yes",
        "shop": "supermarket"
      }
    },
    {
      "type": "way",
      "id": 483065819,
      "center": {
        "lat": 37.9244192,
        "lon": 139.0963971
      },
      "nodes": [
        4758199948,
        4758199947,
        4758199946,
        4758199945,
        4758199948
      ],
      "tags": {
        "building": "yes",
        "name": "ウオロク 牡丹山店",
        "shop": "supermarket"
      }
    },
    {
      "type": "way",
      "id": 487909365,
      "center": {
        "lat": 37.8993736,
        "lon": 139.0581334
      },
      "nodes": [
        4802976998,
        12619932670,
        12619932671,
        12619932676,
        12619932675,
        12619932674,
        12619932673,
        12619932672,
        4802976997,
        4802976996,
        4802976995,
        4802976994,
        12619932667,
        12619932668,
        12619932669,
        4802976998
      ],
      "tags": {
        "building": "yes",
        "name": "ウオロク 神道寺店",
        "shop": "supermarket"
      }
    },
    {
      "type": "way",
      "id": 544011134,
      "center": {
        "lat": 37.9338108,
        "lon": 139.096758
      },
      "nodes": [
        5258755697,
        8945242254,
        5258755698,
        8945242255,
        8945242256,
        5258755699,
        5258755702,
        5258755703,
        5258755704,
        5258755705,
        5258755707,
        8945242253,
        5258755697
      ],
      "tags": {
        "building": "yes",
        "name": "イオン藤見店",
        "shop": "supermarket"
      }
    },
    {
      "type": "way",
      "id": 544047543,
      "center": {
        "lat": 37.9471793,
        "lon": 139.1001577
      },
      "nodes": [
        5259094365,
        5259094366,
        5259094367,
        5259094368,
        5259094369,
        5259094370,
        5259094371,
        5259094372,
        5259094373,
        5259094374,
        5259094375,
        5259094365
      ],
      "tags": {
        "building": "yes",
        "shop": "supermarket"
      }
    },
    {
      "type": "way",
      "id": 560512731,
      "center": {
        "lat": 37.1091694,
        "lon": 138.2740968
      },
      "nodes": [
        5405456462,
        5405456463,
        5405456464,
        5405456465,
        5405456462
      ],
      "tags": {
        "building": "yes",
        "shop": "supermarket"
      }
    },
    {
      "type": "way",
      "id": 560518328,
      "center": {
        "lat": 37.160183,
        "lon": 138.2283345
      },
      "nodes": [
        5405511676,
        5405511677,
        5405511678,
        5405511679,
        7779630334,
        7779630335,
        5405511680,
        5405511681,
        5405511676
      ],
      "tags": {
        "building": "yes",
        "name": "ナルス 国府店",
        "shop": "supermarket"
      }
    },
    {
      "type": "way",
      "id": 562741317,
      "center": {
        "lat": 37.1530241,
        "lon": 138.2616182
      },
      "nodes": [
        5424566885,
        5424566886,
        5424566887,
        5424566888,
        5424566885
      ],
      "tags": {
        "branch": "上越インター店",
        "brand": "業務スーパー",
        "brand:en": "Gyomu Super",
        "brand:ja": "業務スーパー",
        "brand:ja-Latn": "Gyōmu sūpā",
        "brand:wikidata": "Q105687460",
        "building": "retail",
        "name": "業務スーパー",
        "name:en": "Gyomu Super",
        "name:ja": "業務スーパー",
        "name:ja-Latn": "Gyōmu sūpā",
        "shop": "supermarket"
      }
    },
    {
      "type": "way",
      "id": 584424989,
      "center": {
        "lat": 37.9446664,
        "lon": 139.3006314
      },
      "nodes": [
        5586485503,
        5586485502,
        5586485501,
        5586485500,
        5586485499,
        5586485498,
        5586485497,
        5586485496,
        5586485495,
        5586485494,
        5586485493,
        5586485492,
        5586485503
      ],
      "tags": {
        "building": "yes",
        "name": "原信",
        "shop": "supermarket"
      }
    },
    {
      "type": "way",
      "id": 584716822,
      "center": {
        "lat": 37.9561339,
        "lon": 139.3356955
      },
      "nodes": [
        5588699247,
        5588699236,
        5588699246,
        5588699245,
        5588699244,
        5588699243,
        5588699242,
        5588699241,
        5588699240,
        5588699239,
        5588699238,
        5588699247
      ],
      "tags": {
        "building": "yes",
        "name": "ウオロク緑店",
        "shop": "supermarket"
      }
    },
    {
      "type": "way",
      "id": 584896061,
      "center": {
        "lat": 37.9470736,
        "lon": 139.3145505
      },
      "nodes": [
        5590245296,
        5590245295,
        5590245294,
        5590245293,
        5590245296
      ],
      "tags": {
        "building": "yes",
        "name": "ウオロク住吉店",
        "shop": "supermarket"
      }
    },
    {
      "type": "way",
      "id": 601752964,
      "center": {
        "lat": 37.1685507,
        "lon": 138.2359703
      },
      "nodes": [
        5718103741,
        5718103742,
        5718103743,
        5718103744,
        5718103741
      ],
      "tags": {
        "building": "yes",
        "name": "イチコ直江津西店",
        "shop": "supermarket"
      }
    },
    {
      "type": "way",
      "id": 624392455,
      "center": {
        "lat": 37.4302649,
        "lon": 138.8619983
      },
      "nodes": [
        5896227796,
        5896227797,
        5896227798,
        5896227799,
        5896227796
      ],
      "tags": {
        "building": "yes",
        "name": "原信 花園店",
        "shop": "supermarket"
      }
    },
    {
      "type": "way",
      "id": 624615290,
      "center": {
        "lat": 37.443743,
        "lon": 138.8667706
      },
      "nodes": [
        5898353177,
        5898353178,
        5898353179,
        5898353180,
        5898353181,
        5898353182,
        5898353177
      ],
      "tags": {
        "building": "yes",
        "name": "原信 美沢店",
        "name:en": "Harashin",
        "name:ja-Hira": "はらしん みさわてん",
        "name:ja-Latn": "Harashin Misawa-ten",
        "shop": "supermarket"
      }
    },
    {
      "type": "way",
      "id": 624679682,
      "center": {
        "lat": 37.4350826,
        "lon": 138.847476
      },
      "nodes": [
        5898869619,
        5898869620,
        5898869621,
        5898869622,
        5898869623,
        5898869624,
        5898869625,
        5898869626,
        5898869627,
        5898869628,
        5898869629,
        5898869630,
        5898869619
      ],
      "tags": {
        "building": "yes",
        "name": "原信 シビックコア店",
        "shop": "supermarket"
      }
    },
    {
      "type": "way",
      "id": 624679714,
      "center": {
        "lat": 37.426923,
        "lon": 138.8401886
      },
      "nodes": [
        5898870043,
        5898870044,
        5898870045,
        5898870046,
        5898870047,
        5898870048,
        5898870049,
        5898870050,
        5898870051,
        5898870052,
        5898870053,
        5898870043
      ],
      "tags": {
        "building": "yes",
        "name": "ウオロク 要町店",
        "shop": "supermarket"
      }
    },
    {
      "type": "way",
      "id": 624729433,
      "center": {
        "lat": 37.4379563,
        "lon": 138.8596197
      },
      "nodes": [
        5899386546,
        5899386547,
        5899386548,
        5899386549,
        5899386550,
        5899386551,
        5899386552,
        5899386546
      ],
      "tags": {
        "building": "yes",
        "name": "マルイ 長岡学校町店",
        "shop": "supermarket"
      }
    },
    {
      "type": "way",
      "id": 625030166,
      "center": {
        "lat": 37.4509392,
        "lon": 138.8401056
      },
      "nodes": [
        5901459081,
        5901459082,
        5901459083,
        5901459084,
        5901459085,
        5901459086,
        5901459087,
        5901459088,
        5901459089,
        5901459090,
        5901459091,
        5901459092,
        5901459093,
        5901459094,
        5901459095,
        9302083110,
        5901459081
      ],
      "tags": {
        "building": "yes",
        "name": "ウオロク 長岡店",
        "shop": "supermarket"
      }
    },
    {
      "type": "way",
      "id": 639413185,
      "center": {
        "lat": 37.013777,
        "lon": 138.6534478
      },
      "nodes": [
        6025063353,
        6025063354,
        6025063355,
        6025063356,
        6025063353
      ],
      "tags": {
        "building": "yes",
        "name": "メルシー　大割野店",
        "shop": "supermarket"
      }
    },
    {
      "type": "way",
      "id": 639732188,
      "center": {
        "lat": 37.0239551,
        "lon": 138.6620191
      },
      "nodes": [
        6027603180,
        6027603181,
        6027603182,
        6027603183,
        6027603180
      ],
      "tags": {
        "building": "yes",
        "building:levels": "1",
        "name": "清水フード　メルシーつなん",
        "shop": "supermarket"
      }
    },
    {
      "type": "way",
      "id": 639889349,
      "center": {
        "lat": 37.6833792,
        "lon": 138.8803779
      },
      "nodes": [
        6028837007,
        6028837008,
        6028837009,
        6028837010,
        6028837011,
        6028837012,
        6028837007
      ],
      "tags": {
        "building": "yes",
        "name": "LAMU",
        "shop": "supermarket"
      }
    },
    {
      "type": "way",
      "id": 639889416,
      "center": {
        "lat": 37.6812898,
        "lon": 138.8788578
      },
      "nodes": [
        6028836850,
        6028836851,
        6028836852,
        6028836853,
        6028836850
      ],
      "tags": {
        "building": "yes",
        "name": "原信",
        "shop": "supermarket"
      }
    },
    {
      "type": "way",
      "id": 639890151,
      "center": {
        "lat": 37.6749571,
        "lon": 138.8765884
      },
      "nodes": [
        6028842609,
        6028842610,
        6028842611,
        6028842612,
        6028842609
      ],
      "tags": {
        "building": "yes",
        "name": "ウオロク",
        "shop": "supermarket"
      }
    },
    {
      "type": "way",
      "id": 653539986,
      "center": {
        "lat": 37.9516985,
        "lon": 139.3248407
      },
      "nodes": [
        6124747036,
        6124747035,
        6124747034,
        6124747033,
        6124747036
      ],
      "tags": {
        "building": "yes",
        "name": "タカマツストアー",
        "shop": "supermarket"
      }
    },
    {
      "type": "way",
      "id": 654464898,
      "center": {
        "lat": 37.8533479,
        "lon": 138.9405946
      },
      "nodes": [
        6132587105,
        6132587106,
        6132587107,
        6132587108,
        6132587105
      ],
      "tags": {
        "building": "yes",
        "name": "ウオロク内野店",
        "shop": "supermarket"
      }
    },
    {
      "type": "way",
      "id": 656250118,
      "center": {
        "lat": 37.9490498,
        "lon": 139.297319
      },
      "nodes": [
        6147666720,
        6147666719,
        6147666718,
        6147666717,
        6147666716,
        6147666715,
        6147666720
      ],
      "tags": {
        "building": "yes",
        "name": "チャレンジャー",
        "shop": "supermarket"
      }
    },
    {
      "type": "way",
      "id": 656792822,
      "center": {
        "lat": 38.2185755,
        "lon": 139.4758981
      },
      "nodes": [
        6152145225,
        6152145224,
        6152145223,
        6152145222,
        6152145221,
        6152145220,
        6152145225
      ],
      "tags": {
        "building": "yes",
        "name": "YZマート",
        "shop": "supermarket"
      }
    },
    {
      "type": "way",
      "id": 656793083,
      "center": {
        "lat": 38.225484,
        "lon": 139.4691399
      },
      "nodes": [
        6152147391,
        6152147390,
        6152147389,
        6152147388,
        6152147387,
        6152147386,
        6152147391
      ],
      "tags": {
        "building": "yes",
        "name": "AEON",
        "shop": "supermarket"
      }
    },
    {
      "type": "way",
      "id": 657142671,
      "center": {
        "lat": 37.837625,
        "lon": 139.2665859
      },
      "nodes": [
        6155025617,
        6155025616,
        6155025615,
        6155025614,
        6155025617
      ],
      "tags": {
        "building": "yes",
        "name": "食鮮館 名古屋",
        "shop": "supermarket"
      }
    },
    {
      "type": "way",
      "id": 657142715,
      "center": {
        "lat": 37.7738248,
        "lon": 139.2281472
      },
      "nodes": [
        6155025943,
        6155025942,
        6155025941,
        6155025940,
        6155025939,
        6155025938,
        6155025943
      ],
      "tags": {
        "building": "yes",
        "name": "ひらせい",
        "shop": "supermarket"
      }
    },
    {
      "type": "way",
      "id": 657142809,
      "center": {
        "lat": 37.8784182,
        "lon": 139.311487
      },
      "nodes": [
        6155026618,
        6155026617,
        6155026616,
        6155026615,
        6155026618
      ],
      "tags": {
        "building": "yes",
        "name": "長岡屋",
        "shop": "supermarket"
      }
    },
    {
      "type": "way",
      "id": 664321837,
      "center": {
        "lat": 37.0242437,
        "lon": 137.8528617
      },
      "nodes": [
        6217866400,
        6217866397,
        6217866396,
        6217866393,
        6217866394,
        6217866395,
        6217866398,
        6217866399,
        6217866400
      ],
      "tags": {
        "building": "yes",
        "name": "食良品館 糸魚川店",
        "opening_hours": "10:00-19:20",
        "shop": "supermarket"
      }
    },
    {
      "type": "way",
      "id": 671423984,
      "center": {
        "lat": 37.0412396,
        "lon": 137.8474788
      },
      "nodes": [
        6287608445,
        6287608449,
        6287608452,
        6287608451,
        6287608450,
        6287608448,
        6287608446,
        6287608447,
        6287608444,
        6287608442,
        6287608441,
        6287608443,
        6287608445
      ],
      "tags": {
        "building": "yes",
        "name": "イチコスーパー 糸魚川店",
        "shop": "supermarket",
        "source": "Itoigawa ortho"
      }
    },
    {
      "type": "way",
      "id": 676260123,
      "center": {
        "lat": 38.0048106,
        "lon": 138.3317239
      },
      "nodes": [
        6333142853,
        6333142854,
        6333142855,
        6333142856,
        6333142857,
        6333142853
      ],
      "tags": {
        "building": "yes",
        "name": "キング",
        "shop": "supermarket",
        "source": "survey;MLIT Japan"
      }
    },
    {
      "type": "way",
      "id": 676718832,
      "center": {
        "lat": 38.0139217,
        "lon": 138.3531288
      },
      "nodes": [
        6337023685,
        6337023686,
        6337023687,
        6337023688,
        6337023685
      ],
      "tags": {
        "building": "yes",
        "name": "フレッシュ・マツヤ",
        "shop": "supermarket",
        "source": "local knowledge;MLIT Japan"
      }
    },
    {
      "type": "way",
      "id": 677102726,
      "center": {
        "lat": 38.0210019,
        "lon": 138.3642162
      },
      "nodes": [
        6340200866,
        10790189771,
        6340200867,
        6340200868,
        6340200869,
        10790189770,
        6340200866
      ],
      "tags": {
        "brand": "エーコープ",
        "brand:en": "A-COOP",
        "brand:ja": "エーコープ",
        "brand:wikidata": "Q11291524",
        "building": "yes",
        "name": "エーコープ",
        "name:en": "A-COOP",
        "name:ja": "エーコープ",
        "organic": "only",
        "shop": "supermarket",
        "source": "survey;MLIT Japan"
      }
    },
    {
      "type": "way",
      "id": 682477536,
      "center": {
        "lat": 38.0144102,
        "lon": 138.4156537
      },
      "nodes": [
        6391420601,
        6391420602,
        6391420603,
        6391420604,
        6391420601
      ],
      "tags": {
        "building": "yes",
        "check_date": "2025-01-03",
        "name": "Aコープ",
        "shop": "supermarket"
      }
    },
    {
      "type": "way",
      "id": 682556494,
      "center": {
        "lat": 38.0333107,
        "lon": 138.2399832
      },
      "nodes": [
        6392167658,
        6392167659,
        6392167660,
        6392167661,
        6392167662,
        6392167663,
        6392167658
      ],
      "tags": {
        "building": "yes",
        "name": "キング",
        "shop": "supermarket"
      }
    },
    {
      "type": "way",
      "id": 686243278,
      "center": {
        "lat": 38.08007,
        "lon": 138.4172454
      },
      "nodes": [
        6432171314,
        6432171315,
        6432171316,
        6432171317,
        6432171314
      ],
      "tags": {
        "building": "yes",
        "name": "フレッシュ・マツヤ",
        "shop": "supermarket"
      }
    },
    {
      "type": "way",
      "id": 692412403,
      "center": {
        "lat": 37.460374,
        "lon": 138.8225571
      },
      "nodes": [
        6499667821,
        6499667822,
        6499667823,
        6499667824,
        6499667825,
        6499667826,
        6499667827,
        6499667828,
        6499667829,
        6499667830,
        6499667821
      ],
      "tags": {
        "addr:block_number": "7",
        "addr:city": "長岡市寺島町",
        "addr:housenumber": "1",
        "addr:postcode": "940-2101",
        "addr:province": "新潟県",
        "building": "yes",
        "name": "原信 寺島店",
        "shop": "supermarket"
      }
    },
    {
      "type": "way",
      "id": 713632083,
      "center": {
        "lat": 37.6809372,
        "lon": 139.0595213
      },
      "nodes": [
        6709637954,
        6709637951,
        6709637952,
        6709637953,
        6709637954
      ],
      "tags": {
        "branch": "田上店",
        "building": "yes",
        "name": "SAITO ピアレマード",
        "shop": "supermarket"
      }
    },
    {
      "type": "way",
      "id": 722506988,
      "center": {
        "lat": 37.874405,
        "lon": 138.9581706
      },
      "nodes": [
        6777199821,
        6777199822,
        6777199823,
        6777199824,
        10788116834,
        10788116837,
        10788116836,
        10788116835,
        6777199825,
        10788116841,
        10788116838,
        10788116839,
        6777199826,
        6777199821
      ],
      "tags": {
        "building": "yes",
        "name": "原信 五十嵐東店",
        "opening_hours": "Mo-Su 09:00-24:00",
        "shop": "supermarket"
      }
    },
    {
      "type": "way",
      "id": 729106305,
      "center": {
        "lat": 37.7511451,
        "lon": 139.1788266
      },
      "nodes": [
        6830921573,
        6830921572,
        6830921571,
        6830921570,
        6830921573
      ],
      "tags": {
        "building": "yes",
        "name": "CUPID",
        "shop": "supermarket"
      }
    },
    {
      "type": "way",
      "id": 729106309,
      "center": {
        "lat": 37.7496148,
        "lon": 139.1852827
      },
      "nodes": [
        6830928003,
        6830928002,
        6830928001,
        6830928000,
        6830927999,
        6830927998,
        6830927997,
        6830927996,
        6830928003
      ],
      "tags": {
        "building": "yes",
        "name": "ひらせい食良品館",
        "shop": "supermarket"
      }
    },
    {
      "type": "way",
      "id": 729106377,
      "center": {
        "lat": 37.7432984,
        "lon": 139.1839917
      },
      "nodes": [
        6830928207,
        6830928206,
        6830928205,
        6830928204,
        6830928203,
        6830928202,
        6830928207
      ],
      "tags": {
        "building": "yes",
        "name": "原信",
        "shop": "supermarket"
      }
    },
    {
      "type": "way",
      "id": 729106543,
      "center": {
        "lat": 37.6964881,
        "lon": 139.1887711
      },
      "nodes": [
        6830928828,
        6830928827,
        6830928826,
        6830928825,
        6830928828
      ],
      "tags": {
        "building": "yes",
        "name": "SAITOピアレマート",
        "shop": "supermarket"
      }
    },
    {
      "type": "way",
      "id": 729106569,
      "center": {
        "lat": 37.6993292,
        "lon": 139.1744513
      },
      "nodes": [
        6830928979,
        6830928978,
        6830928977,
        6830928976,
        6830928979
      ],
      "tags": {
        "building": "yes",
        "name": "SAITOピアレマート",
        "shop": "supermarket"
      }
    },
    {
      "type": "way",
      "id": 729432779,
      "center": {
        "lat": 37.7390094,
        "lon": 139.1812856
      },
      "nodes": [
        6833674425,
        6833674424,
        6833674423,
        6833674422,
        6833674421,
        6833674418,
        6833674425
      ],
      "tags": {
        "building": "yes",
        "name": "新鮮市場 ベアーズ",
        "shop": "supermarket"
      }
    },
    {
      "type": "way",
      "id": 729432810,
      "center": {
        "lat": 37.7401267,
        "lon": 139.1801691
      },
      "nodes": [
        6833679912,
        6833679911,
        6833679910,
        6833679909,
        6833679908,
        6833679907,
        6833679906,
        6833679905,
        6833679900,
        6833679904,
        6833679901,
        6833679903,
        6833679902,
        6833679912
      ],
      "tags": {
        "building": "yes",
        "name": "CUPID",
        "shop": "supermarket"
      }
    },
    {
      "type": "way",
      "id": 736849761,
      "center": {
        "lat": 37.7547498,
        "lon": 139.0710522
      },
      "nodes": [
        6898670787,
        6898670786,
        6898670785,
        6898670784,
        6898670787
      ],
      "tags": {
        "building": "yes",
        "name": "にいつフードセンター",
        "shop": "supermarket"
      }
    },
    {
      "type": "way",
      "id": 736945452,
      "center": {
        "lat": 37.6767775,
        "lon": 139.4584438
      },
      "nodes": [
        6899544451,
        6899544450,
        6899544449,
        6899544448,
        6899544447,
        6899544446,
        6899544445,
        6899544444,
        6899544451
      ],
      "tags": {
        "building": "yes",
        "name": "かわちや",
        "shop": "supermarket"
      }
    },
    {
      "type": "way",
      "id": 739007761,
      "center": {
        "lat": 37.8847812,
        "lon": 139.0315344
      },
      "nodes": [
        6919532273,
        6919532272,
        12724791225,
        12724791224,
        6919532271,
        12724791226,
        12724791227,
        12724791228,
        6919532270,
        12724791234,
        12724791233,
        12724791232,
        12724791231,
        12724791230,
        12724791229,
        6919532273
      ],
      "tags": {
        "building": "yes",
        "name": "ウオロク",
        "shop": "supermarket"
      }
    },
    {
      "type": "way",
      "id": 739007776,
      "center": {
        "lat": 37.891404,
        "lon": 139.0396358
      },
      "nodes": [
        6919532358,
        6919532357,
        6919532356,
        6919532355,
        6919532354,
        6919532353,
        6919532358
      ],
      "tags": {
        "building": "yes",
        "name": "ウオロク",
        "shop": "supermarket"
      }
    },
    {
      "type": "way",
      "id": 740735222,
      "center": {
        "lat": 37.8795072,
        "lon": 139.1031704
      },
      "nodes": [
        6935084474,
        6935084473,
        6935084472,
        6935084471,
        6935084470,
        6935084469,
        6935084468,
        6935084467,
        6935084466,
        6935084465,
        6935084464,
        6935084463,
        6935084474
      ],
      "tags": {
        "building": "yes",
        "name": "ウオロク",
        "shop": "supermarket"
      }
    },
    {
      "type": "way",
      "id": 740735257,
      "center": {
        "lat": 37.8696952,
        "lon": 139.1087885
      },
      "nodes": [
        6935084563,
        6935084562,
        6935084561,
        6935084560,
        6935084563
      ],
      "tags": {
        "building": "yes",
        "name": "キューピット",
        "shop": "supermarket"
      }
    },
    {
      "type": "way",
      "id": 740735268,
      "center": {
        "lat": 37.8719078,
        "lon": 139.0971887
      },
      "nodes": [
        6935084622,
        6935084621,
        6935084620,
        6935084619,
        6935084618,
        6935084617,
        6935084622
      ],
      "tags": {
        "building": "yes",
        "shop": "supermarket"
      }
    },
    {
      "type": "way",
      "id": 744150355,
      "center": {
        "lat": 37.9380193,
        "lon": 139.190976
      },
      "nodes": [
        6964611892,
        6964611891,
        6964611890,
        6964611889,
        6964611888,
        6964611887,
        6964611886,
        6964611885,
        6964611884,
        6964611883,
        6964611892
      ],
      "tags": {
        "building": "yes",
        "name": "スーパー尾山",
        "shop": "supermarket"
      }
    },
    {
      "type": "way",
      "id": 744406977,
      "center": {
        "lat": 37.8405619,
        "lon": 139.187866
      },
      "nodes": [
        6967063260,
        6967063259,
        6967063258,
        6967063257,
        6967063256,
        6967063255,
        6967063254,
        6967063253,
        6967063260
      ],
      "tags": {
        "building": "yes",
        "name": "スーパーひまわり",
        "shop": "supermarket"
      }
    },
    {
      "type": "way",
      "id": 744406983,
      "center": {
        "lat": 37.8395478,
        "lon": 139.182128
      },
      "nodes": [
        6967076799,
        6967076798,
        6967076797,
        6967076796,
        6967076795,
        6967076794,
        6967076799
      ],
      "tags": {
        "building": "yes",
        "name": "業務スーパー",
        "shop": "supermarket"
      }
    },
    {
      "type": "way",
      "id": 744407139,
      "center": {
        "lat": 37.8253165,
        "lon": 139.2253896
      },
      "nodes": [
        6967077989,
        6967077988,
        6967077987,
        6967077986,
        6967077985,
        6967077984,
        6967077983,
        6967077982,
        6967077981,
        6967077980,
        6967077979,
        6967077978,
        6967077977,
        6967077976,
        6967077975,
        6967077974,
        6967077989
      ],
      "tags": {
        "building": "yes",
        "name": "原信",
        "shop": "supermarket"
      }
    },
    {
      "type": "way",
      "id": 744407159,
      "center": {
        "lat": 37.8205904,
        "lon": 139.2261301
      },
      "nodes": [
        6967078145,
        6967078144,
        6967078143,
        6967078142,
        6967078141,
        6967078140,
        6967078139,
        6967078138,
        6967078137,
        6967078136,
        6967078135,
        6967078134,
        6967078133,
        6967078132,
        6967078131,
        6967078130,
        6967078129,
        6967078128,
        6967078127,
        6967078126,
        6967078145
      ],
      "tags": {
        "building": "yes",
        "name": "ウオロク",
        "shop": "supermarket"
      }
    },
    {
      "type": "way",
      "id": 744674918,
      "center": {
        "lat": 37.8699841,
        "lon": 139.1217414
      },
      "nodes": [
        6969616471,
        6969616470,
        6969616469,
        6969616468,
        6969616467,
        6969616466,
        6969616465,
        6969616464,
        6969616471
      ],
      "tags": {
        "building": "yes",
        "name": "キューピット",
        "shop": "supermarket"
      }
    },
    {
      "type": "way",
      "id": 744674975,
      "center": {
        "lat": 37.85961,
        "lon": 139.1427979
      },
      "nodes": [
        6969616930,
        6969616929,
        6969616928,
        6969616927,
        6969616930
      ],
      "tags": {
        "building": "yes",
        "name": "ひらせい生鮮広場",
        "shop": "supermarket"
      }
    },
    {
      "type": "way",
      "id": 744674976,
      "center": {
        "lat": 37.8598229,
        "lon": 139.1426661
      },
      "nodes": [
        6969616940,
        6969616939,
        6969616938,
        6969616937,
        6969616936,
        6969616935,
        6969616934,
        6969616933,
        6969616932,
        6969616931,
        6969616940
      ],
      "tags": {
        "building": "yes",
        "name": "ひらせい食良品館",
        "shop": "supermarket"
      }
    },
    {
      "type": "way",
      "id": 760444109,
      "center": {
        "lat": 38.2200716,
        "lon": 139.4615214
      },
      "nodes": [
        7103815958,
        7103815957,
        7103815956,
        7103815955,
        7103815958
      ],
      "tags": {
        "building": "yes",
        "name": "原信",
        "shop": "supermarket"
      }
    },
    {
      "type": "way",
      "id": 760531403,
      "center": {
        "lat": 38.0534385,
        "lon": 139.4084851
      },
      "nodes": [
        7104784926,
        7104784925,
        7104784924,
        7104784923,
        7104784922,
        7104784921,
        7104784920,
        7104784919,
        7104784926
      ],
      "tags": {
        "building": "yes",
        "name": "イオンスタイル",
        "shop": "supermarket"
      }
    },
    {
      "type": "way",
      "id": 768486377,
      "center": {
        "lat": 37.4682172,
        "lon": 138.8300468
      },
      "nodes": [
        7174591032,
        7174591033,
        7174591034,
        7174591035,
        7174591036,
        7174591037,
        7174591032
      ],
      "tags": {
        "building": "yes",
        "name": "原信　宮関店",
        "shop": "supermarket"
      }
    },
    {
      "type": "way",
      "id": 781781130,
      "center": {
        "lat": 37.6358257,
        "lon": 138.9535201
      },
      "nodes": [
        7299090813,
        7299090814,
        7299090815,
        7299090816,
        7299090813
      ],
      "tags": {
        "building": "yes",
        "name": "リオンドール 北三条店",
        "shop": "supermarket"
      }
    },
    {
      "type": "way",
      "id": 802155375,
      "center": {
        "lat": 37.4458575,
        "lon": 138.8070806
      },
      "nodes": [
        7503260313,
        7503260314,
        7503260315,
        7503260316,
        7503260313
      ],
      "tags": {
        "building": "retail",
        "name": "原信 七日町店",
        "name:en": "Harashin",
        "name:ja-Hira": "はらしん なのかまちてん",
        "name:ja-Latn": "Harashin Nanokamachi-ten",
        "shop": "supermarket"
      }
    },
    {
      "type": "way",
      "id": 802354445,
      "center": {
        "lat": 36.8781317,
        "lon": 138.2105457
      },
      "nodes": [
        7505199239,
        7505199240,
        7505199241,
        7505199242,
        7505199243,
        7505199239
      ],
      "tags": {
        "building": "yes",
        "name": "第一スーパー 妙高店",
        "shop": "supermarket"
      }
    },
    {
      "type": "way",
      "id": 803401216,
      "center": {
        "lat": 37.7712546,
        "lon": 139.019773
      },
      "nodes": [
        7515192343,
        7515192342,
        7515192341,
        7515192340,
        7515192343
      ],
      "tags": {
        "building": "yes",
        "name": "にいつフードセンター",
        "shop": "supermarket"
      }
    },
    {
      "type": "way",
      "id": 803401218,
      "center": {
        "lat": 37.7765314,
        "lon": 139.0169942
      },
      "nodes": [
        7515192368,
        7515192367,
        7515192366,
        7515192365,
        7515192364,
        7515192363,
        7515192362,
        7515192361,
        7515192368
      ],
      "tags": {
        "building": "yes",
        "name": "ウオエイ",
        "shop": "supermarket"
      }
    },
    {
      "type": "way",
      "id": 803401256,
      "center": {
        "lat": 37.7633933,
        "lon": 139.0144649
      },
      "nodes": [
        7515192561,
        7515192560,
        7515192559,
        7515192558,
        7515192561
      ],
      "tags": {
        "building": "yes",
        "name": "リオン・ドール白根店",
        "shop": "supermarket"
      }
    },
    {
      "type": "way",
      "id": 834207726,
      "center": {
        "lat": 37.6978551,
        "lon": 138.8808253
      },
      "nodes": [
        7787306439,
        7787306438,
        7787306437,
        7787306436,
        7787306435,
        7787306434,
        7787306433,
        7787306432,
        7787306439
      ],
      "tags": {
        "building": "yes",
        "name": "マルイ",
        "shop": "supermarket"
      }
    },
    {
      "type": "way",
      "id": 851988593,
      "center": {
        "lat": 37.665436,
        "lon": 139.0380521
      },
      "nodes": [
        7947259266,
        7947259265,
        7947259264,
        7947259263,
        7947259262,
        7947259261,
        7947259260,
        7947259259,
        7947259266
      ],
      "tags": {
        "building": "yes",
        "name": "にいつフードセンター",
        "shop": "supermarket"
      }
    },
    {
      "type": "way",
      "id": 851988597,
      "center": {
        "lat": 37.6583028,
        "lon": 139.0423606
      },
      "nodes": [
        7947274192,
        7947274191,
        7947274190,
        7947274189,
        7947274188,
        7947274187,
        7947274186,
        7947274185,
        7947259284,
        7947259283,
        7947274192
      ],
      "tags": {
        "building": "yes",
        "name": "リオンドール",
        "shop": "supermarket"
      }
    },
    {
      "type": "way",
      "id": 851988644,
      "center": {
        "lat": 37.6571514,
        "lon": 139.0607927
      },
      "nodes": [
        7947274525,
        7947274524,
        7947274523,
        7947274522,
        7947274525
      ],
      "tags": {
        "building": "yes",
        "name": "玉木フードセンター",
        "shop": "supermarket"
      }
    },
    {
      "type": "way",
      "id": 851988647,
      "center": {
        "lat": 37.6577826,
        "lon": 139.059457
      },
      "nodes": [
        7947274537,
        7947274536,
        7947274535,
        7947274534,
        7947274537
      ],
      "tags": {
        "building": "yes",
        "name": "にいつフードセンター",
        "shop": "supermarket"
      }
    },
    {
      "type": "way",
      "id": 854404462,
      "center": {
        "lat": 37.5360845,
        "lon": 138.8161035
      },
      "nodes": [
        7967929138,
        7967929137,
        7967929136,
        7967929135,
        7967929138
      ],
      "tags": {
        "building": "yes",
        "name": "マルイ",
        "shop": "supermarket"
      }
    },
    {
      "type": "way",
      "id": 908668608,
      "center": {
        "lat": 37.8180186,
        "lon": 139.0201002
      },
      "nodes": [
        8437264925,
        8437264926,
        8437264927,
        8437264928,
        8437264929,
        8437264937,
        8437264930,
        8437264925
      ],
      "tags": {
        "addr:block_number": "1923",
        "addr:city": "新潟市",
        "addr:postcode": "9501244",
        "addr:province": "新潟県",
        "addr:quarter": "上塩俵",
        "addr:suburb": "南区",
        "branch": "白根大通店",
        "building": "yes",
        "name": "ウオロク",
        "shop": "supermarket"
      }
    },
    {
      "type": "way",
      "id": 936160802,
      "center": {
        "lat": 37.6600275,
        "lon": 139.0410691
      },
      "nodes": [
        8674646428,
        8674646429,
        8674646430,
        8674646431,
        8674646428
      ],
      "tags": {
        "building": "yes",
        "name": "牛腸商店",
        "shop": "supermarket"
      }
    },
    {
      "type": "way",
      "id": 964222833,
      "center": {
        "lat": 37.0810721,
        "lon": 138.8786241
      },
      "nodes": [
        8918836858,
        8918836859,
        9295076751,
        9295076754,
        9295076753,
        9295076752,
        8918836860,
        8918836861,
        9295076748,
        9295076749,
        9295076750,
        9295076747,
        8918836858
      ],
      "tags": {
        "brand": "イオン",
        "brand:en": "AEON",
        "brand:ja": "イオン",
        "brand:wikidata": "Q11285951",
        "brand:wikipedia": "ja:イオン (店舗ブランド)",
        "building": "yes",
        "name": "イオン",
        "name:en": "AEON",
        "name:ja": "イオン",
        "shop": "supermarket"
      }
    },
    {
      "type": "way",
      "id": 964489720,
      "center": {
        "lat": 37.0605821,
        "lon": 138.8693321
      },
      "nodes": [
        8921361239,
        8921361240,
        8921361241,
        8921361242,
        8921361239
      ],
      "tags": {
        "building": "yes",
        "name": "原信 六日町店",
        "shop": "supermarket"
      }
    },
    {
      "type": "way",
      "id": 981524687,
      "center": {
        "lat": 37.9108464,
        "lon": 139.0735758
      },