{
  "type": "FeatureCollection",
  "features": [
    {
      "type": "Feature",
      "geometry": { "type": "Point", "coordinates": [139.726017, 35.653697] },
      "properties": {
        "similar_stop_name": "愛育クリニック前",
        "similar_stop_id": "0001",
        "count": 259
      }
    },
    {
      "type": "Feature",
      "geometry": { "type": "Point", "coordinates": [139.843847, 35.744787] },
      "properties": {
        "similar_stop_name": "青戸車庫前",
        "similar_stop_id": "0003",
        "count": 709
      }
    },
    {
      "type": "Feature",
      "geometry": { "type": "Point", "coordinates": [139.741666, 35.608974] },
      "properties": {
        "similar_stop_name": "青物横丁",
        "similar_stop_id": "0004",
        "count": 1198
      }
    },
    {
      "type": "Feature",
      "geometry": { "type": "Point", "coordinates": [139.707404, 35.658472] },
      "properties": {
        "similar_stop_name": "渋谷三丁目",
        "similar_stop_id": "0005",
        "count": 3429
      }
    },
    {
      "type": "Feature",
      "geometry": { "type": "Point", "coordinates": [139.710593, 35.657698] },
      "properties": {
        "similar_stop_name": "青山学院初等部前",
        "similar_stop_id": "0006",
        "count": 1966
      }
    },
    {
      "type": "Feature",
      "geometry": { "type": "Point", "coordinates": [139.713843, 35.658995] },
      "properties": {
        "similar_stop_name": "青山学院中等部前",
        "similar_stop_id": "0007",
        "count": 2915
      }
    },
    {
      "type": "Feature",
      "geometry": { "type": "Point", "coordinates": [139.708771, 35.662088] },
      "properties": {
        "similar_stop_name": "青山学院前",
        "similar_stop_id": "0008",
        "count": 160
      }
    },
    {
      "type": "Feature",
      "geometry": { "type": "Point", "coordinates": [139.724322, 35.667594] },
      "properties": {
        "similar_stop_name": "青山斎場",
        "similar_stop_id": "0009",
        "count": 418
      }
    },
    {
      "type": "Feature",
      "geometry": { "type": "Point", "coordinates": [139.722286, 35.675023] },
      "properties": {
        "similar_stop_name": "北青山一丁目アパート前",
        "similar_stop_id": "0010",
        "count": 416
      }
    },
    {
      "type": "Feature",
      "geometry": { "type": "Point", "coordinates": [139.72035, 35.664645] },
      "properties": {
        "similar_stop_name": "青山陸橋下",
        "similar_stop_id": "0011",
        "count": 712
      }
    },
    {
      "type": "Feature",
      "geometry": { "type": "Point", "coordinates": [139.723591, 35.673943] },
      "properties": {
        "similar_stop_name": "青山一丁目駅前",
        "similar_stop_id": "0012",
        "count": 418
      }
    },
    {
      "type": "Feature",
      "geometry": { "type": "Point", "coordinates": [139.724662, 35.671337] },
      "properties": {
        "similar_stop_name": "青山いきいきプラザ入口",
        "similar_stop_id": "0014",
        "count": 418
      }
    },
    {
      "type": "Feature",
      "geometry": { "type": "Point", "coordinates": [139.740116, 35.667871] },
      "properties": {
        "similar_stop_name": "赤坂アークヒルズ前",
        "similar_stop_id": "0016",
        "count": 1442
      }
    },
    {
      "type": "Feature",
      "geometry": { "type": "Point", "coordinates": [139.77859, 35.668886] },
      "properties": {
        "similar_stop_name": "明石町",
        "similar_stop_id": "0018",
        "count": 471
      }
    },
    {
      "type": "Feature",
      "geometry": { "type": "Point", "coordinates": [139.769147, 35.743067] },
      "properties": {
        "similar_stop_name": "赤土小学校前",
        "similar_stop_id": "0019",
        "count": 411
      }
    },
    {
      "type": "Feature",
      "geometry": { "type": "Point", "coordinates": [139.237546, 35.818458] },
      "properties": {
        "similar_stop_name": "赤仁田",
        "similar_stop_id": "0020",
        "count": 30
      }
    },
    {
      "type": "Feature",
      "geometry": { "type": "Point", "coordinates": [139.721572, 35.779103] },
      "properties": {
        "similar_stop_name": "赤羽駅東口",
        "similar_stop_id": "0021",
        "count": 468
      }
    },
    {
      "type": "Feature",
      "geometry": { "type": "Point", "coordinates": [139.74427, 35.654355] },
      "properties": {
        "similar_stop_name": "赤羽橋駅前",
        "similar_stop_id": "0022",
        "count": 1853
      }
    },
    {
      "type": "Feature",
      "geometry": { "type": "Point", "coordinates": [139.722378, 35.782227] },
      "properties": {
        "similar_stop_name": "赤羽二丁目",
        "similar_stop_id": "0023",
        "count": 468
      }
    },
    {
      "type": "Feature",
      "geometry": { "type": "Point", "coordinates": [139.792639, 35.763812] },
      "properties": {
        "similar_stop_name": "赤不動",
        "similar_stop_id": "0024",
        "count": 324
      }
    },
    {
      "type": "Feature",
      "geometry": { "type": "Point", "coordinates": [139.773688, 35.69908] },
      "properties": {
        "similar_stop_name": "秋葉原駅前",
        "similar_stop_id": "0027",
        "count": 407
      }
    },
    {
      "type": "Feature",
      "geometry": { "type": "Point", "coordinates": [139.720904, 35.69208] },
      "properties": {
        "similar_stop_name": "曙橋",
        "similar_stop_id": "0028",
        "count": 1150
      }
    },
    {
      "type": "Feature",
      "geometry": { "type": "Point", "coordinates": [139.636422, 35.704467] },
      "properties": {
        "similar_stop_name": "阿佐ヶ谷駅前",
        "similar_stop_id": "0029",
        "count": 224
      }
    },
    {
      "type": "Feature",
      "geometry": { "type": "Point", "coordinates": [139.636037, 35.701366] },
      "properties": {
        "similar_stop_name": "阿佐ヶ谷南一丁目",
        "similar_stop_id": "0030",
        "count": 224
      }
    },
    {
      "type": "Feature",
      "geometry": { "type": "Point", "coordinates": [139.79535, 35.711106] },
      "properties": {
        "similar_stop_name": "浅草雷門",
        "similar_stop_id": "0032",
        "count": 1123
      }
    },
    {
      "type": "Feature",
      "geometry": { "type": "Point", "coordinates": [139.799491, 35.719064] },
      "properties": {
        "similar_stop_name": "浅草警察署前",
        "similar_stop_id": "0033",
        "count": 280
      }
    },
    {
      "type": "Feature",
      "geometry": { "type": "Point", "coordinates": [139.792234, 35.713668] },
      "properties": {
        "similar_stop_name": "浅草公園六区",
        "similar_stop_id": "0034",
        "count": 1327
      }
    },
    {
      "type": "Feature",
      "geometry": { "type": "Point", "coordinates": [139.791459, 35.710312] },
      "properties": {
        "similar_stop_name": "浅草寿町",
        "similar_stop_id": "0035",
        "count": 1745
      }
    },
    {
      "type": "Feature",
      "geometry": { "type": "Point", "coordinates": [139.784092, 35.694518] },
      "properties": {
        "similar_stop_name": "浅草橋",
        "similar_stop_id": "0036",
        "count": 510
      }
    },
    {
      "type": "Feature",
      "geometry": { "type": "Point", "coordinates": [139.786852, 35.697953] },
      "properties": {
        "similar_stop_name": "浅草橋駅前",
        "similar_stop_id": "0037",
        "count": 510
      }
    },
    {
      "type": "Feature",
      "geometry": { "type": "Point", "coordinates": [139.791945, 35.711918] },
      "properties": {
        "similar_stop_name": "浅草一丁目",
        "similar_stop_id": "0038",
        "count": 1857
      }
    },
    {
      "type": "Feature",
      "geometry": { "type": "Point", "coordinates": [139.796968, 35.716116] },
      "properties": {
        "similar_stop_name": "浅草二丁目",
        "similar_stop_id": "0039",
        "count": 630
      }
    },
    {
      "type": "Feature",
      "geometry": { "type": "Point", "coordinates": [139.794623, 35.716725] },
      "properties": {
        "similar_stop_name": "奥浅草",
        "similar_stop_id": "0040",
        "count": 1026
      }
    },
    {
      "type": "Feature",
      "geometry": { "type": "Point", "coordinates": [139.795122, 35.719587] },
      "properties": {
        "similar_stop_name": "浅草四丁目",
        "similar_stop_id": "0041",
        "count": 396
      }
    },
    {
      "type": "Feature",
      "geometry": { "type": "Point", "coordinates": [139.796422, 35.721261] },
      "properties": {
        "similar_stop_name": "浅草五丁目",
        "similar_stop_id": "0042",
        "count": 396
      }
    },
    {
      "type": "Feature",
      "geometry": { "type": "Point", "coordinates": [139.798691, 35.716359] },
      "properties": {
        "similar_stop_name": "浅草六丁目",
        "similar_stop_id": "0043",
        "count": 280
      }
    },
    {
      "type": "Feature",
      "geometry": { "type": "Point", "coordinates": [139.801738, 35.718098] },
      "properties": {
        "similar_stop_name": "浅草七丁目",
        "similar_stop_id": "0044",
        "count": 510
      }
    },
    {
      "type": "Feature",
      "geometry": { "type": "Point", "coordinates": [139.740848, 35.660098] },
      "properties": {
        "similar_stop_name": "麻布台ヒルズ",
        "similar_stop_id": "0045",
        "count": 156
      }
    },
    {
      "type": "Feature",
      "geometry": { "type": "Point", "coordinates": [139.736354, 35.749994] },
      "properties": {
        "similar_stop_name": "飛鳥山",
        "similar_stop_id": "0046",
        "count": 1864
      }
    },
    {
      "type": "Feature",
      "geometry": { "type": "Point", "coordinates": [139.795565, 35.769467] },
      "properties": {
        "similar_stop_name": "足立梅田町",
        "similar_stop_id": "0048",
        "count": 324
      }
    },
    {
      "type": "Feature",
      "geometry": { "type": "Point", "coordinates": [139.798976, 35.747383] },
      "properties": {
        "similar_stop_name": "千住一丁目",
        "similar_stop_id": "0049",
        "count": 205
      }
    },
    {
      "type": "Feature",
      "geometry": { "type": "Point", "coordinates": [139.797032, 35.80402] },
      "properties": {
        "similar_stop_name": "足立清掃工場前",
        "similar_stop_id": "0050",
        "count": 56
      }
    },
    {
      "type": "Feature",
      "geometry": { "type": "Point", "coordinates": [139.803116, 35.775884] },
      "properties": {
        "similar_stop_name": "足立区役所前",
        "similar_stop_id": "0051",
        "count": 704
      }
    },
    {
      "type": "Feature",
      "geometry": { "type": "Point", "coordinates": [139.765618, 35.798742] },
      "properties": {
        "similar_stop_name": "足立流通センター",
        "similar_stop_id": "0052",
        "count": 5
      }
    },
    {
      "type": "Feature",
      "geometry": { "type": "Point", "coordinates": [139.800245, 35.707943] },
      "properties": {
        "similar_stop_name": "吾妻橋一丁目",
        "similar_stop_id": "0054",
        "count": 437
      }
    },
    {
      "type": "Feature",
      "geometry": { "type": "Point", "coordinates": [139.773285, 35.774861] },
      "properties": {
        "similar_stop_name": "阿弥陀橋",
        "similar_stop_id": "0056",
        "count": 1202
      }
    },
    {
      "type": "Feature",
      "geometry": { "type": "Point", "coordinates": [139.783764, 35.735052] },
      "properties": {
        "similar_stop_name": "荒川区役所前",
        "similar_stop_id": "0064",
        "count": 1073
      }
    },
    {
      "type": "Feature",
      "geometry": { "type": "Point", "coordinates": [139.78013, 35.749558] },
      "properties": {
        "similar_stop_name": "原中学校入口",
        "similar_stop_id": "0065",
        "count": 341
      }
    },
    {
      "type": "Feature",
      "geometry": { "type": "Point", "coordinates": [139.763211, 35.768802] },
      "properties": {
        "similar_stop_name": "荒川土手操車所前",
        "similar_stop_id": "0066",
        "count": 1480
      }
    },
    {
      "type": "Feature",
      "geometry": { "type": "Point", "coordinates": [139.787252, 35.733276] },
      "properties": {
        "similar_stop_name": "荒川一丁目",
        "similar_stop_id": "0067",
        "count": 1073
      }
    },
    {
      "type": "Feature",
      "geometry": { "type": "Point", "coordinates": [139.780839, 35.735735] },
      "properties": {
        "similar_stop_name": "荒川三丁目",
        "similar_stop_id": "0068",
        "count": 1073
      }
    },
    {
      "type": "Feature",
      "geometry": { "type": "Point", "coordinates": [139.777712, 35.736957] },
      "properties": {
        "similar_stop_name": "荒川四丁目",
        "similar_stop_id": "0069",
        "count": 1404
      }
    },
    {
      "type": "Feature",
      "geometry": { "type": "Point", "coordinates": [139.778264, 35.739274] },
      "properties": {
        "similar_stop_name": "荒川五丁目",
        "similar_stop_id": "0070",
        "count": 324
      }
    },
    {
      "type": "Feature",
      "geometry": { "type": "Point", "coordinates": [139.722555, 35.690817] },
      "properties": {
        "similar_stop_name": "荒木町",
        "similar_stop_id": "0071",
        "count": 123
      }
    },
    {
      "type": "Feature",
      "geometry": { "type": "Point", "coordinates": [139.270742, 35.81582] },
      "properties": {
        "similar_stop_name": "荒田",
        "similar_stop_id": "0072",
        "count": 58
      }
    },
    {
      "type": "Feature",
      "geometry": { "type": "Point", "coordinates": [139.786652, 35.63613] },
      "properties": {
        "similar_stop_name": "有明テニスの森",
        "similar_stop_id": "0074",
        "count": 2830
      }
    },
    {
      "type": "Feature",
      "geometry": { "type": "Point", "coordinates": [139.795584, 35.641376] },
      "properties": {
        "similar_stop_name": "有明小中学校前",
        "similar_stop_id": "0075",
        "count": 2886
      }
    },
    {
      "type": "Feature",
      "geometry": { "type": "Point", "coordinates": [139.792794, 35.639442] },
      "properties": {
        "similar_stop_name": "有明二丁目",
        "similar_stop_id": "0077",
        "count": 2858
      }
    },
    {
      "type": "Feature",
      "geometry": { "type": "Point", "coordinates": [139.745988, 35.701551] },
      "properties": {
        "similar_stop_name": "飯田橋駅前",
        "similar_stop_id": "0078",
        "count": 378
      }
    },
    {
      "type": "Feature",
      "geometry": { "type": "Point", "coordinates": [139.744333, 35.703257] },
      "properties": {
        "similar_stop_name": "飯田橋",
        "similar_stop_id": "0079",
        "count": 422
      }
    },
    {
      "type": "Feature",
      "geometry": { "type": "Point", "coordinates": [139.746822, 35.703932] },
      "properties": {
        "similar_stop_name": "都営飯田橋駅前",
        "similar_stop_id": "0080",
        "count": 44
      }
    },
    {
      "type": "Feature",
      "geometry": { "type": "Point", "coordinates": [139.748958, 35.699141] },
      "properties": {
        "similar_stop_name": "飯田橋一丁目",
        "similar_stop_id": "0081",
        "count": 378
      }
    },
    {
      "type": "Feature",
      "geometry": { "type": "Point", "coordinates": [139.722671, 35.639622] },
      "properties": {
        "similar_stop_name": "東大医科研病院西門",
        "similar_stop_id": "0082",
        "count": 971
      }
    },
    {
      "type": "Feature",
      "geometry": { "type": "Point", "coordinates": [139.88399, 35.655901] },
      "properties": {
        "similar_stop_name": "雷",
        "similar_stop_id": "0083",
        "count": 128
      }
    },
    {
      "type": "Feature",
      "geometry": { "type": "Point", "coordinates": [139.884493, 35.659029] },
      "properties": {
        "similar_stop_name": "雷不動前",
        "similar_stop_id": "0084",
        "count": 128
      }
    },
    {
      "type": "Feature",
      "geometry": { "type": "Point", "coordinates": [139.767435, 35.714984] },
      "properties": {
        "similar_stop_name": "池之端二丁目",
        "similar_stop_id": "0086",
        "count": 757
      }
    },
    {
      "type": "Feature",
      "geometry": { "type": "Point", "coordinates": [139.71202, 35.72909] },
      "properties": {
        "similar_stop_name": "池袋駅東口",
        "similar_stop_id": "0087",
        "count": 4190
      }
    },
    {
      "type": "Feature",
      "geometry": { "type": "Point", "coordinates": [139.720569, 35.731637] },
      "properties": {
        "similar_stop_name": "東池袋二丁目",
        "similar_stop_id": "0089",
        "count": 58
      }
    },
    {
      "type": "Feature",
      "geometry": { "type": "Point", "coordinates": [139.735208, 35.709139] },
      "properties": {
        "similar_stop_name": "石切橋",
        "similar_stop_id": "0091",
        "count": 792
      }
    },
    {
      "type": "Feature",
      "geometry": { "type": "Point", "coordinates": [139.811626, 35.68082] },
      "properties": {
        "similar_stop_name": "石島",
        "similar_stop_id": "0092",
        "count": 1206
      }
    },
    {
      "type": "Feature",
      "geometry": { "type": "Point", "coordinates": [139.35839, 35.766865] },
      "properties": {
        "similar_stop_name": "石畑",
        "similar_stop_id": "0093",
        "count": 122
      }
    },
    {
      "type": "Feature",
      "geometry": { "type": "Point", "coordinates": [139.798264, 35.700211] },
      "properties": {
        "similar_stop_name": "石原一丁目",
        "similar_stop_id": "0094",
        "count": 1065
      }
    },
    {
      "type": "Feature",
      "geometry": { "type": "Point", "coordinates": [139.80046, 35.700475] },
      "properties": {
        "similar_stop_name": "石原二丁目",
        "similar_stop_id": "0095",
        "count": 628
      }
    },
    {
      "type": "Feature",
      "geometry": { "type": "Point", "coordinates": [139.804418, 35.700521] },
      "properties": {
        "similar_stop_name": "石原三丁目",
        "similar_stop_id": "0096",
        "count": 1736
      }
    },
    {
      "type": "Feature",
      "geometry": { "type": "Point", "coordinates": [139.806659, 35.700639] },
      "properties": {
        "similar_stop_name": "石原四丁目",
        "similar_stop_id": "0097",
        "count": 628
      }
    },
    {
      "type": "Feature",
      "geometry": { "type": "Point", "coordinates": [139.65865, 35.676238] },
      "properties": {
        "similar_stop_name": "和泉一丁目",
        "similar_stop_id": "0098",
        "count": 463
      }
    },
    {
      "type": "Feature",
      "geometry": { "type": "Point", "coordinates": [139.736745, 35.691358] },
      "properties": {
        "similar_stop_name": "市ヶ谷駅前",
        "similar_stop_id": "0099",
        "count": 434
      }
    },
    {
      "type": "Feature",
      "geometry": { "type": "Point", "coordinates": [139.731248, 35.691178] },
      "properties": {
        "similar_stop_name": "防衛省前",
        "similar_stop_id": "0100",
        "count": 198
      }
    },
    {
      "type": "Feature",
      "geometry": { "type": "Point", "coordinates": [139.736687, 35.695185] },
      "properties": {
        "similar_stop_name": "市谷田町",
        "similar_stop_id": "0101",
        "count": 236
      }
    },
    {
      "type": "Feature",
      "geometry": { "type": "Point", "coordinates": [139.72444, 35.694357] },
      "properties": {
        "similar_stop_name": "市谷仲之町交差点",
        "similar_stop_id": "0102",
        "count": 1507
      }
    },
    {
      "type": "Feature",
      "geometry": { "type": "Point", "coordinates": [139.717455, 35.69131] },
      "properties": {
        "similar_stop_name": "市ヶ谷富久町",
        "similar_stop_id": "0103",
        "count": 1150
      }
    },
    {
      "type": "Feature",
      "geometry": { "type": "Point", "coordinates": [139.879246, 35.689868] },
      "properties": {
        "similar_stop_name": "一之江五丁目",
        "similar_stop_id": "0104",
        "count": 1136
      }
    },
    {
      "type": "Feature",
      "geometry": { "type": "Point", "coordinates": [139.882329, 35.69693] },
      "properties": {
        "similar_stop_name": "一之江高速入口",
        "similar_stop_id": "0105",
        "count": 233
      }
    },
    {
      "type": "Feature",
      "geometry": { "type": "Point", "coordinates": [139.88188, 35.700616] },
      "properties": {
        "similar_stop_name": "一之江橋西詰",
        "similar_stop_id": "0106",
        "count": 233
      }
    },
    {
      "type": "Feature",
      "geometry": { "type": "Point", "coordinates": [139.887621, 35.70224] },
      "properties": {
        "similar_stop_name": "新堀一丁目",
        "similar_stop_id": "0107",
        "count": 71
      }
    },
    {
      "type": "Feature",
      "geometry": { "type": "Point", "coordinates": [139.882637, 35.693795] },
      "properties": {
        "similar_stop_name": "一之江二丁目",
        "similar_stop_id": "0108",
        "count": 233
      }
    },
    {
      "type": "Feature",
      "geometry": { "type": "Point", "coordinates": [139.881994, 35.687887] },
      "properties": {
        "similar_stop_name": "一之江四丁目",
        "similar_stop_id": "0109",
        "count": 996
      }
    },
    {
      "type": "Feature",
      "geometry": { "type": "Point", "coordinates": [139.877141, 35.687236] },
      "properties": {
        "similar_stop_name": "一之江七丁目",
        "similar_stop_id": "0110",
        "count": 140
      }
    },
    {
      "type": "Feature",
      "geometry": { "type": "Point", "coordinates": [139.736946, 35.655673] },
      "properties": {
        "similar_stop_name": "麻布十番駅前",
        "similar_stop_id": "0111",
        "count": 2767
      }
    },
    {
      "type": "Feature",
      "geometry": { "type": "Point", "coordinates": [139.783319, 35.747075] },
      "properties": {
        "similar_stop_name": "一本松",
        "similar_stop_id": "0114",
        "count": 324
      }
    },
    {
      "type": "Feature",
      "geometry": { "type": "Point", "coordinates": [139.862034, 35.669494] },
      "properties": {
        "similar_stop_name": "稲荷神社前(いなりじんじゃまえ（えどがわく）)",
        "similar_stop_id": "0115",
        "count": 230
      }
    },
    {
      "type": "Feature",
      "geometry": { "type": "Point", "coordinates": [139.710141, 35.7624] },
      "properties": {
        "similar_stop_name": "稲荷台",
        "similar_stop_id": "0116",
        "count": 276
      }
    },
    {
      "type": "Feature",
      "geometry": { "type": "Point", "coordinates": [139.888714, 35.682871] },
      "properties": {
        "similar_stop_name": "今井",
        "similar_stop_id": "0118",
        "count": 869
      }
    },
    {
      "type": "Feature",
      "geometry": { "type": "Point", "coordinates": [139.80188, 35.721081] },
      "properties": {
        "similar_stop_name": "今戸",
        "similar_stop_id": "0119",
        "count": 510
      }
    },
    {
      "type": "Feature",
      "geometry": { "type": "Point", "coordinates": [139.416156, 35.755279] },
      "properties": {
        "similar_stop_name": "芋窪",
        "similar_stop_id": "0120",
        "count": 122
      }
    },
    {
      "type": "Feature",
      "geometry": { "type": "Point", "coordinates": [139.783058, 35.720203] },
      "properties": {
        "similar_stop_name": "入谷鬼子母神",
        "similar_stop_id": "0121",
        "count": 425
      }
    },
    {
      "type": "Feature",
      "geometry": { "type": "Point", "coordinates": [139.789714, 35.718097] },
      "properties": {
        "similar_stop_name": "入谷二丁目",
        "similar_stop_id": "0122",
        "count": 425
      }
    },
    {
      "type": "Feature",
      "geometry": { "type": "Point", "coordinates": [139.297021, 35.832688] },
      "properties": {
        "similar_stop_name": "岩井堂",
        "similar_stop_id": "0124",
        "count": 58
      }
    },
    {
      "type": "Feature",
      "geometry": { "type": "Point", "coordinates": [139.289852, 35.826436] },
      "properties": {
        "similar_stop_name": "岩蔵温泉",
        "similar_stop_id": "0125",
        "count": 58
      }
    },
    {
      "type": "Feature",
      "geometry": { "type": "Point", "coordinates": [139.725289, 35.782871] },
      "properties": {
        "similar_stop_name": "岩淵町",
        "similar_stop_id": "0126",
        "count": 468
      }
    },
    {
      "type": "Feature",
      "geometry": { "type": "Point", "coordinates": [139.776409, 35.695657] },
      "properties": {
        "similar_stop_name": "岩本町駅前",
        "similar_stop_id": "0128",
        "count": 112
      }
    },
    {
      "type": "Feature",
      "geometry": { "type": "Point", "coordinates": [139.777245, 35.692237] },
      "properties": {
        "similar_stop_name": "岩本町一丁目",
        "similar_stop_id": "0129",
        "count": 113
      }
    },
    {
      "type": "Feature",
      "geometry": { "type": "Point", "coordinates": [139.777124, 35.71197] },
      "properties": {
        "similar_stop_name": "上野駅前",
        "similar_stop_id": "0131",
        "count": 640
      }
    },
    {
      "type": "Feature",
      "geometry": { "type": "Point", "coordinates": [139.77191, 35.709784] },
      "properties": {
        "similar_stop_name": "上野公園",
        "similar_stop_id": "0132",
        "count": 694
      }
    },
    {
      "type": "Feature",
      "geometry": { "type": "Point", "coordinates": [139.773961, 35.711047] },
      "properties": {
        "similar_stop_name": "上野公園山下",
        "similar_stop_id": "0133",
        "count": 729
      }
    },
    {
      "type": "Feature",
      "geometry": { "type": "Point", "coordinates": [139.774398, 35.722632] },
      "properties": {
        "similar_stop_name": "上野桜木",
        "similar_stop_id": "0134",
        "count": 104
      }
    },
    {
      "type": "Feature",
      "geometry": { "type": "Point", "coordinates": [139.773104, 35.7087] },
      "properties": {
        "similar_stop_name": "上野広小路",
        "similar_stop_id": "0135",
        "count": 1112
      }
    },
    {
      "type": "Feature",
      "geometry": { "type": "Point", "coordinates": [139.857611, 35.670171] },
      "properties": {
        "similar_stop_name": "宇喜田",
        "similar_stop_id": "0136",
        "count": 1629
      }
    },
    {
      "type": "Feature",
      "geometry": { "type": "Point", "coordinates": [139.779357, 35.7224] },
      "properties": {
        "similar_stop_name": "鶯谷駅前",
        "similar_stop_id": "0137",
        "count": 324
      }
    },
    {
      "type": "Feature",
      "geometry": { "type": "Point", "coordinates": [139.732428, 35.699541] },
      "properties": {
        "similar_stop_name": "牛込北町",
        "similar_stop_id": "0138",
        "count": 280
      }
    },
    {
      "type": "Feature",
      "geometry": { "type": "Point", "coordinates": [139.726567, 35.702229] },
      "properties": {
        "similar_stop_name": "牛込弁天町",
        "similar_stop_id": "0139",
        "count": 1150
      }
    },
    {
      "type": "Feature",
      "geometry": { "type": "Point", "coordinates": [139.726597, 35.703671] },
      "properties": {
        "similar_stop_name": "牛込保健センター前",
        "similar_stop_id": "0140",
        "count": 1150
      }
    },
    {
      "type": "Feature",
      "geometry": { "type": "Point", "coordinates": [139.725209, 35.699545] },
      "properties": {
        "similar_stop_name": "牛込柳町駅前",
        "similar_stop_id": "0141",
        "count": 1430
      }
    },
    {
      "type": "Feature",
      "geometry": { "type": "Point", "coordinates": [139.696636, 35.662546] },
      "properties": {
        "similar_stop_name": "宇田川町",
        "similar_stop_id": "0142",
        "count": 103
      }
    },
    {
      "type": "Feature",
      "geometry": { "type": "Point", "coordinates": [139.764833, 35.691375] },
      "properties": {
        "similar_stop_name": "内神田一丁目",
        "similar_stop_id": "0143",
        "count": 98
      }
    },
    {
      "type": "Feature",
      "geometry": { "type": "Point", "coordinates": [139.755351, 35.670834] },
      "properties": {
        "similar_stop_name": "内幸町",
        "similar_stop_id": "0144",
        "count": 236
      }
    },
    {
      "type": "Feature",
      "geometry": { "type": "Point", "coordinates": [139.712491, 35.76335] },
      "properties": {
        "similar_stop_name": "姥ヶ橋",
        "similar_stop_id": "0146",
        "count": 276
      }
    },
    {
      "type": "Feature",
      "geometry": { "type": "Point", "coordinates": [139.792549, 35.705575] },
      "properties": {
        "similar_stop_name": "蔵前駅前",
        "similar_stop_id": "0147",
        "count": 1139
      }
    },
    {
      "type": "Feature",
      "geometry": { "type": "Point", "coordinates": [139.224557, 35.833085] },
      "properties": {
        "similar_stop_name": "梅ヶ平",
        "similar_stop_id": "0148",
        "count": 30
      }
    },
    {
      "type": "Feature",
      "geometry": { "type": "Point", "coordinates": [139.797642, 35.774536] },
      "properties": {
        "similar_stop_name": "梅島駅前",
        "similar_stop_id": "0149",
        "count": 223
      }
    },
    {
      "type": "Feature",
      "geometry": { "type": "Point", "coordinates": [139.797544, 35.770934] },
      "properties": {
        "similar_stop_name": "エル・ソフィア前",
        "similar_stop_id": "0150",
        "count": 223
      }
    },
    {
      "type": "Feature",
      "geometry": { "type": "Point", "coordinates": [139.793159, 35.765002] },
      "properties": {
        "similar_stop_name": "梅島第二小学校通り",
        "similar_stop_id": "0151",
        "count": 324
      }
    },
    {
      "type": "Feature",
      "geometry": { "type": "Point", "coordinates": [139.797539, 35.77655] },
      "properties": {
        "similar_stop_name": "梅島二丁目",
        "similar_stop_id": "0152",
        "count": 223
      }
    },
    {
      "type": "Feature",
      "geometry": { "type": "Point", "coordinates": [139.7929, 35.778292] },
      "properties": {
        "similar_stop_name": "梅島三丁目",
        "similar_stop_id": "0153",
        "count": 344
      }
    },
    {
      "type": "Feature",
      "geometry": { "type": "Point", "coordinates": [139.840028, 35.740451] },
      "properties": {
        "similar_stop_name": "梅田小学校前",
        "similar_stop_id": "0154",
        "count": 678
      }
    },
    {
      "type": "Feature",
      "geometry": { "type": "Point", "coordinates": [139.794353, 35.766863] },
      "properties": {
        "similar_stop_name": "梅田町神明通り",
        "similar_stop_id": "0155",
        "count": 324
      }
    },
    {
      "type": "Feature",
      "geometry": { "type": "Point", "coordinates": [139.800811, 35.766537] },
      "properties": {
        "similar_stop_name": "梅田七丁目",
        "similar_stop_id": "0156",
        "count": 223
      }
    },
    {
      "type": "Feature",
      "geometry": { "type": "Point", "coordinates": [139.884357, 35.666468] },
      "properties": {
        "similar_stop_name": "浦安橋",
        "similar_stop_id": "0157",
        "count": 128
      }
    },
    {
      "type": "Feature",
      "geometry": { "type": "Point", "coordinates": [139.785237, 35.677162] },
      "properties": {
        "similar_stop_name": "永代橋",
        "similar_stop_id": "0159",
        "count": 398
      }
    },
    {
      "type": "Feature",
      "geometry": { "type": "Point", "coordinates": [139.792607, 35.673274] },
      "properties": {
        "similar_stop_name": "永代二丁目",
        "similar_stop_id": "0160",
        "count": 398
      }
    },
    {
      "type": "Feature",
      "geometry": { "type": "Point", "coordinates": [139.67635, 35.733138] },
      "properties": {
        "similar_stop_name": "練馬総合病院入口",
        "similar_stop_id": "0161",
        "count": 598
      }
    },
    {
      "type": "Feature",
      "geometry": { "type": "Point", "coordinates": [139.672197, 35.736264] },
      "properties": {
        "similar_stop_name": "江古田二又",
        "similar_stop_id": "0162",
        "count": 1192
      }
    },
    {
      "type": "Feature",
      "geometry": { "type": "Point", "coordinates": [139.669879, 35.724053] },
      "properties": {
        "similar_stop_name": "江古田一丁目",
        "similar_stop_id": "0163",
        "count": 1010
      }
    },
    {
      "type": "Feature",
      "geometry": { "type": "Point", "coordinates": [139.666727, 35.72392] },
      "properties": {
        "similar_stop_name": "江古田二丁目",
        "similar_stop_id": "0164",
        "count": 1010
      }
    },
    {
      "type": "Feature",
      "geometry": { "type": "Point", "coordinates": [139.66773, 35.725906] },
      "properties": {
        "similar_stop_name": "江古田三丁目",
        "similar_stop_id": "0165",
        "count": 208
      }
    },
    {
      "type": "Feature",
      "geometry": { "type": "Point", "coordinates": [139.80133, 35.657926] },
      "properties": {
        "similar_stop_name": "枝川",
        "similar_stop_id": "0166",
        "count": 2813
      }
    },
    {
      "type": "Feature",
      "geometry": { "type": "Point", "coordinates": [139.804407, 35.656856] },
      "properties": {
        "similar_stop_name": "枝川一丁目",
        "similar_stop_id": "0167",
        "count": 2237
      }
    },
    {
      "type": "Feature",
      "geometry": { "type": "Point", "coordinates": [139.807247, 35.658924] },
      "properties": {
        "similar_stop_name": "枝川二丁目",
        "similar_stop_id": "0168",
        "count": 2363
      }
    },
    {
      "type": "Feature",
      "geometry": { "type": "Point", "coordinates": [139.791413, 35.669547] },
      "properties": {
        "similar_stop_name": "越中島",
        "similar_stop_id": "0170",
        "count": 1422
      }
    },
    {
      "type": "Feature",
      "geometry": { "type": "Point", "coordinates": [139.86787, 35.706995] },
      "properties": {
        "similar_stop_name": "江戸川区役所前",
        "similar_stop_id": "0171",
        "count": 1617
      }
    },
    {
      "type": "Feature",
      "geometry": { "type": "Point", "coordinates": [139.866069, 35.710169] },
      "properties": {
        "similar_stop_name": "江戸川高校前",
        "similar_stop_id": "0172",
        "count": 1298
      }
    },
    {
      "type": "Feature",
      "geometry": { "type": "Point", "coordinates": [139.873972, 35.710428] },
      "properties": {
        "similar_stop_name": "ＮＴＴ江戸川支店前",
        "similar_stop_id": "0174",
        "count": 258
      }
    },
    {
      "type": "Feature",
      "geometry": { "type": "Point", "coordinates": [139.869916, 35.711023] },
      "properties": {
        "similar_stop_name": "江戸川文化センター前",
        "similar_stop_id": "0175",
        "count": 319
      }
    },
    {
      "type": "Feature",
      "geometry": { "type": "Point", "coordinates": [139.731375, 35.71147] },
      "properties": {
        "similar_stop_name": "江戸川橋",
        "similar_stop_id": "0176",
        "count": 2509
      }
    },
    {
      "type": "Feature",
      "geometry": { "type": "Point", "coordinates": [139.88455, 35.674735] },
      "properties": {
        "similar_stop_name": "江戸川五丁目",
        "similar_stop_id": "0177",
        "count": 575
      }
    },
    {
      "type": "Feature",
      "geometry": { "type": "Point", "coordinates": [139.878735, 35.674901] },
      "properties": {
        "similar_stop_name": "古川親水公園",
        "similar_stop_id": "0178",
        "count": 1298
      }
    },
    {
      "type": "Feature",
      "geometry": { "type": "Point", "coordinates": [139.677992, 35.729144] },
      "properties": {
        "similar_stop_name": "江原町中野通り",
        "similar_stop_id": "0179",
        "count": 594
      }
    },
    {
      "type": "Feature",
      "geometry": { "type": "Point", "coordinates": [139.674053, 35.731044] },
      "properties": {
        "similar_stop_name": "江原町一丁目",
        "similar_stop_id": "0180",
        "count": 594
      }
    },
    {
      "type": "Feature",
      "geometry": { "type": "Point", "coordinates": [139.671156, 35.73358] },
      "properties": {
        "similar_stop_name": "新江古田駅前",
        "similar_stop_id": "0181",
        "count": 594
      }
    },
    {
      "type": "Feature",
      "geometry": { "type": "Point", "coordinates": [139.242125, 35.818551] },
      "properties": {
        "similar_stop_name": "蜆沢",
        "similar_stop_id": "0182",
        "count": 30
      }
    },
    {
      "type": "Feature",
      "geometry": { "type": "Point", "coordinates": [139.709436, 35.646979] },
      "properties": {
        "similar_stop_name": "恵比寿駅前",
        "similar_stop_id": "0183",
        "count": 2906
      }
    },
    {
      "type": "Feature",
      "geometry": { "type": "Point", "coordinates": [139.71191, 35.646422] },
      "properties": {
        "similar_stop_name": "恵比寿一丁目",
        "similar_stop_id": "0185",
        "count": 1704
      }
    },
    {
      "type": "Feature",
      "geometry": { "type": "Point", "coordinates": [139.718931, 35.645294] },
      "properties": {
        "similar_stop_name": "恵比寿二丁目",
        "similar_stop_id": "0186",
        "count": 1704
      }
    },
    {
      "type": "Feature",
      "geometry": { "type": "Point", "coordinates": [139.721248, 35.644949] },
      "properties": {
        "similar_stop_name": "恵比寿三丁目",
        "similar_stop_id": "0187",
        "count": 2675
      }
    },
    {
      "type": "Feature",
      "geometry": { "type": "Point", "coordinates": [139.716176, 35.645698] },
      "properties": {
        "similar_stop_name": "恵比寿四丁目",
        "similar_stop_id": "0188",
        "count": 1704
      }
    },
    {
      "type": "Feature",
      "geometry": { "type": "Point", "coordinates": [139.81098, 35.68281] },
      "properties": {
        "similar_stop_name": "扇橋一丁目",
        "similar_stop_id": "0191",
        "count": 1431
      }
    },
    {
      "type": "Feature",
      "geometry": { "type": "Point", "coordinates": [139.81516, 35.682899] },
      "properties": {
        "similar_stop_name": "扇橋二丁目",
        "similar_stop_id": "0192",
        "count": 1968
      }
    },
    {
      "type": "Feature",
      "geometry": { "type": "Point", "coordinates": [139.819711, 35.682516] },
      "properties": {
        "similar_stop_name": "扇橋三丁目",
        "similar_stop_id": "0193",
        "count": 225
      }
    },
    {
      "type": "Feature",
      "geometry": { "type": "Point", "coordinates": [139.770647, 35.766606] },
      "properties": {
        "similar_stop_name": "扇二丁目",
        "similar_stop_id": "0194",
        "count": 13
      }
    },
    {
      "type": "Feature",
      "geometry": { "type": "Point", "coordinates": [139.770786, 35.769467] },
      "properties": {
        "similar_stop_name": "扇三丁目",
        "similar_stop_id": "0195",
        "count": 13
      }
    },
    {
      "type": "Feature",
      "geometry": { "type": "Point", "coordinates": [139.73723, 35.753867] },
      "properties": {
        "similar_stop_name": "王子駅前",
        "similar_stop_id": "0196",
        "count": 4659
      }
    },
    {
      "type": "Feature",
      "geometry": { "type": "Point", "coordinates": [139.718624, 35.765058] },
      "properties": {
        "similar_stop_name": "王子第三小学校前",
        "similar_stop_id": "0197",
        "count": 276
      }
    },
    {
      "type": "Feature",
      "geometry": { "type": "Point", "coordinates": [139.737383, 35.755767] },
      "properties": {
        "similar_stop_name": "王子二丁目",
        "similar_stop_id": "0198",
        "count": 2444
      }
    },
    {
      "type": "Feature",
      "geometry": { "type": "Point", "coordinates": [139.737592, 35.758386] },
      "properties": {
        "similar_stop_name": "王子三丁目",
        "similar_stop_id": "0199",
        "count": 2509
      }
    },
    {
      "type": "Feature",
      "geometry": { "type": "Point", "coordinates": [139.736889, 35.762757] },
      "properties": {
        "similar_stop_name": "王子四丁目",
        "similar_stop_id": "0200",
        "count": 2509
      }
    },
    {
      "type": "Feature",
      "geometry": { "type": "Point", "coordinates": [139.735878, 35.765162] },
      "properties": {
        "similar_stop_name": "王子五丁目",
        "similar_stop_id": "0201",
        "count": 1597
      }
    },
    {
      "type": "Feature",
      "geometry": { "type": "Point", "coordinates": [139.25796, 35.790169] },
      "properties": {
        "similar_stop_name": "青梅駅前",
        "similar_stop_id": "0202",
        "count": 950
      }
    },
    {
      "type": "Feature",
      "geometry": { "type": "Point", "coordinates": [139.47559, 35.730521] },
      "properties": {
        "similar_stop_name": "青梅街道駅前",
        "similar_stop_id": "0203",
        "count": 118
      }
    },
    {
      "type": "Feature",
      "geometry": { "type": "Point", "coordinates": [139.289406, 35.788455] },
      "properties": {
        "similar_stop_name": "青梅警察署前",
        "similar_stop_id": "0204",
        "count": 122
      }
    },
    {
      "type": "Feature",
      "geometry": { "type": "Point", "coordinates": [139.274563, 35.788318] },
      "properties": {
        "similar_stop_name": "青梅市役所前",
        "similar_stop_id": "0205",
        "count": 150
      }
    },
    {
      "type": "Feature",
      "geometry": { "type": "Point", "coordinates": [139.249865, 35.790205] },
      "properties": {
        "similar_stop_name": "青梅車庫",
        "similar_stop_id": "0206",
        "count": 373
      }
    },
    {
      "type": "Feature",
      "geometry": { "type": "Point", "coordinates": [139.209189, 35.83567] },
      "properties": {
        "similar_stop_name": "大指",
        "similar_stop_id": "0207",
        "count": 30
      }
    },
    {
      "type": "Feature",
      "geometry": { "type": "Point", "coordinates": [139.230436, 35.821503] },
      "properties": {
        "similar_stop_name": "北小曽木",
        "similar_stop_id": "0208",
        "count": 15
      }
    },
    {
      "type": "Feature",
      "geometry": { "type": "Point", "coordinates": [139.274934, 35.818495] },
      "properties": {
        "similar_stop_name": "青梅第七小学校前",
        "similar_stop_id": "0209",
        "count": 58
      }
    },
    {
      "type": "Feature",
      "geometry": { "type": "Point", "coordinates": [139.256493, 35.826388] },
      "properties": {
        "similar_stop_name": "青梅第七中学校前",
        "similar_stop_id": "0210",
        "count": 55
      }
    },
    {
      "type": "Feature",
      "geometry": { "type": "Point", "coordinates": [139.260656, 35.828115] },
      "properties": {
        "similar_stop_name": "成木小学校前",
        "similar_stop_id": "0211",
        "count": 55
      }
    },
    {
      "type": "Feature",
      "geometry": { "type": "Point", "coordinates": [139.270553, 35.793664] },
      "properties": {
        "similar_stop_name": "青梅第四小学校前",
        "similar_stop_id": "0212",
        "count": 232
      }
    },
    {
      "type": "Feature",
      "geometry": { "type": "Point", "coordinates": [139.28182, 35.789928] },
      "properties": {
        "similar_stop_name": "師岡町三丁目",
        "similar_stop_id": "0213",
        "count": 122
      }
    },
    {
      "type": "Feature",
      "geometry": { "type": "Point", "coordinates": [139.753007, 35.616535] },
      "properties": {
        "similar_stop_name": "若潮橋",
        "similar_stop_id": "0214",
        "count": 1048
      }
    },
    {
      "type": "Feature",
      "geometry": { "type": "Point", "coordinates": [139.741255, 35.593572] },
      "properties": {
        "similar_stop_name": "大井競馬場前",
        "similar_stop_id": "0216",
        "count": 1836
      }
    },
    {
      "type": "Feature",
      "geometry": { "type": "Point", "coordinates": [139.770696, 35.594025] },
      "properties": {
        "similar_stop_name": "大井水産物埠頭入口",
        "similar_stop_id": "0217",
        "count": 79
      }
    },
    {
      "type": "Feature",
      "geometry": { "type": "Point", "coordinates": [139.77321, 35.591041] },
      "properties": {
        "similar_stop_name": "大井水産物埠頭前",
        "similar_stop_id": "0218",
        "count": 79
      }
    },
    {
      "type": "Feature",
      "geometry": { "type": "Point", "coordinates": [139.754067, 35.611613] },
      "properties": {
        "similar_stop_name": "品川清掃工場前",
        "similar_stop_id": "0220",
        "count": 1127
      }
    },
    {
      "type": "Feature",
      "geometry": { "type": "Point", "coordinates": [139.735486, 35.606166] },
      "properties": {
        "similar_stop_name": "大井町駅東口",
        "similar_stop_id": "0223",
        "count": 2133
      }
    },
    {
      "type": "Feature",
      "geometry": { "type": "Point", "coordinates": [139.696261, 35.701833] },
      "properties": {
        "similar_stop_name": "大久保駅前",
        "similar_stop_id": "0225",
        "count": 284
      }
    },
    {
      "type": "Feature",
      "geometry": { "type": "Point", "coordinates": [139.708182, 35.701422] },
      "properties": {
        "similar_stop_name": "大久保通り",
        "similar_stop_id": "0226",
        "count": 1191
      }
    },
    {
      "type": "Feature",
      "geometry": { "type": "Point", "coordinates": [139.707198, 35.697191] },
      "properties": {
        "similar_stop_name": "東新宿駅前",
        "similar_stop_id": "0227",
        "count": 1132
      }
    },
    {
      "type": "Feature",
      "geometry": { "type": "Point", "coordinates": [139.704755, 35.701104] },
      "properties": {
        "similar_stop_name": "大久保二丁目",
        "similar_stop_id": "0228",
        "count": 284
      }
    },
    {
      "type": "Feature",
      "geometry": { "type": "Point", "coordinates": [139.263746, 35.829671] },
      "properties": {
        "similar_stop_name": "成木三丁目",
        "similar_stop_id": "0229",
        "count": 55
      }
    },
    {
      "type": "Feature",
      "geometry": { "type": "Point", "coordinates": [139.778843, 35.730383] },
      "properties": {
        "similar_stop_name": "大下",
        "similar_stop_id": "0231",
        "count": 709
      }
    },
    {
      "type": "Feature",
      "geometry": { "type": "Point", "coordinates": [139.833595, 35.689563] },
      "properties": {
        "similar_stop_name": "大島駅前",
        "similar_stop_id": "0233",
        "count": 1057
      }
    },
    {
      "type": "Feature",
      "geometry": { "type": "Point", "coordinates": [139.826614, 35.687431] },
      "properties": {
        "similar_stop_name": "大島一丁目",
        "similar_stop_id": "0234",
        "count": 3281
      }
    },
    {
      "type": "Feature",
      "geometry": { "type": "Point", "coordinates": [139.821799, 35.689126] },
      "properties": {
        "similar_stop_name": "大島二丁目",
        "similar_stop_id": "0235",
        "count": 446
      }
    },
    {
      "type": "Feature",
      "geometry": { "type": "Point", "coordinates": [139.829096, 35.689202] },
      "properties": {
        "similar_stop_name": "大島三丁目",
        "similar_stop_id": "0236",
        "count": 588
      }
    },
    {
      "type": "Feature",
      "geometry": { "type": "Point", "coordinates": [139.836166, 35.688032] },
      "properties": {
        "similar_stop_name": "大島五丁目",
        "similar_stop_id": "0237",
        "count": 469
      }
    },
    {
      "type": "Feature",
      "geometry": { "type": "Point", "coordinates": [139.844792, 35.68997] },
      "properties": {
        "similar_stop_name": "東大島駅入口",
        "similar_stop_id": "0238",
        "count": 558
      }
    },
    {
      "type": "Feature",
      "geometry": { "type": "Point", "coordinates": [139.873658, 35.705636] },
      "properties": {
        "similar_stop_name": "大杉小学校前",
        "similar_stop_id": "0239",
        "count": 258
      }
    },
    {
      "type": "Feature",
      "geometry": { "type": "Point", "coordinates": [139.790401, 35.731037] },
      "properties": {
        "similar_stop_name": "大関横丁",
        "similar_stop_id": "0240",
        "count": 1073
      }
    },
    {
      "type": "Feature",
      "geometry": { "type": "Point", "coordinates": [139.729151, 35.73095] },
      "properties": {
        "similar_stop_name": "大塚駅前",
        "similar_stop_id": "0241",
        "count": 804
      }
    },
    {
      "type": "Feature",
      "geometry": { "type": "Point", "coordinates": [139.735717, 35.718305] },
      "properties": {
        "similar_stop_name": "窪町小学校",
        "similar_stop_id": "0242",
        "count": 737
      }
    },
    {
      "type": "Feature",
      "geometry": { "type": "Point", "coordinates": [139.733872, 35.71951] },
      "properties": {
        "similar_stop_name": "大塚二丁目",
        "similar_stop_id": "0243",
        "count": 804
      }
    },
    {
      "type": "Feature",
      "geometry": { "type": "Point", "coordinates": [139.732325, 35.720745] },
      "properties": {
        "similar_stop_name": "大塚三丁目",
        "similar_stop_id": "0244",
        "count": 1342
      }
    },
    {
      "type": "Feature",
      "geometry": { "type": "Point", "coordinates": [139.763222, 35.68606] },
      "properties": {
        "similar_stop_name": "大手町",
        "similar_stop_id": "0245",
        "count": 196
      }
    },
    {
      "type": "Feature",
      "geometry": { "type": "Point", "coordinates": [139.408081, 35.757127] },
      "properties": {
        "similar_stop_name": "大橋",
        "similar_stop_id": "0248",
        "count": 122
      }
    },
    {
      "type": "Feature",
      "geometry": { "type": "Point", "coordinates": [139.661558, 35.66922] },
      "properties": {
        "similar_stop_name": "大原町",
        "similar_stop_id": "0250",
        "count": 257
      }
    },
    {
      "type": "Feature",
      "geometry": { "type": "Point", "coordinates": [139.743151, 35.706769] },
      "properties": {
        "similar_stop_name": "大曲",
        "similar_stop_id": "0251",
        "count": 999
      }
    },
    {
      "type": "Feature",
      "geometry": { "type": "Point", "coordinates": [139.252701, 35.786385] },
      "properties": {
        "similar_stop_name": "大柳",
        "similar_stop_id": "0255",
        "count": 357
      }
    },
    {
      "type": "Feature",
      "geometry": { "type": "Point", "coordinates": [139.775546, 35.707807] },
      "properties": {
        "similar_stop_name": "御徒町駅前",
        "similar_stop_id": "0260",
        "count": 629
      }
    },
    {
      "type": "Feature",
      "geometry": { "type": "Point", "coordinates": [139.442699, 35.732008] },
      "properties": {
        "similar_stop_name": "小川一番",
        "similar_stop_id": "0261",
        "count": 118
      }
    },
    {
      "type": "Feature",
      "geometry": { "type": "Point", "coordinates": [139.446518, 35.731582] },
      "properties": {
        "similar_stop_name": "小川三差路",
        "similar_stop_id": "0262",
        "count": 118
      }
    },
    {
      "type": "Feature",
      "geometry": { "type": "Point", "coordinates": [139.461502, 35.730481] },
      "properties": {
        "similar_stop_name": "小川町一丁目",
        "similar_stop_id": "0263",
        "count": 118
      }
    },
    {
      "type": "Feature",
      "geometry": { "type": "Point", "coordinates": [139.467993, 35.730227] },
      "properties": {
        "similar_stop_name": "小川町二丁目",
        "similar_stop_id": "0264",
        "count": 118
      }
    },
    {
      "type": "Feature",
      "geometry": { "type": "Point", "coordinates": [139.211987, 35.799289] },
      "properties": {
        "similar_stop_name": "奥多摩橋",
        "similar_stop_id": "0270",
        "count": 273
      }
    },
    {
      "type": "Feature",
      "geometry": { "type": "Point", "coordinates": [139.755254, 35.746858] },
      "properties": {
        "similar_stop_name": "尾久駅前",
        "similar_stop_id": "0271",
        "count": 287
      }
    },
    {
      "type": "Feature",
      "geometry": { "type": "Point", "coordinates": [139.763377, 35.744954] },
      "properties": {
        "similar_stop_name": "西尾久一丁目",
        "similar_stop_id": "0272",
        "count": 546
      }
    },
    {
      "type": "Feature",
      "geometry": { "type": "Point", "coordinates": [139.772924, 35.749442] },
      "properties": {
        "similar_stop_name": "都立大荒川キャンパス前",
        "similar_stop_id": "0273",
        "count": 341
      }
    },
    {
      "type": "Feature",
      "geometry": { "type": "Point", "coordinates": [139.769539, 35.749786] },
      "properties": {
        "similar_stop_name": "尾久橋",
        "similar_stop_id": "0274",
        "count": 70
      }
    },
    {
      "type": "Feature",
      "geometry": { "type": "Point", "coordinates": [139.769465, 35.745353] },
      "properties": {
        "similar_stop_name": "尾久本町通り",
        "similar_stop_id": "0275",
        "count": 411
      }
    },
    {
      "type": "Feature",
      "geometry": { "type": "Point", "coordinates": [139.812907, 35.709137] },
      "properties": {
        "similar_stop_name": "押上",
        "similar_stop_id": "0276",
        "count": 1367
      }
    },
    {
      "type": "Feature",
      "geometry": { "type": "Point", "coordinates": [139.813564, 35.710822] },
      "properties": {
        "similar_stop_name": "押上駅前",
        "similar_stop_id": "0277",
        "count": 334
      }
    },
    {
      "type": "Feature",
      "geometry": { "type": "Point", "coordinates": [139.81586, 35.711654] },
      "properties": {
        "similar_stop_name": "押上一丁目",
        "similar_stop_id": "0278",
        "count": 334
      }
    },
    {
      "type": "Feature",
      "geometry": { "type": "Point", "coordinates": [139.818024, 35.709424] },
      "properties": {
        "similar_stop_name": "押上三丁目",
        "similar_stop_id": "0279",
        "count": 334
      }
    },
    {
      "type": "Feature",
      "geometry": { "type": "Point", "coordinates": [139.281539, 35.822421] },
      "properties": {
        "similar_stop_name": "小曽木診療所前",
        "similar_stop_id": "0280",
        "count": 58
      }
    },
    {
      "type": "Feature",
      "geometry": { "type": "Point", "coordinates": [139.27881, 35.822021] },
      "properties": {
        "similar_stop_name": "ＪＡ小曽木支店前",
        "similar_stop_id": "0281",
        "count": 58
      }
    },
    {
      "type": "Feature",
      "geometry": { "type": "Point", "coordinates": [139.694521, 35.709997] },
      "properties": {
        "similar_stop_name": "小滝橋",
        "similar_stop_id": "0282",
        "count": 926
      }
    },
    {
      "type": "Feature",
      "geometry": { "type": "Point", "coordinates": [139.762246, 35.749869] },
      "properties": {
        "similar_stop_name": "小台",
        "similar_stop_id": "0283",
        "count": 546
      }
    },
    {
      "type": "Feature",
      "geometry": { "type": "Point", "coordinates": [139.768474, 35.755871] },
      "properties": {
        "similar_stop_name": "小台土手上",
        "similar_stop_id": "0285",
        "count": 142
      }
    },
    {
      "type": "Feature",
      "geometry": { "type": "Point", "coordinates": [139.762799, 35.755742] },
      "properties": {
        "similar_stop_name": "小台橋",
        "similar_stop_id": "0286",
        "count": 546
      }
    },
    {
      "type": "Feature",
      "geometry": { "type": "Point", "coordinates": [139.774857, 35.754902] },
      "properties": {
        "similar_stop_name": "小台東",
        "similar_stop_id": "0287",
        "count": 142
      }
    },
    {
      "type": "Feature",
      "geometry": { "type": "Point", "coordinates": [139.762105, 35.758736] },
      "properties": {
        "similar_stop_name": "小台町",
        "similar_stop_id": "0288",
        "count": 142
      }
    },
    {
      "type": "Feature",
      "geometry": { "type": "Point", "coordinates": [139.764264, 35.700396] },
      "properties": {
        "similar_stop_name": "御茶ノ水駅前",
        "similar_stop_id": "0291",
        "count": 494
      }
    },
    {
      "type": "Feature",
      "geometry": { "type": "Point", "coordinates": [139.730061, 35.713555] },
      "properties": {
        "similar_stop_name": "音羽一丁目",
        "similar_stop_id": "0292",
        "count": 545
      }
    },
    {
      "type": "Feature",
      "geometry": { "type": "Point", "coordinates": [139.727978, 35.717786] },
      "properties": {
        "similar_stop_name": "音羽二丁目",
        "similar_stop_id": "0293",
        "count": 545
      }
    },
    {
      "type": "Feature",
      "geometry": { "type": "Point", "coordinates": [139.750634, 35.661108] },
      "properties": {
        "similar_stop_name": "御成門",
        "similar_stop_id": "0294",
        "count": 356
      }
    },
    {
      "type": "Feature",
      "geometry": { "type": "Point", "coordinates": [139.748943, 35.660551] },
      "properties": {
        "similar_stop_name": "御成門小学校前",
        "similar_stop_id": "0295",
        "count": 101
      }
    },
    {
      "type": "Feature",
      "geometry": { "type": "Point", "coordinates": [139.268269, 35.814866] },
      "properties": {
        "similar_stop_name": "小枕",
        "similar_stop_id": "0296",
        "count": 58
      }
    },
    {
      "type": "Feature",
      "geometry": { "type": "Point", "coordinates": [139.705817, 35.668909] },
      "properties": {
        "similar_stop_name": "表参道",
        "similar_stop_id": "0297",
        "count": 437
      }
    },
    {
      "type": "Feature",
      "geometry": { "type": "Point", "coordinates": [139.759364, 35.656218] },
      "properties": {
        "similar_stop_name": "海岸一丁目",
        "similar_stop_id": "0299",
        "count": 201
      }
    },
    {
      "type": "Feature",
      "geometry": { "type": "Point", "coordinates": [139.75884, 35.650502] },
      "properties": {
        "similar_stop_name": "日の出桟橋入口",
        "similar_stop_id": "0300",
        "count": 201
      }
    },
    {
      "type": "Feature",
      "geometry": { "type": "Point", "coordinates": [139.756343, 35.645571] },
      "properties": {
        "similar_stop_name": "海岸三丁目",
        "similar_stop_id": "0301",
        "count": 201
      }
    },
    {
      "type": "Feature",
      "geometry": { "type": "Point", "coordinates": [139.772184, 35.622328] },
      "properties": {
        "similar_stop_name": "東京国際クルーズターミナル駅前",
        "similar_stop_id": "0302",
        "count": 854
      }
    },
    {
      "type": "Feature",
      "geometry": { "type": "Point", "coordinates": [139.780863, 35.682477] },
      "properties": {
        "similar_stop_name": "蛎殻町",
        "similar_stop_id": "0303",
        "count": 156
      }
    },
    {
      "type": "Feature",
      "geometry": { "type": "Point", "coordinates": [139.737564, 35.701599] },
      "properties": {
        "similar_stop_name": "牛込神楽坂駅前",
        "similar_stop_id": "0305",
        "count": 44
      }
    },
    {
      "type": "Feature",
      "geometry": { "type": "Point", "coordinates": [139.869396, 35.660986] },
      "properties": {
        "similar_stop_name": "葛西駅通り",
        "similar_stop_id": "0306",
        "count": 188
      }
    },
    {
      "type": "Feature",
      "geometry": { "type": "Point", "coordinates": [139.872709, 35.663254] },
      "properties": {
        "similar_stop_name": "葛西駅前",
        "similar_stop_id": "0307",
        "count": 4567
      }
    },
    {
      "type": "Feature",
      "geometry": { "type": "Point", "coordinates": [139.869377, 35.666063] },
      "properties": {
        "similar_stop_name": "葛西区民館前",
        "similar_stop_id": "0308",
        "count": 317
      }
    },
    {
      "type": "Feature",
      "geometry": { "type": "Point", "coordinates": [139.881213, 35.682211] },
      "properties": {
        "similar_stop_name": "葛西工科高校前",
        "similar_stop_id": "0309",
        "count": 787
      }
    },
    {
      "type": "Feature",
      "geometry": { "type": "Point", "coordinates": [139.867471, 35.66847] },
      "properties": {
        "similar_stop_name": "江戸川車庫前",
        "similar_stop_id": "0310",
        "count": 443
      }
    },
    {
      "type": "Feature",
      "geometry": { "type": "Point", "coordinates": [139.871979, 35.670629] },
      "properties": {
        "similar_stop_name": "葛西中学校前",
        "similar_stop_id": "0312",
        "count": 1178
      }
    },
    {
      "type": "Feature",
      "geometry": { "type": "Point", "coordinates": [139.842486, 35.672148] },
      "properties": {
        "similar_stop_name": "葛西橋",
        "similar_stop_id": "0313",
        "count": 610
      }
    },
    {
      "type": "Feature",
      "geometry": { "type": "Point", "coordinates": [139.854036, 35.670707] },
      "properties": {
        "similar_stop_name": "葛西橋東詰",
        "similar_stop_id": "0314",
        "count": 779
      }
    },
    {
      "type": "Feature",
      "geometry": { "type": "Point", "coordinates": [139.87175, 35.673441] },
      "properties": {
        "similar_stop_name": "新川橋",
        "similar_stop_id": "0315",
        "count": 1178
      }
    },
    {
      "type": "Feature",
      "geometry": { "type": "Point", "coordinates": [139.869886, 35.654173] },
      "properties": {
        "similar_stop_name": "葛西南高校前",
        "similar_stop_id": "0316",
        "count": 669
      }
    },
    {
      "type": "Feature",
      "geometry": { "type": "Point", "coordinates": [139.754008, 35.707748] },
      "properties": {
        "similar_stop_name": "春日一丁目",
        "similar_stop_id": "0318",
        "count": 2
      }
    },
    {
      "type": "Feature",
      "geometry": { "type": "Point", "coordinates": [139.743597, 35.712095] },
      "properties": {
        "similar_stop_name": "春日二丁目",
        "similar_stop_id": "0319",
        "count": 737
      }
    },
    {
      "type": "Feature",
      "geometry": { "type": "Point", "coordinates": [139.748669, 35.673899] },
      "properties": {
        "similar_stop_name": "霞が関",
        "similar_stop_id": "0320",
        "count": 236
      }
    },
    {
      "type": "Feature",
      "geometry": { "type": "Point", "coordinates": [139.286586, 35.790784] },
      "properties": {
        "similar_stop_name": "霞台第二住宅",
        "similar_stop_id": "0321",
        "count": 242
      }
    },
    {
      "type": "Feature",
      "geometry": { "type": "Point", "coordinates": [139.302179, 35.787412] },
      "properties": {
        "similar_stop_name": "霞町新町",
        "similar_stop_id": "0322",
        "count": 122
      }
    },
    {
      "type": "Feature",
      "geometry": { "type": "Point", "coordinates": [139.291309, 35.793875] },
      "properties": {
        "similar_stop_name": "ＪＡ西東京前",
        "similar_stop_id": "0323",
        "count": 157
      }
    },
    {
      "type": "Feature",
      "geometry": { "type": "Point", "coordinates": [139.289256, 35.796871] },
      "properties": {
        "similar_stop_name": "霞橋",
        "similar_stop_id": "0324",
        "count": 157
      }
    },
    {
      "type": "Feature",
      "geometry": { "type": "Point", "coordinates": [139.776323, 35.660462] },
      "properties": {
        "similar_stop_name": "勝どき橋南詰",
        "similar_stop_id": "0325",
        "count": 4873
      }
    },
    {
      "type": "Feature",
      "geometry": { "type": "Point", "coordinates": [139.778029, 35.659714] },
      "properties": {
        "similar_stop_name": "勝どき駅前",
        "similar_stop_id": "0326",
        "count": 5452
      }
    },
    {
      "type": "Feature",
      "geometry": { "type": "Point", "coordinates": [139.775415, 35.657631] },
      "properties": {
        "similar_stop_name": "勝どき三丁目",
        "similar_stop_id": "0327",
        "count": 922
      }
    },
    {
      "type": "Feature",
      "geometry": { "type": "Point", "coordinates": [139.744318, 35.600077] },
      "properties": {
        "similar_stop_name": "勝島一丁目",
        "similar_stop_id": "0329",
        "count": 1836
      }
    },
    {
      "type": "Feature",
      "geometry": { "type": "Point", "coordinates": [139.725258, 35.691824] },
      "properties": {
        "similar_stop_name": "合羽坂下",
        "similar_stop_id": "0330",
        "count": 234
      }
    },
    {
      "type": "Feature",
      "geometry": { "type": "Point", "coordinates": [139.753564, 35.65288] },
      "properties": {
        "similar_stop_name": "金杉橋",
        "similar_stop_id": "0331",
        "count": 811
      }
    },
    {
      "type": "Feature",
      "geometry": { "type": "Point", "coordinates": [139.871433, 35.769232] },
      "properties": {
        "similar_stop_name": "金町駅前",
        "similar_stop_id": "0332",
        "count": 327
      }
    },
    {
      "type": "Feature",
      "geometry": { "type": "Point", "coordinates": [139.870452, 35.766374] },
      "properties": {
        "similar_stop_name": "金町二丁目",
        "similar_stop_id": "0333",
        "count": 327
      }
    },
    {
      "type": "Feature",
      "geometry": { "type": "Point", "coordinates": [139.702547, 35.693474] },
      "properties": {
        "similar_stop_name": "歌舞伎町",
        "similar_stop_id": "0334",
        "count": 1780
      }
    },
    {
      "type": "Feature",
      "geometry": { "type": "Point", "coordinates": [139.777401, 35.680923] },
      "properties": {
        "similar_stop_name": "兜町",
        "similar_stop_id": "0335",
        "count": 398
      }
    },
    {
      "type": "Feature",
      "geometry": { "type": "Point", "coordinates": [139.28608, 35.788641] },
      "properties": {
        "similar_stop_name": "河辺駅入口",
        "similar_stop_id": "0337",
        "count": 364
      }
    },
    {
      "type": "Feature",
      "geometry": { "type": "Point", "coordinates": [139.285057, 35.784587] },
      "properties": {
        "similar_stop_name": "河辺駅北口",
        "similar_stop_id": "0338",
        "count": 242
      }
    },
    {
      "type": "Feature",
      "geometry": { "type": "Point", "coordinates": [139.657072, 35.679347] },
      "properties": {
        "similar_stop_name": "釜寺",
        "similar_stop_id": "0341",
        "count": 463
      }
    },
    {
      "type": "Feature",
      "geometry": { "type": "Point", "coordinates": [139.719175, 35.735811] },
      "properties": {
        "similar_stop_name": "上池袋一丁目",
        "similar_stop_id": "0342",
        "count": 2597
      }
    },
    {
      "type": "Feature",
      "geometry": { "type": "Point", "coordinates": [139.721866, 35.738053] },
      "properties": {
        "similar_stop_name": "上池袋三丁目",
        "similar_stop_id": "0343",
        "count": 2597
      }
    },
    {
      "type": "Feature",
      "geometry": { "type": "Point", "coordinates": [139.719035, 35.634405] },
      "properties": {
        "similar_stop_name": "上大崎",
        "similar_stop_id": "0346",
        "count": 1507
      }
    },
    {
      "type": "Feature",
      "geometry": { "type": "Point", "coordinates": [139.218526, 35.791966] },
      "properties": {
        "similar_stop_name": "上郷",
        "similar_stop_id": "0350",
        "count": 273
      }
    },
    {
      "type": "Feature",
      "geometry": { "type": "Point", "coordinates": [139.71508, 35.763806] },
      "properties": {
        "similar_stop_name": "上十条五丁目",
        "similar_stop_id": "0351",
        "count": 276
      }
    },
    {
      "type": "Feature",
      "geometry": { "type": "Point", "coordinates": [139.759341, 35.735296] },
      "properties": {
        "similar_stop_name": "上田端",
        "similar_stop_id": "0352",
        "count": 877
      }
    },
    {
      "type": "Feature",
      "geometry": { "type": "Point", "coordinates": [139.253267, 35.790033] },
      "properties": {
        "similar_stop_name": "上町",
        "similar_stop_id": "0353",
        "count": 439
      }
    },
    {
      "type": "Feature",
      "geometry": { "type": "Point", "coordinates": [139.202826, 35.836981] },
      "properties": {
        "similar_stop_name": "上成木",
        "similar_stop_id": "0354",
        "count": 30
      }
    },
    {
      "type": "Feature",
      "geometry": { "type": "Point", "coordinates": [139.763689, 35.778144] },
      "properties": {
        "similar_stop_name": "上沼田団地",
        "similar_stop_id": "0355",
        "count": 338
      }
    },
    {
      "type": "Feature",
      "geometry": { "type": "Point", "coordinates": [139.778701, 35.724378] },
      "properties": {
        "similar_stop_name": "上根岸",
        "similar_stop_id": "0356",
        "count": 324
      }
    },
    {
      "type": "Feature",
      "geometry": { "type": "Point", "coordinates": [139.682435, 35.750898] },
      "properties": {
        "similar_stop_name": "上の根橋",
        "similar_stop_id": "0357",
        "count": 281
      }
    },
    {
      "type": "Feature",
      "geometry": { "type": "Point", "coordinates": [139.285578, 35.837845] },
      "properties": {
        "similar_stop_name": "上畑",
        "similar_stop_id": "0358",
        "count": 55
      }
    },
    {
      "type": "Feature",
      "geometry": { "type": "Point", "coordinates": [139.749775, 35.731582] },
      "properties": {
        "similar_stop_name": "上富士前",
        "similar_stop_id": "0359",
        "count": 741
      }
    },
    {
      "type": "Feature",
      "geometry": { "type": "Point", "coordinates": [139.745512, 35.663639] },
      "properties": {
        "similar_stop_name": "神谷町駅前",
        "similar_stop_id": "0360",
        "count": 411
      }
    },
    {
      "type": "Feature",
      "geometry": { "type": "Point", "coordinates": [139.730733, 35.7684] },
      "properties": {
        "similar_stop_name": "神谷一丁目",
        "similar_stop_id": "0361",
        "count": 276
      }
    },
    {
      "type": "Feature",
      "geometry": { "type": "Point", "coordinates": [139.693039, 35.664797] },
      "properties": {
        "similar_stop_name": "神山",
        "similar_stop_id": "0363",
        "count": 103
      }
    },
    {
      "type": "Feature",
      "geometry": { "type": "Point", "coordinates": [139.862983, 35.762134] },
      "properties": {
        "similar_stop_name": "亀有警察署前",
        "similar_stop_id": "0365",
        "count": 327
      }
    },
    {
      "type": "Feature",
      "geometry": { "type": "Point", "coordinates": [139.850247, 35.752374] },
      "properties": {
        "similar_stop_name": "亀有新道入口",
        "similar_stop_id": "0366",
        "count": 327
      }
    },
    {
      "type": "Feature",
      "geometry": { "type": "Point", "coordinates": [139.824902, 35.696694] },
      "properties": {
        "similar_stop_name": "亀戸駅通り",
        "similar_stop_id": "0368",
        "count": 4718
      }
    },
    {
      "type": "Feature",
      "geometry": { "type": "Point", "coordinates": [139.825987, 35.697914] },
      "properties": {
        "similar_stop_name": "亀戸駅前",
        "similar_stop_id": "0369",
        "count": 2983
      }
    },
    {
      "type": "Feature",
      "geometry": { "type": "Point", "coordinates": [139.820349, 35.701353] },
      "properties": {
        "similar_stop_name": "亀戸天神前",
        "similar_stop_id": "0370",
        "count": 226
      }
    },
    {
      "type": "Feature",
      "geometry": { "type": "Point", "coordinates": [139.824623, 35.701586] },
      "properties": {
        "similar_stop_name": "亀戸四丁目",
        "similar_stop_id": "0371",
        "count": 1004
      }
    },
    {
      "type": "Feature",
      "geometry": { "type": "Point", "coordinates": [139.832341, 35.696843] },
      "properties": {
        "similar_stop_name": "亀戸六丁目",
        "similar_stop_id": "0372",
        "count": 1943
      }
    },
    {
      "type": "Feature",
      "geometry": { "type": "Point", "coordinates": [139.835754, 35.697246] },
      "properties": {
        "similar_stop_name": "亀戸七丁目",
        "similar_stop_id": "0373",
        "count": 1474
      }
    },
    {
      "type": "Feature",
      "geometry": { "type": "Point", "coordinates": [139.83939, 35.697404] },
      "properties": {
        "similar_stop_name": "亀戸九丁目",
        "similar_stop_id": "0374",
        "count": 1474
      }
    },
    {
      "type": "Feature",
      "geometry": { "type": "Point", "coordinates": [139.805121, 35.698029] },
      "properties": {
        "similar_stop_name": "亀沢四丁目",
        "similar_stop_id": "0375",
        "count": 1108
      }
    },
    {
      "type": "Feature",
      "geometry": { "type": "Point", "coordinates": [139.777684, 35.676699] },
      "properties": {
        "similar_stop_name": "亀島橋",
        "similar_stop_id": "0376",
        "count": 1617
      }
    },
    {
      "type": "Feature",
      "geometry": { "type": "Point", "coordinates": [139.833927, 35.676986] },
      "properties": {
        "similar_stop_name": "亀高橋",
        "similar_stop_id": "0377",
        "count": 1741
      }
    },
    {
      "type": "Feature",
      "geometry": { "type": "Point", "coordinates": [139.778527, 35.68128] },
      "properties": {
        "similar_stop_name": "茅場町",
        "similar_stop_id": "0378",
        "count": 554
      }
    },
    {
      "type": "Feature",
      "geometry": { "type": "Point", "coordinates": [139.717968, 35.699235] },
      "properties": {
        "similar_stop_name": "河田町",
        "similar_stop_id": "0379",
        "count": 646
      }
    },
    {
      "type": "Feature",
      "geometry": { "type": "Point", "coordinates": [139.710147, 35.650156] },
      "properties": {
        "similar_stop_name": "東三丁目",
        "similar_stop_id": "0380",
        "count": 3229
      }
    },
    {
      "type": "Feature",
      "geometry": { "type": "Point", "coordinates": [139.770944, 35.693876] },
      "properties": {
        "similar_stop_name": "神田駅前",
        "similar_stop_id": "0381",
        "count": 159
      }
    },
    {
      "type": "Feature",
      "geometry": { "type": "Point", "coordinates": [139.762076, 35.692809] },
      "properties": {
        "similar_stop_name": "神田錦町",
        "similar_stop_id": "0382",
        "count": 196
      }
    },
    {
      "type": "Feature",
      "geometry": { "type": "Point", "coordinates": [139.763619, 35.687516] },
      "properties": {
        "similar_stop_name": "神田橋",
        "similar_stop_id": "0383",
        "count": 196
      }
    },
    {
      "type": "Feature",
      "geometry": { "type": "Point", "coordinates": [139.766703, 35.70121] },
      "properties": {
        "similar_stop_name": "神田明神前",
        "similar_stop_id": "0384",
        "count": 105
      }
    },
    {
      "type": "Feature",
      "geometry": { "type": "Point", "coordinates": [139.705332, 35.673485] },
      "properties": {
        "similar_stop_name": "原宿外苑中学校前",
        "similar_stop_id": "0385",
        "count": 122
      }
    },
    {
      "type": "Feature",
      "geometry": { "type": "Point", "coordinates": [139.712223, 35.715871] },
      "properties": {
        "similar_stop_name": "学習院下",
        "similar_stop_id": "0387",
        "count": 419
      }
    },
    {
      "type": "Feature",
      "geometry": { "type": "Point", "coordinates": [139.804549, 35.731463] },
      "properties": {
        "similar_stop_name": "南千住清掃車車庫前",
        "similar_stop_id": "0388",
        "count": 371
      }
    },
    {
      "type": "Feature",
      "geometry": { "type": "Point", "coordinates": [139.831943, 35.671856] },
      "properties": {
        "similar_stop_name": "学校通り",
        "similar_stop_id": "0389",
        "count": 470
      }
    },
    {
      "type": "Feature",
      "geometry": { "type": "Point", "coordinates": [139.721646, 35.703037] },
      "properties": {
        "similar_stop_name": "喜久井町",
        "similar_stop_id": "0391",
        "count": 123
      }
    },
    {
      "type": "Feature",
      "geometry": { "type": "Point", "coordinates": [139.805417, 35.688451] },
      "properties": {
        "similar_stop_name": "菊川駅前",
        "similar_stop_id": "0392",
        "count": 1281
      }
    },
    {
      "type": "Feature",
      "geometry": { "type": "Point", "coordinates": [139.802574, 35.688143] },
      "properties": {
        "similar_stop_name": "菊川一丁目",
        "similar_stop_id": "0393",
        "count": 156
      }
    },
    {
      "type": "Feature",
      "geometry": { "type": "Point", "coordinates": [139.80791, 35.688417] },
      "properties": {
        "similar_stop_name": "菊川三丁目",
        "similar_stop_id": "0394",
        "count": 156
      }
    },
    {
      "type": "Feature",
      "geometry": { "type": "Point", "coordinates": [139.754664, 35.711429] },
      "properties": {
        "similar_stop_name": "菊坂下",
        "similar_stop_id": "0395",
        "count": 108
      }
    },
    {
      "type": "Feature",
      "geometry": { "type": "Point", "coordinates": [139.787442, 35.71056] },
      "properties": {
        "similar_stop_name": "菊屋橋",
        "similar_stop_id": "0396",
        "count": 640
      }
    },
    {
      "type": "Feature",
      "geometry": { "type": "Point", "coordinates": [139.36507, 35.763967] },
      "properties": {
        "similar_stop_name": "岸",
        "similar_stop_id": "0397",
        "count": 122
      }
    },
    {
      "type": "Feature",
      "geometry": { "type": "Point", "coordinates": [139.715656, 35.717988] },
      "properties": {
        "similar_stop_name": "鬼子母神前",
        "similar_stop_id": "0398",
        "count": 1380
      }
    },
    {
      "type": "Feature",
      "geometry": { "type": "Point", "coordinates": [139.715175, 35.669679] },
      "properties": {
        "similar_stop_name": "北青山三丁目",
        "similar_stop_id": "0400",
        "count": 712
      }
    },
    {
      "type": "Feature",
      "geometry": { "type": "Point", "coordinates": [139.245237, 35.819059] },
      "properties": {
        "similar_stop_name": "坂下",
        "similar_stop_id": "0402",
        "count": 85
      }
    },
    {
      "type": "Feature",
      "geometry": { "type": "Point", "coordinates": [139.734752, 35.768589] },
      "properties": {
        "similar_stop_name": "北区神谷町",
        "similar_stop_id": "0403",
        "count": 1326
      }
    },
    {
      "type": "Feature",
      "geometry": { "type": "Point", "coordinates": [139.704619, 35.679394] },
      "properties": {
        "similar_stop_name": "北参道",
        "similar_stop_id": "0404",
        "count": 376
      }
    },
    {
      "type": "Feature",
      "geometry": { "type": "Point", "coordinates": [139.725787, 35.644471] },
      "properties": {
        "similar_stop_name": "北里研究所前",
        "similar_stop_id": "0405",
        "count": 1704
      }
    },
    {
      "type": "Feature",
      "geometry": { "type": "Point", "coordinates": [139.73302, 35.773841] },
      "properties": {
        "similar_stop_name": "北車庫前",
        "similar_stop_id": "0407",
        "count": 712
      }
    },
    {
      "type": "Feature",
      "geometry": { "type": "Point", "coordinates": [139.822539, 35.680891] },
      "properties": {
        "similar_stop_name": "北砂一丁目",
        "similar_stop_id": "0409",
        "count": 225
      }
    },
    {
      "type": "Feature",
      "geometry": { "type": "Point", "coordinates": [139.827578, 35.679554] },
      "properties": {
        "similar_stop_name": "北砂二丁目",
        "similar_stop_id": "0410",
        "count": 2652
      }
    },
    {
      "type": "Feature",
      "geometry": { "type": "Point", "coordinates": [139.827333, 35.681886] },
      "properties": {
        "similar_stop_name": "北砂三丁目",
        "similar_stop_id": "0411",
        "count": 2652
      }
    },
    {
      "type": "Feature",
      "geometry": { "type": "Point", "coordinates": [139.83109, 35.6767] },
      "properties": {
        "similar_stop_name": "北砂四丁目",
        "similar_stop_id": "0412",
        "count": 923
      }
    },
    {
      "type": "Feature",
      "geometry": { "type": "Point", "coordinates": [139.83536, 35.681892] },
      "properties": {
        "similar_stop_name": "北砂五丁目",
        "similar_stop_id": "0413",
        "count": 652
      }
    },
    {
      "type": "Feature",
      "geometry": { "type": "Point", "coordinates": [139.835934, 35.683933] },
      "properties": {
        "similar_stop_name": "北砂六丁目",
        "similar_stop_id": "0414",
        "count": 1098
      }
    },
    {
      "type": "Feature",
      "geometry": { "type": "Point", "coordinates": [139.834676, 35.679526] },
      "properties": {
        "similar_stop_name": "北砂七丁目",
        "similar_stop_id": "0415",
        "count": 652
      }
    },
    {
      "type": "Feature",
      "geometry": { "type": "Point", "coordinates": [139.804572, 35.749865] },
      "properties": {
        "similar_stop_name": "北千住駅前",
        "similar_stop_id": "0416",
        "count": 1140
      }
    },
    {
      "type": "Feature",
      "geometry": { "type": "Point", "coordinates": [139.285887, 35.799539] },
      "properties": {
        "similar_stop_name": "塩船観音入口",
        "similar_stop_id": "0419",
        "count": 157
      }
    },
    {
      "type": "Feature",
      "geometry": { "type": "Point", "coordinates": [139.801503, 35.802492] },
      "properties": {
        "similar_stop_name": "北保木間",
        "similar_stop_id": "0421",
        "count": 56
      }
    },
    {
      "type": "Feature",
      "geometry": { "type": "Point", "coordinates": [139.752333, 35.727577] },
      "properties": {
        "similar_stop_name": "吉祥寺前",
        "similar_stop_id": "0422",
        "count": 196
      }
    },
    {
      "type": "Feature",
      "geometry": { "type": "Point", "coordinates": [139.832465, 35.72128] },
      "properties": {
        "similar_stop_name": "東墨田会館前",
        "similar_stop_id": "0423",
        "count": 271
      }
    },
    {
      "type": "Feature",
      "geometry": { "type": "Point", "coordinates": [139.805787, 35.66987] },
      "properties": {
        "similar_stop_name": "木場駅前",
        "similar_stop_id": "0425",
        "count": 3245
      }
    },
    {
      "type": "Feature",
      "geometry": { "type": "Point", "coordinates": [139.803438, 35.66942] },
      "properties": {
        "similar_stop_name": "木場二丁目",
        "similar_stop_id": "0426",
        "count": 2070
      }
    },
    {
      "type": "Feature",
      "geometry": { "type": "Point", "coordinates": [139.806351, 35.672825] },
      "properties": {
        "similar_stop_name": "木場三丁目",
        "similar_stop_id": "0427",
        "count": 1191
      }
    },
    {
      "type": "Feature",
      "geometry": { "type": "Point", "coordinates": [139.80671, 35.674767] },
      "properties": {
        "similar_stop_name": "木場四丁目",
        "similar_stop_id": "0428",
        "count": 1191
      }
    },
    {
      "type": "Feature",
      "geometry": { "type": "Point", "coordinates": [139.805111, 35.667518] },
      "properties": {
        "similar_stop_name": "木場六丁目ギャザリア前",
        "similar_stop_id": "0429",
        "count": 1185
      }
    },
    {
      "type": "Feature",
      "geometry": { "type": "Point", "coordinates": [139.840494, 35.67487] },
      "properties": {
        "similar_stop_name": "旧葛西橋",
        "similar_stop_id": "0430",
        "count": 1677
      }
    },
    {
      "type": "Feature",
      "geometry": { "type": "Point", "coordinates": [139.237465, 35.830004] },
      "properties": {
        "similar_stop_name": "久道",
        "similar_stop_id": "0431",
        "count": 30
      }
    },
    {
      "type": "Feature",
      "geometry": { "type": "Point", "coordinates": [139.798593, 35.792732] },
      "properties": {
        "similar_stop_name": "旧道交差点",
        "similar_stop_id": "0432",
        "count": 653
      }
    },
    {
      "type": "Feature",
      "geometry": { "type": "Point", "coordinates": [139.254993, 35.78262] },
      "properties": {
        "similar_stop_name": "郷土博物館入口",
        "similar_stop_id": "0433",
        "count": 84
      }
    },
    {
      "type": "Feature",
      "geometry": { "type": "Point", "coordinates": [139.803387, 35.728886] },
      "properties": {
        "similar_stop_name": "清川",
        "similar_stop_id": "0435",
        "count": 441
      }
    },
    {
      "type": "Feature",
      "geometry": { "type": "Point", "coordinates": [139.801132, 35.725795] },
      "properties": {
        "similar_stop_name": "清川二丁目",
        "similar_stop_id": "0436",
        "count": 906
      }
    },
    {
      "type": "Feature",
      "geometry": { "type": "Point", "coordinates": [139.78941, 35.684082] },
      "properties": {
        "similar_stop_name": "清洲橋",
        "similar_stop_id": "0437",
        "count": 225
      }
    },
    {
      "type": "Feature",
      "geometry": { "type": "Point", "coordinates": [139.798818, 35.680933] },
      "properties": {
        "similar_stop_name": "清澄庭園前",
        "similar_stop_id": "0438",
        "count": 557
      }
    },
    {
      "type": "Feature",
      "geometry": { "type": "Point", "coordinates": [139.795494, 35.681773] },
      "properties": {
        "similar_stop_name": "清澄一丁目",
        "similar_stop_id": "0439",
        "count": 225
      }
    },
    {
      "type": "Feature",
      "geometry": { "type": "Point", "coordinates": [139.798834, 35.682577] },
      "properties": {
        "similar_stop_name": "清澄白河駅前",
        "similar_stop_id": "0440",
        "count": 662
      }
    },
    {
      "type": "Feature",
      "geometry": { "type": "Point", "coordinates": [139.814753, 35.699229] },
      "properties": {
        "similar_stop_name": "錦糸公園前",
        "similar_stop_id": "0441",
        "count": 1560
      }
    },
    {
      "type": "Feature",
      "geometry": { "type": "Point", "coordinates": [139.814529, 35.695894] },
      "properties": {
        "similar_stop_name": "錦糸町駅前",
        "similar_stop_id": "0442",
        "count": 8471
      }
    },
    {
      "type": "Feature",
      "geometry": { "type": "Point", "coordinates": [139.815312, 35.694386] },
      "properties": {
        "similar_stop_name": "錦糸堀",
        "similar_stop_id": "0443",
        "count": 1552
      }
    },
    {
      "type": "Feature",
      "geometry": { "type": "Point", "coordinates": [139.735933, 35.644574] },
      "properties": {
        "similar_stop_name": "魚籃坂下",
        "similar_stop_id": "0444",
        "count": 3092
      }
    },
    {
      "type": "Feature",
      "geometry": { "type": "Point", "coordinates": [139.761623, 35.670877] },
      "properties": {
        "similar_stop_name": "銀座西六丁目",
        "similar_stop_id": "0445",
        "count": 1002
      }
    },
    {
      "type": "Feature",
      "geometry": { "type": "Point", "coordinates": [139.766461, 35.670244] },
      "properties": {
        "similar_stop_name": "銀座四丁目",
        "similar_stop_id": "0448",
        "count": 4646
      }
    },
    {
      "type": "Feature",
      "geometry": { "type": "Point", "coordinates": [139.763577, 35.669695] },
      "properties": {
        "similar_stop_name": "銀座六丁目",
        "similar_stop_id": "0449",
        "count": 87
      }
    },
    {
      "type": "Feature",
      "geometry": { "type": "Point", "coordinates": [139.745619, 35.694133] },
      "properties": {
        "similar_stop_name": "九段上",
        "similar_stop_id": "0451",
        "count": 198
      }
    },
    {
      "type": "Feature",
      "geometry": { "type": "Point", "coordinates": [139.751118, 35.695913] },
      "properties": {
        "similar_stop_name": "九段下",
        "similar_stop_id": "0452",
        "count": 387
      }
    },
    {
      "type": "Feature",
      "geometry": { "type": "Point", "coordinates": [139.742611, 35.692861] },
      "properties": {
        "similar_stop_name": "九段三丁目",
        "similar_stop_id": "0453",
        "count": 198
      }
    },
    {
      "type": "Feature",
      "geometry": { "type": "Point", "coordinates": [139.769523, 35.748292] },
      "properties": {
        "similar_stop_name": "熊野前",
        "similar_stop_id": "0454",
        "count": 411
      }
    },
    {
      "type": "Feature",
      "geometry": { "type": "Point", "coordinates": [139.490946, 35.730767] },
      "properties": {
        "similar_stop_name": "熊野宮前",
        "similar_stop_id": "0455",
        "count": 96
      }
    },
    {
      "type": "Feature",
      "geometry": { "type": "Point", "coordinates": [139.709838, 35.697584] },
      "properties": {
        "similar_stop_name": "東新宿保健センター前",
        "similar_stop_id": "0456",
        "count": 326
      }
    },
    {
      "type": "Feature",
      "geometry": { "type": "Point", "coordinates": [139.78836, 35.700728] },
      "properties": {
        "similar_stop_name": "蔵前一丁目",
        "similar_stop_id": "0457",
        "count": 510
      }
    },
    {
      "type": "Feature",
      "geometry": { "type": "Point", "coordinates": [139.790589, 35.703109] },
      "properties": {
        "similar_stop_name": "蔵前二丁目",
        "similar_stop_id": "0458",
        "count": 510
      }
    },
    {
      "type": "Feature",
      "geometry": { "type": "Point", "coordinates": [139.783304, 35.778183] },
      "properties": {
        "similar_stop_name": "栗原町",
        "similar_stop_id": "0459",
        "count": 1546
      }
    },
    {
      "type": "Feature",
      "geometry": { "type": "Point", "coordinates": [139.254058, 35.813307] },
      "properties": {
        "similar_stop_name": "黒沢",
        "similar_stop_id": "0460",
        "count": 85
      }
    },
    {
      "type": "Feature",
      "geometry": { "type": "Point", "coordinates": [139.264432, 35.813861] },
      "properties": {
        "similar_stop_name": "黒沢神社前",
        "similar_stop_id": "0461",
        "count": 58
      }
    },
    {
      "type": "Feature",
      "geometry": { "type": "Point", "coordinates": [139.875685, 35.671345] },
      "properties": {
        "similar_stop_name": "桑川町",
        "similar_stop_id": "0462",
        "count": 1298
      }
    },
    {
      "type": "Feature",
      "geometry": { "type": "Point", "coordinates": [139.720781, 35.711414] },
      "properties": {
        "similar_stop_name": "グランド坂下",
        "similar_stop_id": "0463",
        "count": 396
      }
    },
    {
      "type": "Feature",
      "geometry": { "type": "Point", "coordinates": [139.742669, 35.648036] },
      "properties": {
        "similar_stop_name": "慶応義塾大前",
        "similar_stop_id": "0464",
        "count": 1704
      }
    },
    {
      "type": "Feature",
      "geometry": { "type": "Point", "coordinates": [139.751829, 35.677508] },
      "properties": {
        "similar_stop_name": "警視庁前",
        "similar_stop_id": "0466",
        "count": 159
      }
    },
    {
      "type": "Feature",
      "geometry": { "type": "Point", "coordinates": [139.797815, 35.742801] },
      "properties": {
        "similar_stop_name": "京成中組",
        "similar_stop_id": "0467",
        "count": 205
      }
    },
    {
      "type": "Feature",
      "geometry": { "type": "Point", "coordinates": [139.867867, 35.701884] },
      "properties": {
        "similar_stop_name": "京葉交差点",
        "similar_stop_id": "0468",
        "count": 2953
      }
    },
    {
      "type": "Feature",
      "geometry": { "type": "Point", "coordinates": [139.777906, 35.629583] },
      "properties": {
        "similar_stop_name": "お台場海浜公園駅前",
        "similar_stop_id": "0469",
        "count": 719
      }
    },
    {
      "type": "Feature",
      "geometry": { "type": "Point", "coordinates": [139.751332, 35.712459] },
      "properties": {
        "similar_stop_name": "小石川二丁目",
        "similar_stop_id": "0472",
        "count": 109
      }
    },
    {
      "type": "Feature",
      "geometry": { "type": "Point", "coordinates": [139.749018, 35.714283] },
      "properties": {
        "similar_stop_name": "小石川三丁目",
        "similar_stop_id": "0473",
        "count": 109
      }
    },
    {
      "type": "Feature",
      "geometry": { "type": "Point", "coordinates": [139.740805, 35.714253] },
      "properties": {
        "similar_stop_name": "小石川四丁目",
        "similar_stop_id": "0474",
        "count": 737
      }
    },
    {
      "type": "Feature",
      "geometry": { "type": "Point", "coordinates": [139.883159, 35.724512] },
      "properties": {
        "similar_stop_name": "小岩駅入口",
        "similar_stop_id": "0475",
        "count": 160
      }
    },
    {
      "type": "Feature",
      "geometry": { "type": "Point", "coordinates": [139.88319, 35.725559] },
      "properties": {
        "similar_stop_name": "小岩駅通り",
        "similar_stop_id": "0476",
        "count": 319
      }
    },
    {
      "type": "Feature",
      "geometry": { "type": "Point", "coordinates": [139.881972, 35.732515] },
      "properties": {
        "similar_stop_name": "小岩駅前",
        "similar_stop_id": "0477",
        "count": 319
      }
    },
    {
      "type": "Feature",
      "geometry": { "type": "Point", "coordinates": [139.654938, 35.704906] },
      "properties": {
        "similar_stop_name": "高円寺駅入口",
        "similar_stop_id": "0478",
        "count": 281
      }
    },
    {
      "type": "Feature",
      "geometry": { "type": "Point", "coordinates": [139.654904, 35.700453] },
      "properties": {
        "similar_stop_name": "高円寺体育館前",
        "similar_stop_id": "0479",
        "count": 281
      }
    },
    {
      "type": "Feature",
      "geometry": { "type": "Point", "coordinates": [139.659205, 35.697894] },
      "properties": {
        "similar_stop_name": "高円寺南一丁目",
        "similar_stop_id": "0480",
        "count": 598
      }
    },
    {
      "type": "Feature",
      "geometry": { "type": "Point", "coordinates": [139.65459, 35.701847] },
      "properties": {
        "similar_stop_name": "高円寺南四丁目",
        "similar_stop_id": "0481",
        "count": 281
      }
    },
    {
      "type": "Feature",
      "geometry": { "type": "Point", "coordinates": [139.823907, 35.641731] },
      "properties": {
        "similar_stop_name": "新木場埠頭公園前",
        "similar_stop_id": "0483",
        "count": 532
      }
    },
    {
      "type": "Feature",
      "geometry": { "type": "Point", "coordinates": [139.794824, 35.792862] },
      "properties": {
        "similar_stop_name": "公園前",
        "similar_stop_id": "0484",
        "count": 653
      }
    },
    {
      "type": "Feature",
      "geometry": { "type": "Point", "coordinates": [139.869899, 35.718021] },
      "properties": {
        "similar_stop_name": "光照寺",
        "similar_stop_id": "0485",
        "count": 258
      }
    },
    {
      "type": "Feature",
      "geometry": { "type": "Point", "coordinates": [139.428197, 35.746172] },
      "properties": {
        "similar_stop_name": "庚申塚",
        "similar_stop_id": "0486",
        "count": 134
      }
    },
    {
      "type": "Feature",
      "geometry": { "type": "Point", "coordinates": [139.740506, 35.684051] },
      "properties": {
        "similar_stop_name": "麹町二丁目",
        "similar_stop_id": "0487",
        "count": 195
      }
    },
    {
      "type": "Feature",
      "geometry": { "type": "Point", "coordinates": [139.738223, 35.683526] },
      "properties": {
        "similar_stop_name": "麹町四丁目",
        "similar_stop_id": "0488",
        "count": 431
      }
    },
    {
      "type": "Feature",
      "geometry": { "type": "Point", "coordinates": [139.733552, 35.6845] },
      "properties": {
        "similar_stop_name": "麹町五丁目",
        "similar_stop_id": "0489",
        "count": 195
      }
    },
    {
      "type": "Feature",
      "geometry": { "type": "Point", "coordinates": [139.710568, 35.691354] },
      "properties": {
        "similar_stop_name": "新宿一丁目北",
        "similar_stop_id": "0490",
        "count": 1150
      }
    },
    {
      "type": "Feature",
      "geometry": { "type": "Point", "coordinates": [139.816397, 35.672445] },
      "properties": {
        "similar_stop_name": "江東区役所前",
        "similar_stop_id": "0491",
        "count": 1911
      }
    },
    {
      "type": "Feature",
      "geometry": { "type": "Point", "coordinates": [139.818575, 35.689012] },
      "properties": {
        "similar_stop_name": "江東公会堂前",
        "similar_stop_id": "0492",
        "count": 446
      }
    },
    {
      "type": "Feature",
      "geometry": { "type": "Point", "coordinates": [139.817532, 35.695691] },
      "properties": {
        "similar_stop_name": "江東車庫前",
        "similar_stop_id": "0493",
        "count": 3429
      }
    },
    {
      "type": "Feature",
      "geometry": { "type": "Point", "coordinates": [139.810308, 35.695455] },
      "properties": {
        "similar_stop_name": "江東橋",
        "similar_stop_id": "0494",
        "count": 1096
      }
    },
    {
      "type": "Feature",
      "geometry": { "type": "Point", "coordinates": [139.809574, 35.694178] },
      "properties": {
        "similar_stop_name": "江東橋一丁目",
        "similar_stop_id": "0495",
        "count": 681
      }
    },
    {
      "type": "Feature",
      "geometry": { "type": "Point", "coordinates": [139.835215, 35.69198] },
      "properties": {
        "similar_stop_name": "城東特別支援学校前",
        "similar_stop_id": "0497",
        "count": 469
      }
    },
    {
      "type": "Feature",
      "geometry": { "type": "Point", "coordinates": [139.75401, 35.631215] },
      "properties": {
        "similar_stop_name": "港南大橋",
        "similar_stop_id": "0498",
        "count": 1003
      }
    },
    {
      "type": "Feature",
      "geometry": { "type": "Point", "coordinates": [139.747667, 35.631742] },
      "properties": {
        "similar_stop_name": "港南中学校前",
        "similar_stop_id": "0500",
        "count": 2006
      }
    },
    {
      "type": "Feature",
      "geometry": { "type": "Point", "coordinates": [139.745186, 35.632302] },
      "properties": {
        "similar_stop_name": "港南一丁目",
        "similar_stop_id": "0501",
        "count": 243
      }
    },
    {
      "type": "Feature",
      "geometry": { "type": "Point", "coordinates": [139.750758, 35.634571] },
      "properties": {
        "similar_stop_name": "港南三丁目",
        "similar_stop_id": "0502",
        "count": 63
      }
    },
    {
      "type": "Feature",
      "geometry": { "type": "Point", "coordinates": [139.754154, 35.626182] },
      "properties": {
        "similar_stop_name": "港南五丁目",
        "similar_stop_id": "0503",
        "count": 903
      }
    },
    {
      "type": "Feature",
      "geometry": { "type": "Point", "coordinates": [139.762036, 35.767782] },
      "properties": {
        "similar_stop_name": "荒川土手",
        "similar_stop_id": "0504",
        "count": 1734
      }
    },
    {
      "type": "Feature",
      "geometry": { "type": "Point", "coordinates": [139.769905, 35.782349] },
      "properties": {
        "similar_stop_name": "江北六丁目団地前",
        "similar_stop_id": "0505",
        "count": 13
      }
    },
    {
      "type": "Feature",
      "geometry": { "type": "Point", "coordinates": [139.769305, 35.778071] },
      "properties": {
        "similar_stop_name": "江北陸橋下",
        "similar_stop_id": "0506",
        "count": 361
      }
    },
    {
      "type": "Feature",
      "geometry": { "type": "Point", "coordinates": [139.766728, 35.77093] },
      "properties": {
        "similar_stop_name": "江北一丁目",
        "similar_stop_id": "0507",
        "count": 1242
      }
    },
    {
      "type": "Feature",
      "geometry": { "type": "Point", "coordinates": [139.770563, 35.772411] },
      "properties": {
        "similar_stop_name": "江北四丁目",
        "similar_stop_id": "0508",
        "count": 1251
      }
    },
    {
      "type": "Feature",
      "geometry": { "type": "Point", "coordinates": [139.770005, 35.779766] },
      "properties": {
        "similar_stop_name": "江北六丁目団地入口",
        "similar_stop_id": "0509",
        "count": 13
      }
    },
    {
      "type": "Feature",
      "geometry": { "type": "Point", "coordinates": [139.273729, 35.794062] },
      "properties": {
        "similar_stop_name": "光明寺下",
        "similar_stop_id": "0510",
        "count": 95
      }
    },
    {
      "type": "Feature",
      "geometry": { "type": "Point", "coordinates": [139.754564, 35.704586] },