stop_id,stop_code,stop_name,stop_desc,stop_lat,stop_lon,zone_id,stop_url,location_type,parent_station,stop_timezone,wheelchair_boarding,platform_code
10000,,あさひ病院（ムーバス）,,35.704098,139.582950,,,1,,,,
10001,,松井健診クリニック（ムーバス）,,35.704773,139.584870,,,1,,,,
10002,,美大通り（ムーバス）,,35.705334,139.586640,,,1,,,,
10003,,東町三丁目（ムーバス）,,35.705944,139.588640,,,1,,,,
10004,,本宿小学校（ムーバス）,,35.705420,139.590150,,,1,,,,
10005,,松籟公園（ムーバス）,,35.704980,139.591570,,,1,,,,
10006,,吉祥女子中・高校前（ムーバス）,,35.704563,139.593030,,,1,,,,
10007,,松庵三丁目北（ムーバス）,,35.701270,139.593110,,,1,,,,
10008,,特養ホームゆとりえ前（ムーバス）,,35.698975,139.591930,,,1,,,,
10009,,松庵一丁目西（ムーバス）,,35.696564,139.590880,,,1,,,,
10010,,南町三丁目（ムーバス）,,35.696617,139.588850,,,1,,,,
10011,,南町三丁目中央（ムーバス）,,35.697136,139.587170,,,1,,,,
10012,,吉祥寺南病院（ムーバス）,,35.698680,139.587680,,,1,,,,
10013,,南町コミセン西（ムーバス）,,35.699734,139.586090,,,1,,,,
10014,,水門通り（ムーバス）,,35.701190,139.582210,,,1,,,,
10015,,吉祥寺駅南口（ムーバス）,,35.702210,139.579250,,,1,,,,
10018,,本田東公園東（ムーバス）,,35.703663,139.594470,,,1,,,,
10020,,吉祥寺駅（ムーバス降車場）,,35.703506,139.579854,,,1,,,,
10021,,コピス吉祥寺前（ムーバス）,,35.705304,139.579675,,,1,,,,
10022,,武蔵野八幡宮（ムーバス）,,35.706820,139.579150,,,1,,,,
10023,,東門通り南（ムーバス）,,35.709057,139.576750,,,1,,,,
10024,,東門通り北（ムーバス）,,35.710434,139.577510,,,1,,,,
10025,,北コミセン前（ムーバス）,,35.712170,139.578140,,,1,,,,
10026,,北町こども広場（ムーバス）,,35.713177,139.578700,,,1,,,,
10027,,青葉公園入口（ムーバス）,,35.714134,139.578570,,,1,,,,
10028,,ポケット広場（ムーバス）,,35.715466,139.577480,,,1,,,,
10029,,ねむの木通り（ムーバス）,,35.716415,139.576140,,,1,,,,
10030,,さわやか公園（ムーバス）,,35.717260,139.574870,,,1,,,,
10031,,けやきコミセン（ムーバス）,,35.717904,139.572224,,,1,,,,
10032,,西門前（ムーバス）,,35.716537,139.571460,,,1,,,,
10033,,扶桑通り（ムーバス）,,35.715008,139.570620,,,1,,,,
10034,,かくれみの公園（ムーバス）,,35.713715,139.569920,,,1,,,,
10035,,すずかけ小路（ムーバス）,,35.712643,139.569840,,,1,,,,
10036,,けやき並木（ムーバス）,,35.711372,139.571170,,,1,,,,
10037,,成蹊通り（ムーバス）,,35.709860,139.570370,,,1,,,,
10038,,本町四丁目（ムーバス）,,35.708714,139.569640,,,1,,,,
10039,,第一小学校西（ムーバス）,,35.707695,139.572130,,,1,,,,
10040,,西五条通り（ムーバス）,,35.706810,139.574520,,,1,,,,
10041,,大正通り（ムーバス）,,35.706192,139.576140,,,1,,,,
10042,,東急百貨店前（ムーバス）,,35.705330,139.578100,,,1,,,,
10051,,けやき橋北（ムーバス）,,35.704727,139.559170,,,1,,,,
10053,,西久保公園（ムーバス）,,35.706936,139.553390,,,1,,,,
10054,,久保公園・とらいふ武蔵野（ムーバス）,,35.708035,139.553630,,,1,,,,
10055,,五中北（ムーバス）,,35.710938,139.551940,,,1,,,,
10056,,武蔵野館前（ムーバス）,,35.711147,139.549930,,,1,,,,
10057,,関前コミセン南（ムーバス）,,35.711940,139.548280,,,1,,,,
10058,,関前コミセン（ムーバス）,,35.712810,139.548830,,,1,,,,
10059,,大師通り公園（ムーバス）,,35.713970,139.548230,,,1,,,,
10060,,市民の森公園（ムーバス）,,35.713696,139.550580,,,1,,,,
10061,,関前三丁目中央（ムーバス）,,35.712975,139.552700,,,1,,,,
10062,,関前公園（ムーバス）,,35.712563,139.553920,,,1,,,,
10063,,五小通り（ムーバス）,,35.711990,139.556430,,,1,,,,
10064,,西久保三丁目（ムーバス）,,35.712922,139.558463,,,1,,,,
10065,,宮前通り北（ムーバス）,,35.712000,139.558880,,,1,,,,
10066,,宮前通り中央（ムーバス）,,35.710644,139.558010,,,1,,,,
10067,,三谷通り・西久保保育園前（ムーバス）,,35.709190,139.557040,,,1,,,,
10068,,ふじ公園西（ムーバス）,,35.707120,139.557080,,,1,,,,
10069,,三谷公園（ムーバス）,,35.706272,139.559370,,,1,,,,
10070,,西久保コミセン（ムーバス）,,35.705833,139.556290,,,1,,,,
10072,,小森病院（ムーバス）,,35.713300,139.557310,,,1,,,,
10073,,月見小路入口（ムーバス）,,35.707882,139.577840,,,1,,,,
10081,,中町新道（ムーバス）,,35.703640,139.563950,,,1,,,,
10082,,平沼園交差点（ムーバス）,,35.703625,139.566070,,,1,,,,
10083,,八丁地下道（ムーバス）,,35.701710,139.566500,,,1,,,,
10084,,むらさき橋（ムーバス）,,35.700726,139.566820,,,1,,,,
10085,,御殿山二丁目（ムーバス）,,35.701374,139.567860,,,1,,,,
10086,,武蔵野税務署南（ムーバス）,,35.702763,139.569060,,,1,,,,
10087,,文化園西（ムーバス）,,35.702360,139.570450,,,1,,,,
10088,,御殿山一丁目（ムーバス）,,35.701650,139.572430,,,1,,,,
10089,,文化園東（ムーバス）,,35.701190,139.573750,,,1,,,,
10090,,吉祥寺大通り（ムーバス）,,35.702312,139.580339,,,1,,,,
10092,,吉祥寺駅前交差点（ムーバス）,,35.703150,139.576282,,,1,,,,
10093,,本町二丁目（ムーバス）,,35.703740,139.574190,,,1,,,,
10094,,本町三丁目（ムーバス）,,35.704350,139.572200,,,1,,,,
10095,,吉祥寺西コミセン入口（ムーバス）,,35.705100,139.569660,,,1,,,,
10096,,中町二丁目（ムーバス）,,35.705826,139.567210,,,1,,,,
10097,,横河電機前（ムーバス）,,35.706410,139.565250,,,1,,,,
10098,,横河グラウンド（ムーバス）,,35.705544,139.563800,,,1,,,,
10099,,かたらいの道（ムーバス）,,35.705322,139.562010,,,1,,,,
10100,,田無駅（はなバス）,,35.727771,139.540421,,,1,,,,
10101,,田無庁舎前（はなバス）,,35.726448,139.538235,,,1,,,,
10102,,向南中央通り（はなバス）,,35.725212,139.534435,,,1,,,,
10103,,南町六丁目（はなバス）,,35.725692,139.532295,,,1,,,,
10104,,府中道（はなバス）,,35.724415,139.529660,,,1,,,,
10105,,芝久保一丁目（はなバス）,,35.725320,139.527250,,,1,,,,
10106,,芝久保運動場（はなバス）,,35.723271,139.525488,,,1,,,,
10107,,みたけ分社通り（はなバス）,,35.725039,139.523810,,,1,,,,
10108,,芝久保二丁目（はなバス）,,35.726983,139.522505,,,1,,,,
10109,,西武住宅南（はなバス）,,35.726986,139.520315,,,1,,,,
10110,,西武住宅北（はなバス）,,35.728919,139.519555,,,1,,,,
10111,,芝久保（はなバス）,,35.730351,139.518400,,,1,,,,
10112,,芝久保四丁目住宅（はなバス）,,35.731705,139.518188,,,1,,,,
10113,,田無北芝久保郵便局,,35.732957,139.522385,,,1,,,,
10116,,芝久保一丁目東（はなバス）,,35.725180,139.528090,,,1,,,,
10117,,田無総合福祉センター（はなバス）,,35.731730,139.535980,,,1,,,,
10118,,田無本町七丁目住宅（はなバス）,,35.732909,139.530265,,,1,,,,
10119,,田無橋場西（はなバス）,,35.731094,139.529120,,,1,,,,
10121,,芝久保児童館（はなバス）,,35.724773,139.525749,,,1,,,,
1101,,阿佐ヶ谷駅,,35.705317,139.636388,,,1,,,,
1103,,世尊院前,,35.706913,139.636275,,,1,,,,
1105,,阿佐谷北一丁目,,35.709672,139.635520,,,1,,,,
1107,,第九小学校,,35.712736,139.634583,,,1,,,,
1109,,阿佐谷北六丁目,,35.714229,139.635392,,,1,,,,
1111,,白鷺一丁目,,35.716860,139.636016,,,1,,,,
1113,,白鷺二丁目,,35.719161,139.636240,,,1,,,,
1115,,鷺ノ宮駅,,35.722617,139.638070,,,1,,,,
1117,,鷺宮四丁目,,35.726417,139.637828,,,1,,,,
1119,,中村南三丁目,,35.728432,139.639315,,,1,,,,
1121,,中村八幡,,35.730560,139.639600,,,1,,,,
1123,,中村三丁目,,35.732377,139.639134,,,1,,,,
1125,,中村北三丁目,,35.733312,139.638932,,,1,,,,
1127,,中村公園,,35.734190,139.640520,,,1,,,,
1129,,中村橋駅,,35.736239,139.638903,,,1,,,,
1131,,阿佐谷南一丁目,,35.701763,139.636075,,,1,,,,
1133,,杉並区役所,,35.700199,139.635675,,,1,,,,
1135,,杉並都税事務所,,35.700680,139.632490,,,1,,,,
1137,,阿佐谷南三丁目,,35.701818,139.629900,,,1,,,,
1139,,天沼,,35.703163,139.627560,,,1,,,,
1141,,荻窪公団アパート,,35.705115,139.623200,,,1,,,,
1143,,荻窪駅北口,,35.705159,139.620565,,,1,,,,
1145,,四面道,,35.708559,139.615505,,,1,,,,
1147,,東京衛生病院入口,,35.709432,139.618515,,,1,,,,
1149,,ウェルファーム杉並,,35.710120,139.620045,,,1,,,,
1151,,天沼小学校,,35.711037,139.622810,,,1,,,,
1153,,稲荷横丁,,35.711358,139.624600,,,1,,,,
1155,,日大二高,,35.711648,139.626970,,,1,,,,
1157,,本天沼二丁目,,35.711777,139.629115,,,1,,,,
1159,,本天沼一丁目,,35.712065,139.631020,,,1,,,,
1201,,新宿駅西口,,35.691740,139.698742,,,1,,,,
1203,,新宿広小路,,35.694345,139.698870,,,1,,,,
1205,,南通り,,35.698133,139.697355,,,1,,,,
1207,,大久保駅,,35.701887,139.694987,,,1,,,,
1209,,新宿消防署,,35.706694,139.694533,,,1,,,,
1211,,小滝橋,,35.710287,139.692965,,,1,,,,
1213,,上落合一丁目,,35.711155,139.689403,,,1,,,,
1215,,落合駅,,35.710338,139.684555,,,1,,,,
1217,,正見寺,,35.709661,139.681770,,,1,,,,
1219,,白桜小学校入口,,35.708482,139.678945,,,1,,,,
1221,,中野六丁目,,35.708568,139.675535,,,1,,,,
1223,,もみじ山通り,,35.709022,139.673615,,,1,,,,
1225,,中野五丁目,,35.709761,139.670303,,,1,,,,
1227,,新井中野通り,,35.710310,139.665458,,,1,,,,
1228,,新井交差点南,,35.708720,139.664980,,,1,,,,
1229,,中野区役所入口,,35.709980,139.663760,,,1,,,,
12293,,中野駅入口,,35.707570,139.664210,,,1,,,,
1230,,中野四季の森公園,,35.708292,139.662200,,,1,,,,
1231,,東京警察病院北門前,,35.709838,139.659877,,,1,,,,
1232,,東京警察病院正門前,,35.709091,139.660149,,,1,,,,
1233,,大新横丁,,35.709752,139.655715,,,1,,,,
1234,,早稲田大学中野国際コミュニティプラザ,,35.708344,139.658650,,,1,,,,
1235,,大場通り,,35.709918,139.654046,,,1,,,,
1236,,大場通り（Ｋ０１）,,35.710269,139.654129,,,1,,,,
1237,,高円寺通り(こうえんじどおり),,35.709560,139.650435,,,1,,,,
1239,,大和町三丁目,,35.710843,139.645933,,,1,,,,
1241,,お伊勢の森,,35.711749,139.642637,,,1,,,,
1243,,東原,,35.712875,139.638910,,,1,,,,
1245,,阿佐谷営業所,,35.714482,139.633585,,,1,,,,
1247,,中野区役所,,35.708985,139.663510,,,1,,,,
1251,,中野駅,,35.706378,139.664753,,,1,,,,
1301,,中村北二丁目,,35.736744,139.643785,,,1,,,,
1303,,東電支社前,,35.736479,139.647830,,,1,,,,
1304,,練馬区役所入口,,35.737140,139.651870,,,1,,,,
1305,,練馬区役所前,,35.735863,139.652240,,,1,,,,
1307,,練馬駅,,35.738124,139.654090,,,1,,,,
1309,,下新街,,35.735287,139.654250,,,1,,,,
1311,,南田中一丁目,,35.731377,139.619770,,,1,,,,
1313,,南田中,,35.731865,139.621810,,,1,,,,
1315,,富士見台一丁目,,35.733030,139.626280,,,1,,,,
1317,,富士見台駅,,35.734880,139.631260,,,1,,,,
1319,,中村北四丁目,,35.735810,139.635390,,,1,,,,
1401,,大鳥前,,35.715562,139.629870,,,1,,,,
1403,,下井草一丁目,,35.716687,139.627133,,,1,,,,
1405,,銀杏稲荷,,35.718003,139.626720,,,1,,,,
1407,,下井草二丁目,,35.719833,139.626055,,,1,,,,
1409,,下井草郵便局,,35.722117,139.625510,,,1,,,,
1411,,下井草駅,,35.723467,139.624542,,,1,,,,
1413,,井草一丁目,,35.725953,139.621503,,,1,,,,
1415,,八成小学校,,35.727529,139.619725,,,1,,,,
1417,,井草二丁目,,35.728634,139.617535,,,1,,,,
1419,,八成橋,,35.729479,139.615228,,,1,,,,
1420,,八成橋東,,35.730434,139.616380,,,1,,,,
1421,,喜楽沼,,35.732269,139.612290,,,1,,,,
1423,,下石神井一丁目,,35.733518,139.610555,,,1,,,,
1425,,下石神井坂下,,35.734741,139.608340,,,1,,,,
1427,,禅定院前,,35.737676,139.605450,,,1,,,,
1429,,石神井公園前,,35.739715,139.606223,,,1,,,,
1431,,石神井公園駅,,35.743430,139.606519,,,1,,,,
1501,,北新宿,,35.701684,139.689945,,,1,,,,
1503,,東中野一丁目,,35.701470,139.685245,,,1,,,,
1505,,東中野二丁目,,35.700927,139.681700,,,1,,,,
1507,,中野一丁目,,35.701384,139.678595,,,1,,,,
1509,,堀越学園,,35.701987,139.675410,,,1,,,,
1511,,紅葉山公園下,,35.702503,139.671680,,,1,,,,
1513,,中野保健所,,35.702699,139.669060,,,1,,,,
1515,,中野総合病院,,35.702950,139.666870,,,1,,,,
1517,,野方二丁目,,35.712463,139.653878,,,1,,,,
1519,,八幡前,,35.714310,139.653753,,,1,,,,
1521,,野方駅入口,,35.716543,139.653763,,,1,,,,
1523,,野方駅,,35.718537,139.653126,,,1,,,,
1525,,野方三丁目,,35.718370,139.657420,,,1,,,,
1527,,中野工科高校,,35.716457,139.658110,,,1,,,,
1529,,平和の森小学校,,35.714830,139.659060,,,1,,,,
1531,,野方一丁目,,35.711903,139.660250,,,1,,,,
1535,,宮下交差点,,35.701126,139.683380,,,1,,,,
1601,,高円寺駅北口,,35.705774,139.649916,,,1,,,,
1603,,杉並芸術会館　座・高円寺前,,35.705535,139.653755,,,1,,,,
1605,,高円寺中学,,35.706776,139.654360,,,1,,,,
1607,,野方駅北口,,35.721345,139.653763,,,1,,,,
1609,,中野北郵便局,,35.725778,139.653855,,,1,,,,
1611,,豊玉中,,35.729567,139.656580,,,1,,,,
1613,,豊玉中二丁目,,35.731672,139.658415,,,1,,,,
1615,,豊玉北,,35.736428,139.664335,,,1,,,,
1617,,羽沢,,35.741621,139.669360,,,1,,,,
1619,,小竹町二丁目,,35.743799,139.672395,,,1,,,,
1621,,武蔵野病院,,35.746148,139.675640,,,1,,,,
1623,,小茂根,,35.748216,139.678500,,,1,,,,
1625,,上の根橋,,35.750921,139.682270,,,1,,,,
1627,,東山町,,35.753336,139.685575,,,1,,,,
1629,,南常盤台,,35.756490,139.690175,,,1,,,,
1631,,中板橋駅入口,,35.758597,139.694885,,,1,,,,
1633,,富士見町都営住宅,,35.759974,139.700300,,,1,,,,
1635,,大和町,,35.762039,139.708545,,,1,,,,
1637,,稲荷台,,35.762522,139.710115,,,1,,,,
1639,,姥ヶ橋,,35.763317,139.712675,,,1,,,,
1641,,上十条五丁目,,35.764025,139.715230,,,1,,,,
1643,,王子第三小学校,,35.764999,139.718650,,,1,,,,
1645,,十条仲原二丁目,,35.765697,139.720150,,,1,,,,
1647,,中十条四丁目,,35.766541,139.723150,,,1,,,,
1649,,東十条四丁目,,35.768612,139.727010,,,1,,,,
1651,,東十条六丁目,,35.771415,139.725425,,,1,,,,
1653,,赤羽南二丁目,,35.773965,139.724090,,,1,,,,
1655,,赤羽南一丁目,,35.775295,139.723390,,,1,,,,
1657,,赤羽駅東口,,35.778393,139.722161,,,1,,,,
1659,,赤羽駅（教会前）,,35.778456,139.722677,,,1,,,,
17880,,三鷹駅（ムーバス降車場）,,35.703368,139.560741,,,1,,,,
20002,,稔ヶ丘高校入口,,35.727385,139.623755,,,1,,,,
20003,,稔ヶ丘高校,,35.727298,139.626730,,,1,,,,
20004,,北中野中学校,,35.727240,139.629190,,,1,,,,
20005,,武蔵台小学校,,35.727216,139.631585,,,1,,,,
20006,,武蔵丘高校,,35.727139,139.633370,,,1,,,,
20007,,武蔵丘高校入口,,35.726838,139.635280,,,1,,,,
20009,,鷺ノ宮駅入口,,35.726315,139.638650,,,1,,,,
20010,,鷺宮三丁目,,35.725770,139.641575,,,1,,,,
20011,,都立家政入口,,35.725205,139.643480,,,1,,,,
20012,,鷺宮二丁目,,35.724308,139.646785,,,1,,,,
20013,,鷺宮一丁目,,35.724194,139.647701,,,1,,,,
2101,,吉祥寺駅北口,,35.703455,139.579837,,,1,,,,
2103,,東急百貨店前,,35.704780,139.578050,,,1,,,,
2105,,武蔵野八幡宮,,35.707323,139.578735,,,1,,,,
2107,,北町一丁目,,35.708745,139.575760,,,1,,,,
2109,,成蹊学園前,,35.709839,139.572391,,,1,,,,
2111,,北町四丁目,,35.710939,139.568530,,,1,,,,
2113,,市民文化会館前,,35.711739,139.566380,,,1,,,,
2115,,武蔵野営業所,,35.713042,139.562684,,,1,,,,
2117,,武蔵野住宅,,35.714558,139.562313,,,1,,,,
2119,,緑町二丁目,,35.716547,139.559078,,,1,,,,
2121,,武蔵野中央公園,,35.717875,139.555625,,,1,,,,
2123,,武蔵野北高校前,,35.720839,139.557093,,,1,,,,
2124,,伏見通り,,35.723258,139.557590,,,1,,,,
2125,,東伏見稲荷神社,,35.725317,139.556974,,,1,,,,
2127,,柳沢駅,,35.728389,139.553146,,,1,,,,
2129,,千駄山住宅,,35.727856,139.555910,,,1,,,,
2131,,サンロード入口,,35.706113,139.581473,,,1,,,,
2133,,向台町五丁目,,35.717430,139.530397,,,1,,,,
2134,,ヴィーガーデン西東京,,35.716998,139.535443,,,1,,,,
2135,,武蔵野徳洲会病院,,35.716582,139.532965,,,1,,,,
2137,,事務本部（新町五丁目）,,35.714611,139.532425,,,1,,,,
2138,,事務本部,,35.714714,139.532290,,,1,,,,
2139,,桜堤団地口,,35.712240,139.532305,,,1,,,,
2141,,境橋,,35.711003,139.536283,,,1,,,,
2143,,樋口橋,,35.712284,139.539920,,,1,,,,
2144,,関前西公園,,35.712545,139.542955,,,1,,,,
2145,,岩倉高校グラウンド前,,35.713507,139.542620,,,1,,,,
2147,,柳橋,,35.714417,139.544745,,,1,,,,
2149,,新町一丁目,,35.715042,139.546175,,,1,,,,
2151,,武蔵野大学,,35.716522,139.548996,,,1,,,,
2152,,八幡町三丁目,,35.715440,139.552185,,,1,,,,
2153,,関前三丁目,,35.714968,139.553932,,,1,,,,
2154,,関前三丁目南,,35.712862,139.553075,,,1,,,,
2155,,第五小学校,,35.713989,139.557435,,,1,,,,
2157,,桜堤団地,,35.708756,139.533283,,,1,,,,
2159,,亜細亜大学北,,35.707832,139.533260,,,1,,,,
2161,,団地東口,,35.707134,139.537160,,,1,,,,
2163,,武蔵高校,,35.707804,139.539975,,,1,,,,
2165,,境四丁目,,35.708605,139.539235,,,1,,,,
2167,,電通裏,,35.721907,139.560813,,,1,,,,
2169,,武蔵野市役所,,35.718105,139.566220,,,1,,,,
2171,,くぬぎ橋,,35.711440,139.533520,,,1,,,,
2173,,スポーツセンター入口,,35.712832,139.528370,,,1,,,,
2175,,上水北公園前,,35.714565,139.528580,,,1,,,,
2177,,小金井公園東口,,35.717050,139.528900,,,1,,,,
2201,,北裏,,35.722773,139.569136,,,1,,,,
2203,,市営プール,,35.719845,139.567965,,,1,,,,
2205,,武蔵野市役所前,,35.717578,139.566580,,,1,,,,
2207,,緑町住宅,,35.716226,139.565800,,,1,,,,
2209,,緑町一丁目,,35.714514,139.564805,,,1,,,,
2211,,武蔵関駅,,35.727299,139.577001,,,1,,,,
2213,,関町北二丁目,,35.726505,139.573170,,,1,,,,
2215,,関町北三丁目,,35.724648,139.573070,,,1,,,,
2217,,慈雲堂前,,35.723113,139.573533,,,1,,,,
2219,,田無橋場,,35.730136,139.529844,,,1,,,,
2221,,上宿,,35.730359,139.536375,,,1,,,,
2223,,田無警察,,35.729826,139.538705,,,1,,,,
2225,,田無駅入口,,35.729296,139.540910,,,1,,,,
2227,,田無町三丁目,,35.728884,139.542855,,,1,,,,
2229,,田無町二丁目,,35.729014,139.546300,,,1,,,,
2231,,ガード下,,35.727749,139.548440,,,1,,,,
2233,,柳沢,,35.726094,139.551435,,,1,,,,
2235,,東伏見坂上,,35.723793,139.561916,,,1,,,,
2237,,三ツ塚,,35.723050,139.566430,,,1,,,,
2239,,浄水場西,,35.711489,139.546190,,,1,,,,
2241,,浄水場中央,,35.710715,139.548215,,,1,,,,
2243,,五中前,,35.709895,139.550400,,,1,,,,
2244,,浄水場北,,35.710470,139.553005,,,1,,,,
2245,,浄水場東,,35.708590,139.554090,,,1,,,,
2267,,関町北一丁目,,35.724920,139.578340,,,1,,,,
2269,,関町三丁目,,35.723436,139.578213,,,1,,,,
2271,,関町郵便局,,35.723004,139.575345,,,1,,,,
2273,,ＮＴＴ武蔵野研究開発センタ,,35.718733,139.562498,,,1,,,,
2300,,東伏見団地東,,35.732709,139.566305,,,1,,,,
2301,,東伏見駅北口,,35.728896,139.564793,,,1,,,,
2303,,富士町三丁目,,35.732963,139.565030,,,1,,,,
2305,,富士町,,35.732173,139.562020,,,1,,,,
2307,,東伏見団地,,35.732035,139.558770,,,1,,,,
2401,,小平合同庁舎前,,35.729944,139.514725,,,1,,,,
2405,,花小金井駅,,35.726685,139.513430,,,1,,,,
2406,,花小金井駅南口,,35.726048,139.512500,,,1,,,,
2407,,花小金井,,35.724844,139.513290,,,1,,,,
2409,,花小金井南一丁目,,35.722722,139.514545,,,1,,,,
2411,,花小金井南二丁目,,35.722555,139.517435,,,1,,,,
2413,,水道筋,,35.722170,139.520495,,,1,,,,
2415,,小金井公園北口,,35.719738,139.524090,,,1,,,,
2417,,上向台,,35.718707,139.526665,,,1,,,,
2419,,武蔵境自動車教習所前,,35.705873,139.542040,,,1,,,,
2420,,武蔵境自動車教習所入口,,35.705760,139.542980,,,1,,,,
2421,,市民会館,,35.705154,139.543100,,,1,,,,
2433,,北芝久保,,35.733131,139.524440,,,1,,,,
2435,,芝久保五丁目,,35.731559,139.526190,,,1,,,,
2455,,多摩六都科学館,,35.734502,139.522361,,,1,,,,
2501,,武蔵小金井駅,,35.701406,139.506010,,,1,,,,
2503,,本町二丁目,,35.705691,139.507880,,,1,,,,
2505,,本町四丁目,,35.708301,139.507965,,,1,,,,
2507,,桜町病院前,,35.710058,139.507955,,,1,,,,
2509,,小金井橋,,35.711800,139.507995,,,1,,,,
2511,,江戸東京たてもの園前,,35.712697,139.512435,,,1,,,,
2513,,新小金井橋,,35.712731,139.514915,,,1,,,,
2515,,小金井公園前,,35.712773,139.518605,,,1,,,,
2517,,関野橋,,35.712705,139.521610,,,1,,,,
2519,,梶野町,,35.712600,139.526085,,,1,,,,
2521,,市民文化会館入口,,35.712268,139.563959,,,1,,,,
2523,,保健所前,,35.710537,139.562890,,,1,,,,
2525,,西久保二丁目,,35.708772,139.561875,,,1,,,,
2527,,横河入口,,35.707768,139.561270,,,1,,,,
2529,,武蔵野警察署前,,35.705910,139.560493,,,1,,,,
2531,,三鷹駅,,35.703289,139.560228,,,1,,,,
2533,,武蔵境駅,,35.702510,139.543715,,,1,,,,
2535,,境一丁目,,35.704906,139.546250,,,1,,,,
2536,,第二小学校,,35.707714,139.543120,,,1,,,,
2537,,境三丁目,,35.705936,139.545040,,,1,,,,
2539,,桜橋,,35.709855,139.543700,,,1,,,,
2540,,関前四丁目,,35.713209,139.543935,,,1,,,,
2541,,関前一丁目,,35.711622,139.543785,,,1,,,,
2543,,東急ストア,,35.704740,139.560400,,,1,,,,
2601,,保谷駅南口,,35.747841,139.566740,,,1,,,,
2603,,東町三丁目(ひがしちょうさんちょうめ、東町３丁目、東町3丁目),,35.747277,139.564410,,,1,,,,
2605,,文理台公園,,35.744449,139.560549,,,1,,,,
2607,,保谷庁舎,,35.742153,139.558250,,,1,,,,
2619,,稲荷神社前,,35.713384,139.560498,,,1,,,,
2621,,東町六丁目,,35.742582,139.565735,,,1,,,,
2623,,天神山,,35.738772,139.565864,,,1,,,,
2624,,富士町六丁目,,35.731494,139.557495,,,1,,,,
2625,,保谷中学校,,35.733743,139.557295,,,1,,,,
2626,,中町六丁目,,35.736845,139.556980,,,1,,,,
2627,,中町一丁目,,35.739927,139.557160,,,1,,,,
30001,,甲田医院前（すぎ丸）,,35.702843,139.601750,,,1,,,,
30003,,西荻南四丁目（すぎ丸）,,35.700968,139.603581,,,1,,,,
30005,,神明通り（すぎ丸）,,35.699613,139.604344,,,1,,,,
30007,,西荻南一丁目（すぎ丸）,,35.698427,139.603985,,,1,,,,
30009,,宮前ふれあいの家北（すぎ丸）,,35.696000,139.603011,,,1,,,,
30011,,五日市街道（すぎ丸）,,35.695039,139.603661,,,1,,,,
30013,,宮前四丁目（すぎ丸）,,35.693814,139.605017,,,1,,,,
30015,,西高校西門前（すぎ丸）,,35.692093,139.604375,,,1,,,,
30017,,西高校南（すぎ丸）,,35.690035,139.603942,,,1,,,,
30019,,杉並希望の家（すぎ丸）,,35.690730,139.602653,,,1,,,,
30021,,西宮中学校南（すぎ丸）,,35.690826,139.600800,,,1,,,,
30023,,久我山駅入口（すぎ丸）,,35.689533,139.600390,,,1,,,,
30025,,久我山駅（すぎ丸）,,35.688702,139.598833,,,1,,,,
30027,,馬車みち（すぎ丸）,,35.688133,139.601180,,,1,,,,
30029,,人見街道（すぎ丸）,,35.688107,139.605160,,,1,,,,
30031,,富士見ヶ丘（すぎ丸）,,35.688090,139.608060,,,1,,,,
30033,,新田縁通り（すぎ丸）,,35.688972,139.606190,,,1,,,,
30037,,宮前三郵便局西（すぎ丸）,,35.698093,139.606740,,,1,,,,
30039,,南荻窪区民農園前（すぎ丸）,,35.699115,139.608188,,,1,,,,
30041,,西荻南三丁目（すぎ丸）,,35.703598,139.604200,,,1,,,,
30043,,西荻マイロード入口（すぎ丸）,,35.703957,139.603000,,,1,,,,
30045,,桃井第三小学校（すぎ丸）,,35.705470,139.602460,,,1,,,,
30047,,天祖神社前（すぎ丸）,,35.701256,139.608600,,,1,,,,
30049,,南荻窪三丁目（すぎ丸）,,35.703213,139.608470,,,1,,,,
3101,,上荻一丁目,,35.706530,139.617420,,,1,,,,
3103,,上荻二丁目,,35.709074,139.613275,,,1,,,,
3105,,八丁,,35.710196,139.610855,,,1,,,,
3107,,荻窪警察署前,,35.711216,139.606880,,,1,,,,
3109,,日産自動車前,,35.711502,139.604750,,,1,,,,
3110,,プロムナード荻窪,,35.712193,139.605565,,,1,,,,
3111,,桃井四丁目,,35.712451,139.602187,,,1,,,,
3113,,井草八幡宮,,35.714825,139.598400,,,1,,,,
3115,,八幡宮裏,,35.716863,139.596413,,,1,,,,
3117,,善福寺,,35.717326,139.594068,,,1,,,,
3119,,青梅街道営業所,,35.720368,139.591125,,,1,,,,
3121,,水道端,,35.721915,139.587290,,,1,,,,
3123,,関町二丁目,,35.723184,139.582250,,,1,,,,
3125,,東伏見四丁目,,35.722391,139.562920,,,1,,,,
3127,,柳沢団地,,35.720498,139.555068,,,1,,,,
3129,,千川小学校前,,35.718200,139.551910,,,1,,,,
3131,,桃井第四小学校,,35.715967,139.593788,,,1,,,,
3133,,善福寺公園,,35.715012,139.591305,,,1,,,,
3135,,東京女子大北,,35.713554,139.588680,,,1,,,,
3137,,立野境,,35.712737,139.587255,,,1,,,,
3139,,南善福寺,,35.711857,139.586707,,,1,,,,
3201,,西荻窪駅,,35.703976,139.600401,,,1,,,,
3203,,一番街,,35.705086,139.597410,,,1,,,,
3205,,西荻北四丁目,,35.707552,139.595495,,,1,,,,
3207,,井荻小学校入口,,35.711663,139.594905,,,1,,,,
3209,,八幡橋,,35.714295,139.594200,,,1,,,,
3211,,立野橋,,35.723414,139.591580,,,1,,,,
3213,,上石神井駅,,35.726130,139.591263,,,1,,,,
3215,,荻窪中学,,35.709724,139.596530,,,1,,,,
3217,,善福寺郵便局,,35.710796,139.599240,,,1,,,,
3219,,善福寺一丁目,,35.711320,139.601070,,,1,,,,
3221,,西荻北五丁目,,35.709355,139.601910,,,1,,,,
3223,,西荻北三丁目,,35.705959,139.601085,,,1,,,,
3225,,地蔵坂上,,35.709427,139.595260,,,1,,,,
3301,,清水一丁目,,35.711489,139.614735,,,1,,,,
3303,,清水二丁目,,35.715043,139.614430,,,1,,,,
3305,,清水三丁目,,35.719073,139.614103,,,1,,,,
3307,,下井草五丁目,,35.721365,139.614180,,,1,,,,
3308,,井荻駅入口,,35.722879,139.614230,,,1,,,,
3309,,井荻駅,,35.723951,139.614354,,,1,,,,
3311,,井草森公園,,35.727033,139.614425,,,1,,,,
3401,,西荻北郵便局前,,35.707867,139.593550,,,1,,,,
3403,,善福寺二丁目,,35.709206,139.593460,,,1,,,,
3405,,東京女子大前,,35.709138,139.591325,,,1,,,,
3407,,武蔵野第三中学校,,35.708886,139.588300,,,1,,,,
3409,,東町二丁目,,35.708490,139.585665,,,1,,,,
3411,,東町一丁目,,35.708392,139.583200,,,1,,,,
3413,,四軒寺,,35.708758,139.581045,,,1,,,,
3415,,コピス吉祥寺前,,35.705112,139.579730,,,1,,,,
3501,,妙正寺池,,35.719177,139.616295,,,1,,,,
3503,,中瀬中学校,,35.718738,139.619810,,,1,,,,
3505,,永久橋,,35.717857,139.622835,,,1,,,,
3507,,日向橋,,35.717107,139.625285,,,1,,,,
3601,,上石神井中学校入口,,35.729267,139.591425,,,1,,,,
3603,,早稲田高等学院,,35.730603,139.591375,,,1,,,,
3605,,愛宕橋,,35.733088,139.590330,,,1,,,,
3607,,上石神井北小学校,,35.735250,139.589500,,,1,,,,
3609,,庚申塚,,35.737215,139.588900,,,1,,,,
3611,,富士街道,,35.739225,139.588220,,,1,,,,
3613,,第五上石神井住宅,,35.742374,139.587105,,,1,,,,
3615,,学芸大付属前,,35.745408,139.586240,,,1,,,,
3619,,大泉学園駅南口,,35.749007,139.585888,,,1,,,,
3701,,大和通り,,35.700714,139.599800,,,1,,,,
3703,,松庵二丁目,,35.698511,139.597987,,,1,,,,
3705,,水道道路東,,35.695220,139.597400,,,1,,,,
3707,,久我山,,35.692856,139.595830,,,1,,,,
3709,,久我山四丁目,,35.693752,139.592850,,,1,,,,
3711,,立教女学院,,35.695153,139.590190,,,1,,,,
3713,,水道道路西,,35.697624,139.591300,,,1,,,,
3715,,松庵小学校,,35.699918,139.592325,,,1,,,,
3717,,松庵,,35.700489,139.593495,,,1,,,,
3719,,松庵稲荷,,35.699435,139.595695,,,1,,,,
3723,,西荻南,,35.702473,139.599900,,,1,,,,
3801,,今川四丁目,,35.715294,139.602270,,,1,,,,
3803,,農芸高校,,35.718663,139.603885,,,1,,,,
3805,,今川二丁目,,35.719092,139.607665,,,1,,,,
3807,,今川一丁目,,35.719078,139.610805,,,1,,,,
3809,,今川三丁目,,35.718063,139.602063,,,1,,,,
4101,,新井薬師梅照院前,,35.712575,139.668685,,,1,,,,
4103,,新井薬師口,,35.714878,139.670275,,,1,,,,
4105,,新井薬師前駅,,35.715751,139.670853,,,1,,,,
4107,,上高田中通り,,35.717285,139.672515,,,1,,,,
4109,,哲学堂公園入口,,35.720900,139.675615,,,1,,,,
4111,,哲学堂,,35.723168,139.675545,,,1,,,,
4113,,西落合一丁目,,35.723215,139.679415,,,1,,,,
4115,,落合南長崎駅,,35.722609,139.683940,,,1,,,,
4116,,南長崎三丁目,,35.722904,139.686480,,,1,,,,
4117,,南長崎二丁目,,35.722781,139.689470,,,1,,,,
4119,,目白五丁目,,35.722782,139.693470,,,1,,,,
4121,,椎名町駅南口,,35.725140,139.694910,,,1,,,,
4123,,椎名町駅北口,,35.727475,139.696410,,,1,,,,
4125,,池袋車庫,,35.731458,139.698570,,,1,,,,
4127,,要町駅,,35.732600,139.699360,,,1,,,,
4129,,池袋二丁目,,35.732882,139.702915,,,1,,,,
4131,,池袋二又交番,,35.732008,139.706085,,,1,,,,
4133,,池袋駅,,35.730947,139.708939,,,1,,,,
4201,,北野神社,,35.714786,139.666763,,,1,,,,
4203,,令和小学校,,35.716153,139.668275,,,1,,,,
4207,,江古田一丁目,,35.723824,139.671635,,,1,,,,
4209,,丸山営業所,,35.723964,139.669761,,,1,,,,
4211,,江古田二丁目,,35.723902,139.666640,,,1,,,,
4213,,江古田三丁目,,35.726350,139.667988,,,1,,,,
4215,,江古田区民活動センター,,35.729313,139.668650,,,1,,,,
4217,,新江古田駅,,35.733255,139.671000,,,1,,,,
4219,,江古田駅,,35.736322,139.672154,,,1,,,,
4221,,武蔵大学,,35.737644,139.668130,,,1,,,,
4223,,北新井公園,,35.735153,139.668050,,,1,,,,
4224,,江原町二丁目,,35.732230,139.669920,,,1,,,,
4225,,江原町一丁目,,35.731199,139.673985,,,1,,,,
4227,,江原中野通り,,35.729332,139.676970,,,1,,,,
4229,,芳花園住宅,,35.727278,139.676590,,,1,,,,
4231,,水道タンク前,,35.724819,139.675530,,,1,,,,
4301,,大下橋,,35.718804,139.670120,,,1,,,,
4303,,下田橋,,35.721209,139.671670,,,1,,,,
4304,,哲学堂東,,35.723645,139.675870,,,1,,,,
4305,,哲学堂下,,35.723040,139.673360,,,1,,,,
4307,,蓮華寺下,,35.724225,139.672383,,,1,,,,
4309,,江古田住宅,,35.726885,139.672560,,,1,,,,
4311,,東橋,,35.726716,139.669965,,,1,,,,
4313,,合同住宅前,,35.727005,139.665770,,,1,,,,
4315,,総合東京病院（下徳田橋）,,35.727660,139.663765,,,1,,,,
4317,,徳田,,35.729090,139.660700,,,1,,,,
4319,,豊玉中三丁目,,35.732317,139.654545,,,1,,,,
4321,,豊玉小学校,,35.732055,139.650995,,,1,,,,
4323,,南蔵院,,35.732081,139.648125,,,1,,,,
4325,,中村小学校,,35.732183,139.643485,,,1,,,,
4327,,中村南二丁目,,35.728818,139.643358,,,1,,,,
4329,,中村中学,,35.728597,139.645666,,,1,,,,
4331,,中村南スポーツ交流センター,,35.728445,139.649030,,,1,,,,
4333,,学田橋,,35.728356,139.652065,,,1,,,,
4335,,西本村橋,,35.728257,139.653696,,,1,,,,
4337,,氷川神社,,35.728069,139.656365,,,1,,,,
4339,,徳田橋,,35.727574,139.659481,,,1,,,,
4341,,中新井橋,,35.727813,139.661425,,,1,,,,
4401,,聖母病院,,35.720204,139.694625,,,1,,,,
4403,,下落合駅,,35.715767,139.694450,,,1,,,,
4405,,落合中央公園,,35.713915,139.692225,,,1,,,,
4407,,東中野駅東口,,35.706871,139.686268,,,1,,,,
4409,,高田馬場駅,,35.712918,139.704617,,,1,,,,
4410,,高田馬場駅通り,,35.710165,139.703675,,,1,,,,
4411,,高田馬場四丁目,,35.708910,139.699080,,,1,,,,
4413,,百人町四丁目,,35.708196,139.697735,,,1,,,,
4415,,西戸山公園野球場,,35.707238,139.699985,,,1,,,,
4417,,タワーホームズ前,,35.705739,139.700050,,,1,,,,
4419,,東京山手メディカルセンター,,35.704325,139.698655,,,1,,,,
4421,,百人町公務員宿舎,,35.704487,139.696605,,,1,,,,
4423,,百人町郵便局,,35.706579,139.696150,,,1,,,,
4425,,東中野本通り,,35.708313,139.686690,,,1,,,,
4427,,東中野駅入口,,35.705868,139.685760,,,1,,,,
4429,,東中野駅大江戸線口,,35.706430,139.683610,,,1,,,,
4431,,東中野駅西口,,35.706383,139.683299,,,1,,,,
4433,,新宿西口,,35.691003,139.696890,,,1,,,,
4501,,桜台駅,,35.738140,139.660780,,,1,,,,
4503,,リサイクルセンター入口,,35.736557,139.660130,,,1,,,,
4505,,桜台駅通り,,35.735630,139.659550,,,1,,,,
4507,,豊玉中町,,35.732925,139.659160,,,1,,,,
4509,,下新街,,35.734787,139.656000,,,1,,,,
4511,,野方消防署,,35.723234,139.653515,,,1,,,,
4513,,緑野小学校,,35.722990,139.658545,,,1,,,,
4515,,江古田四丁目,,35.723821,139.662672,,,1,,,,
4519,,総合東京病院,,35.728030,139.664665,,,1,,,,
4521,,江古田の森,,35.729556,139.666487,,,1,,,,
4525,,南蔵院通り,,35.730357,139.647500,,,1,,,,
4527,,豊玉こうしん通り,,35.732901,139.654620,,,1,,,,
4529,,練馬区役所東,,35.735966,139.655090,,,1,,,,
50001,,大和区民活動センター,,35.713692,139.648691,,,1,,,,
50003,,若宮幼稚園入口,,35.718228,139.644984,,,1,,,,
50004,,若宮交番西,,35.716320,139.643610,,,1,,,,
50005,,鷺宮区民活動センター分室北,,35.717635,139.638420,,,1,,,,
50006,,白鷺せせらぎ公園,,35.716586,139.640668,,,1,,,,
50010,,やまと診療所前,,35.710914,139.649755,,,1,,,,
50011,,川北橋南,,35.715611,139.647596,,,1,,,,
50012,,鷺宮地域区民センター分室西,,35.717475,139.638150,,,1,,,,
50013,,わかさぎ公園,,35.717327,139.640705,,,1,,,,
50014,,洗心寮跡,,35.717015,139.646954,,,1,,,,
50015,,高円寺通り(こうえんじとおり),,35.709560,139.650435,,,1,,,,
5101,,荻窪駅南口,,35.704207,139.620137,,,1,,,,
5103,,荻窪電話局,,35.704040,139.622440,,,1,,,,
5105,,荻窪高校,,35.701954,139.620560,,,1,,,,
5107,,忍川橋,,35.700596,139.618420,,,1,,,,
5109,,荻窪四丁目,,35.698767,139.617253,,,1,,,,
5111,,川南,,35.696923,139.617745,,,1,,,,
5113,,荻窪二丁目,,35.694824,139.618920,,,1,,,,
5115,,西田小学校,,35.693576,139.619575,,,1,,,,
5117,,荻窪一丁目,,35.692512,139.619725,,,1,,,,
5119,,柳窪,,35.690003,139.619312,,,1,,,,
5120,,日本年金機構入口,,35.689360,139.616196,,,1,,,,
5121,,井の頭通り,,35.688110,139.617743,,,1,,,,
5123,,高井戸東三丁目,,35.686029,139.616225,,,1,,,,
5125,,高井戸駅,,35.683361,139.615620,,,1,,,,
5127,,浴風会前,,35.680715,139.614705,,,1,,,,
5129,,高井戸東二丁目,,35.679463,139.614525,,,1,,,,
5131,,中の橋,,35.676231,139.614045,,,1,,,,
5133,,上北沢五丁目,,35.674728,139.613755,,,1,,,,
5135,,甲州街道,,35.672620,139.613330,,,1,,,,
5137,,上高井戸一丁目,,35.671936,139.611270,,,1,,,,
5139,,芦花公園駅,,35.672055,139.608993,,,1,,,,
5141,,烏山下宿,,35.671126,139.605280,,,1,,,,
5143,,中宿,,35.670288,139.602693,,,1,,,,
5145,,千歳烏山駅,,35.669729,139.600680,,,1,,,,
5147,,西烏山,,35.668728,139.596940,,,1,,,,
5149,,給田,,35.667456,139.593705,,,1,,,,
5151,,中給田,,35.669312,139.591690,,,1,,,,
5153,,北給田,,35.671175,139.587355,,,1,,,,
5155,,給田境,,35.672388,139.584475,,,1,,,,
5157,,北野,,35.673470,139.581935,,,1,,,,
5177,,荻窪橋,,35.700680,139.616953,,,1,,,,
5179,,東電荻窪支社前,,35.702464,139.616205,,,1,,,,
5201,,中野三丁目,,35.701948,139.665240,,,1,,,,
5203,,中央五丁目,,35.700232,139.661500,,,1,,,,
5205,,高円寺南五丁目,,35.700535,139.659124,,,1,,,,
5207,,東高円寺駅,,35.698040,139.657180,,,1,,,,
5209,,杉並車庫,,35.697976,139.651700,,,1,,,,
5211,,新高円寺駅,,35.698147,139.649011,,,1,,,,
5213,,大法寺前,,35.696589,139.647690,,,1,,,,
5215,,松の木,,35.695270,139.643963,,,1,,,,
5217,,成田東,,35.693602,139.640150,,,1,,,,
5219,,成田東三丁目,,35.692210,139.637605,,,1,,,,
5221,,善福寺川緑地公園前,,35.691784,139.633955,,,1,,,,
5223,,杉並第二小学校,,35.690979,139.630910,,,1,,,,
5225,,豊多摩高校,,35.690662,139.629910,,,1,,,,
5227,,五日市街道営業所,,35.690685,139.626635,,,1,,,,
5229,,高井戸境,,35.690479,139.622640,,,1,,,,
5231,,宮前一丁目,,35.690275,139.615255,,,1,,,,
5233,,高井戸警察署,,35.691314,139.612005,,,1,,,,
5235,,春日神社,,35.692560,139.609045,,,1,,,,
5237,,宮前四丁目,,35.693629,139.606780,,,1,,,,
5239,,宮前三丁目,,35.694621,139.604911,,,1,,,,
5240,,宮前ふれあいの家,,35.695558,139.602533,,,1,,,,
5241,,宮前五丁目,,35.696366,139.601095,,,1,,,,
5243,,南町五丁目,,35.702124,139.590195,,,1,,,,
5245,,第三小学校,,35.702955,139.588630,,,1,,,,
5247,,"東町三丁目(ひがしちょうさんちょうめ,東町３丁目、東町3丁目)",,35.704165,139.586120,,,1,,,,
5249,,本町一丁目,,35.704781,139.584780,,,1,,,,
5301,,松渓中学,,35.695284,139.621629,,,1,,,,
5303,,西田端橋,,35.695345,139.623435,,,1,,,,
5304,,シャレール荻窪入口,,35.696014,139.625350,,,1,,,,
5305,,シャレール荻窪,,35.696145,139.626440,,,1,,,,
5306,,特養ホームおぎくぼ紫苑,,35.697937,139.625400,,,1,,,,
5307,,荻窪一丁目北,,35.695618,139.625890,,,1,,,,
5400,,千歳烏山駅,,35.669621,139.600065,,,1,,,,
5401,,交番前,,35.670303,139.600370,,,1,,,,
5403,,烏山中学校,,35.671501,139.600236,,,1,,,,
5405,,烏山北小学校,,35.673580,139.600220,,,1,,,,
5407,,寺院通一番,,35.675777,139.598740,,,1,,,,
5409,,寺院通二番,,35.677338,139.597060,,,1,,,,
5411,,寺院通三番,,35.678120,139.596280,,,1,,,,
5413,,寺院通四番,,35.679005,139.595250,,,1,,,,
5415,,寺院通五番,,35.680534,139.593930,,,1,,,,
5417,,北烏山五丁目,,35.681650,139.593370,,,1,,,,
5419,,国学院前,,35.682358,139.594450,,,1,,,,
5421,,久我山病院,,35.681371,139.598150,,,1,,,,
5423,,烏山都営住宅前,,35.679935,139.598330,,,1,,,,
5425,,西蓮寺前,,35.678337,139.599230,,,1,,,,
5427,,烏山北住宅入口,,35.676200,139.600630,,,1,,,,
5429,,烏山バイパス,,35.673046,139.601360,,,1,,,,
5503,,高円寺南四丁目,,35.702667,139.649560,,,1,,,,
5505,,高円寺駅南口,,35.705124,139.650053,,,1,,,,
5601,,南荻窪一丁目,,35.698135,139.614495,,,1,,,,
5603,,大宮前体育館,,35.696773,139.611200,,,1,,,,
5604,,宮前公園,,35.693869,139.610415,,,1,,,,
5605,,都営宮前アパート,,35.695812,139.605500,,,1,,,,
5607,,宮前三郵便局西,,35.698116,139.606750,,,1,,,,
5609,,南荻窪二丁目,,35.697470,139.608350,,,1,,,,
5623,,西荻窪駅南口,,35.703003,139.600250,,,1,,,,
5798,,東中野区民活動センター,,35.709688,139.688110,,,1,,,,
5900,,松ノ木二丁目,,35.692291,139.641640,,,1,,,,
5901,,松ノ木住宅,,35.688443,139.641625,,,1,,,,
5902,,松ノ木公園,,35.691208,139.641465,,,1,,,,
5903,,都立和田堀公園,,35.684845,139.642575,,,1,,,,
5904,,大宮八幡前,,35.682661,139.642955,,,1,,,,
5905,,大宮町,,35.681503,139.642260,,,1,,,,
5906,,西永福,,35.679420,139.637570,,,1,,,,
5907,,永福町,,35.676697,139.642723,,,1,,,,
5908,,大宮台,,35.679523,139.645800,,,1,,,,
5909,,大宮八幡入口,,35.682594,139.646915,,,1,,,,
5910,,福祉事務所,,35.700310,139.649395,,,1,,,,
5911,,豊玉南住宅,,35.728430,139.654070,,,1,,,,
5912,,豊玉中三丁目アパート,,35.730847,139.654370,,,1,,,,
5913,,方南水道道路,,35.682194,139.645050,,,1,,,,
10000_1,,あさひ病院（ムーバス）,,35.704098,139.582950,,,0,10000,,,
10001_1,,松井健診クリニック（ムーバス）,,35.704773,139.584870,,,0,10001,,,
10002_1,,美大通り（ムーバス）,,35.705334,139.586640,,,0,10002,,,
10003_1,,東町三丁目（ムーバス）,,35.705944,139.588640,,,0,10003,,,
10004_1,,本宿小学校（ムーバス）,,35.705420,139.590150,,,0,10004,,,
10005_1,,松籟公園（ムーバス）,,35.704980,139.591570,,,0,10005,,,
10006_1,,吉祥女子中・高校前（ムーバス）,,35.704563,139.593030,,,0,10006,,,
10007_1,,松庵三丁目北（ムーバス）,,35.701270,139.593110,,,0,10007,,,
10008_1,,特養ホームゆとりえ前（ムーバス）,,35.698975,139.591930,,,0,10008,,,
10009_1,,松庵一丁目西（ムーバス）,,35.696564,139.590880,,,0,10009,,,
10010_1,,南町三丁目（ムーバス）,,35.696617,139.588850,,,0,10010,,,
10011_1,,南町三丁目中央（ムーバス）,,35.697136,139.587170,,,0,10011,,,
10012_1,,吉祥寺南病院（ムーバス）,,35.698680,139.587680,,,0,10012,,,
10013_1,,南町コミセン西（ムーバス）,,35.699734,139.586090,,,0,10013,,,
10014_1,,水門通り（ムーバス）,,35.701190,139.582210,,,0,10014,,,
10015_0,,吉祥寺駅南口（ムーバス）,,35.702210,139.579250,,,0,10015,,,
10015_2,,吉祥寺駅南口（ムーバス）,,35.702210,139.579250,,,0,10015,,,
10018_1,,本田東公園東（ムーバス）,,35.703663,139.594470,,,0,10018,,,
10020_0,,吉祥寺駅（ムーバス降車場）,,35.703413,139.579949,,,0,10020,,,
10020_1,,吉祥寺駅（ムーバス降車場）,,35.703483,139.579772,,,0,10020,,,
10021_1,,コピス吉祥寺前（ムーバス）,,35.705254,139.579640,,,0,10021,,,
10021_2,,コピス吉祥寺前（ムーバス）,,35.705353,139.579710,,,0,10021,,,
10022_1,,武蔵野八幡宮（ムーバス）,,35.706820,139.579150,,,0,10022,,,
10023_1,,東門通り南（ムーバス）,,35.709057,139.576750,,,0,10023,,,
10024_1,,東門通り北（ムーバス）,,35.710434,139.577510,,,0,10024,,,
10025_1,,北コミセン前（ムーバス）,,35.712170,139.578140,,,0,10025,,,
10026_1,,北町こども広場（ムーバス）,,35.713177,139.578700,,,0,10026,,,
10027_1,,青葉公園入口（ムーバス）,,35.714134,139.578570,,,0,10027,,,
10028_1,,ポケット広場（ムーバス）,,35.715466,139.577480,,,0,10028,,,
10029_1,,ねむの木通り（ムーバス）,,35.716415,139.576140,,,0,10029,,,
10030_1,,さわやか公園（ムーバス）,,35.717260,139.574870,,,0,10030,,,
10031_1,,けやきコミセン（ムーバス）,,35.717904,139.572224,,,0,10031,,,
10032_1,,西門前（ムーバス）,,35.716537,139.571460,,,0,10032,,,
10033_1,,扶桑通り（ムーバス）,,35.715008,139.570620,,,0,10033,,,
10034_1,,かくれみの公園（ムーバス）,,35.713715,139.569920,,,0,10034,,,
10035_1,,すずかけ小路（ムーバス）,,35.712643,139.569840,,,0,10035,,,
10036_1,,けやき並木（ムーバス）,,35.711353,139.571180,,,0,10036,,,
10037_1,,成蹊通り（ムーバス）,,35.709860,139.570370,,,0,10037,,,
10038_1,,本町四丁目（ムーバス）,,35.708714,139.569640,,,0,10038,,,
10039_1,,第一小学校西（ムーバス）,,35.707695,139.572130,,,0,10039,,,
10040_1,,西五条通り（ムーバス）,,35.706810,139.574520,,,0,10040,,,
10041_1,,大正通り（ムーバス）,,35.706192,139.576140,,,0,10041,,,
10042_1,,東急百貨店前（ムーバス）,,35.705330,139.578100,,,0,10042,,,
10051_1,,けやき橋北（ムーバス）,,35.704727,139.559170,,,0,10051,,,
10053_1,,西久保公園（ムーバス）,,35.706936,139.553390,,,0,10053,,,
10054_1,,久保公園・とらいふ武蔵野（ムーバス）,,35.708035,139.553630,,,0,10054,,,
10055_1,,五中北（ムーバス）,,35.710938,139.551940,,,0,10055,,,
10056_1,,武蔵野館前（ムーバス）,,35.711147,139.549930,,,0,10056,,,
10057_1,,関前コミセン南（ムーバス）,,35.711940,139.548280,,,0,10057,,,
10058_1,,関前コミセン（ムーバス）,,35.712810,139.548830,,,0,10058,,,
10059_1,,大師通り公園（ムーバス）,,35.713970,139.548230,,,0,10059,,,
10060_1,,市民の森公園（ムーバス）,,35.713696,139.550580,,,0,10060,,,
10061_1,,関前三丁目中央（ムーバス）,,35.712975,139.552700,,,0,10061,,,
10062_1,,関前公園（ムーバス）,,35.712563,139.553920,,,0,10062,,,
10063_1,,五小通り（ムーバス）,,35.711990,139.556430,,,0,10063,,,
10064_1,,西久保三丁目（ムーバス）,,35.712940,139.558490,,,0,10064,,,
10065_1,,宮前通り北（ムーバス）,,35.712000,139.558880,,,0,10065,,,
10066_1,,宮前通り中央（ムーバス）,,35.710644,139.558010,,,0,10066,,,
10067_1,,三谷通り・西久保保育園前（ムーバス）,,35.709190,139.557040,,,0,10067,,,
10068_1,,ふじ公園西（ムーバス）,,35.707120,139.557080,,,0,10068,,,
10069_1,,三谷公園（ムーバス）,,35.706272,139.559370,,,0,10069,,,
10070_1,,西久保コミセン（ムーバス）,,35.705833,139.556290,,,0,10070,,,
10072_1,,小森病院（ムーバス）,,35.713300,139.557310,,,0,10072,,,
10073_1,,月見小路入口（ムーバス）,,35.707882,139.577840,,,0,10073,,,
10081_1,,中町新道（ムーバス）,,35.703640,139.563950,,,0,10081,,,
10082_1,,平沼園交差点（ムーバス）,,35.703625,139.566070,,,0,10082,,,
10083_1,,八丁地下道（ムーバス）,,35.701710,139.566500,,,0,10083,,,
10084_1,,むらさき橋（ムーバス）,,35.700726,139.566820,,,0,10084,,,
10085_1,,御殿山二丁目（ムーバス）,,35.701374,139.567860,,,0,10085,,,
10086_1,,武蔵野税務署南（ムーバス）,,35.702763,139.569060,,,0,10086,,,
10087_1,,文化園西（ムーバス）,,35.702360,139.570450,,,0,10087,,,
10088_1,,御殿山一丁目（ムーバス）,,35.701650,139.572430,,,0,10088,,,
10089_1,,文化園東（ムーバス）,,35.701190,139.573750,,,0,10089,,,
10090_1,,吉祥寺大通り（ムーバス）,,35.702317,139.580349,,,0,10090,,,
10090_2,,吉祥寺大通り（ムーバス）,,35.702307,139.580328,,,0,10090,,,
10092_1,,吉祥寺駅前交差点（ムーバス）,,35.703150,139.576282,,,0,10092,,,
10093_1,,本町二丁目（ムーバス）,,35.703740,139.574190,,,0,10093,,,
10094_1,,本町三丁目（ムーバス）,,35.704350,139.572200,,,0,10094,,,
10095_1,,吉祥寺西コミセン入口（ムーバス）,,35.705100,139.569660,,,0,10095,,,
10096_1,,中町二丁目（ムーバス）,,35.705826,139.567210,,,0,10096,,,
10097_1,,横河電機前（ムーバス）,,35.706410,139.565250,,,0,10097,,,
10098_1,,横河グラウンド（ムーバス）,,35.705544,139.563800,,,0,10098,,,
10099_1,,かたらいの道（ムーバス）,,35.705322,139.562010,,,0,10099,,,
10100_0,,田無駅（はなバス）,,35.727648,139.540479,,,0,10100,,,
10100_1,,田無駅（はなバス）,,35.727825,139.540420,,,0,10100,,,
10101_1,,田無庁舎前（はなバス）,,35.726364,139.538020,,,0,10101,,,
10101_2,,田無庁舎前（はなバス）,,35.726532,139.538450,,,0,10101,,,
10102_1,,向南中央通り（はなバス）,,35.725117,139.534550,,,0,10102,,,
10102_2,,向南中央通り（はなバス）,,35.725307,139.534320,,,0,10102,,,
10103_1,,南町六丁目（はなバス）,,35.725690,139.532060,,,0,10103,,,
10103_2,,南町六丁目（はなバス）,,35.725693,139.532530,,,0,10103,,,
10104_1,,府中道（はなバス）,,35.724360,139.529950,,,0,10104,,,
10104_2,,府中道（はなバス）,,35.724470,139.529370,,,0,10104,,,
10105_1,,芝久保一丁目（はなバス）,,35.725450,139.526600,,,0,10105,,,
10105_2,,芝久保一丁目（はなバス）,,35.725190,139.527900,,,0,10105,,,
10106_0,,芝久保運動場（はなバス）,,35.723283,139.525504,,,0,10106,,,
10106_1,,芝久保運動場（はなバス）,,35.723286,139.525330,,,0,10106,,,
10106_2,,芝久保運動場（はなバス）,,35.723244,139.525630,,,0,10106,,,
10107_1,,みたけ分社通り（はなバス）,,35.725090,139.523770,,,0,10107,,,
10107_2,,みたけ分社通り（はなバス）,,35.724987,139.523850,,,0,10107,,,
10108_1,,芝久保二丁目（はなバス）,,35.727016,139.522660,,,0,10108,,,
10108_2,,芝久保二丁目（はなバス）,,35.726950,139.522350,,,0,10108,,,
10109_1,,西武住宅南（はなバス）,,35.726322,139.520430,,,0,10109,,,
10109_2,,西武住宅南（はなバス）,,35.727650,139.520200,,,0,10109,,,
10110_1,,西武住宅北（はなバス）,,35.728670,139.519580,,,0,10110,,,
10110_2,,西武住宅北（はなバス）,,35.729168,139.519530,,,0,10110,,,
10111_1,,芝久保（はなバス）,,35.730328,139.518340,,,0,10111,,,
10111_2,,芝久保（はなバス）,,35.730373,139.518460,,,0,10111,,,
10112_1,,芝久保四丁目住宅（はなバス）,,35.731830,139.518310,,,0,10112,,,
10112_2,,芝久保四丁目住宅（はなバス）,,35.731580,139.518065,,,0,10112,,,
10113_1,,田無北芝久保郵便局,,35.732820,139.521760,,,0,10113,,,
10113_2,,田無北芝久保郵便局,,35.733093,139.523010,,,0,10113,,,
10116_1,,芝久保一丁目東（はなバス）,,35.725180,139.528090,,,0,10116,,,
10117_2,,田無総合福祉センター（はなバス）,,35.731730,139.535980,,,0,10117,,,
10118_1,,田無本町七丁目住宅（はなバス）,,35.732937,139.530330,,,0,10118,,,
10118_2,,田無本町七丁目住宅（はなバス）,,35.732880,139.530200,,,0,10118,,,
10119_1,,田無橋場西（はなバス）,,35.731247,139.529240,,,0,10119,,,
10119_2,,田無橋場西（はなバス）,,35.730940,139.529000,,,0,10119,,,
10121_1,,芝久保児童館（はなバス）,,35.724773,139.525749,,,0,10121,,,
1101_0,,阿佐ヶ谷駅,,35.705330,139.636528,,,0,1101,,,
1101_1,,阿佐ヶ谷駅,,35.705334,139.636380,,,0,1101,,,
1101_2,,阿佐ヶ谷駅,,35.705303,139.636230,,,0,1101,,,
1101_3,,阿佐ヶ谷駅,,35.705280,139.636110,,,0,1101,,,
1101_4,,阿佐ヶ谷駅,,35.705340,139.636690,,,0,1101,,,
1103_1,,世尊院前,,35.706753,139.636230,,,0,1103,,,
1103_2,,世尊院前,,35.707073,139.636320,,,0,1103,,,
1105_1,,阿佐谷北一丁目,,35.709780,139.635400,,,0,1105,,,
1105_2,,阿佐谷北一丁目,,35.709564,139.635640,,,0,1105,,,
1107_1,,第九小学校,,35.712444,139.635010,,,0,1107,,,
1107_2,,第九小学校,,35.712585,139.634800,,,0,1107,,,
1107_3,,第九小学校,,35.712920,139.634300,,,0,1107,,,
1107_4,,第九小学校,,35.712994,139.634220,,,0,1107,,,
1109_1,,阿佐谷北六丁目,,35.714657,139.635160,,,0,1109,,,
1109_2,,阿佐谷北六丁目,,35.714504,139.634950,,,0,1109,,,
1109_3,,阿佐谷北六丁目,,35.713886,139.635740,,,0,1109,,,
1109_4,,阿佐谷北六丁目,,35.713814,139.635620,,,0,1109,,,
1111_0,,白鷺一丁目,,35.716301,139.635892,,,0,1111,,,
1111_1,,白鷺一丁目,,35.716457,139.635830,,,0,1111,,,
1111_2,,白鷺一丁目,,35.717340,139.636170,,,0,1111,,,
1113_1,,白鷺二丁目,,35.719196,139.636220,,,0,1113,,,
1113_2,,白鷺二丁目,,35.719090,139.636280,,,0,1113,,,
1115_1,,鷺ノ宮駅,,35.722355,139.638000,,,0,1115,,,
1115_2,,鷺ノ宮駅,,35.722878,139.638140,,,0,1115,,,
1117_1,,鷺宮四丁目,,35.726000,139.638440,,,0,1117,,,
1117_2,,鷺宮四丁目,,35.726547,139.638810,,,0,1117,,,
1117_3,,鷺宮四丁目,,35.726654,139.636900,,,0,1117,,,
1117_4,,鷺宮四丁目,,35.726467,139.637160,,,0,1117,,,
1119_1,,中村南三丁目,,35.728306,139.639240,,,0,1119,,,
1119_2,,中村南三丁目,,35.728558,139.639390,,,0,1119,,,
1119_3,,中村南三丁目,,35.728432,139.639315,,,0,1119,,,
1121_1,,中村八幡,,35.730377,139.639570,,,0,1121,,,
1121_2,,中村八幡,,35.730743,139.639630,,,0,1121,,,
1123_1,,中村三丁目,,35.732105,139.639190,,,0,1123,,,
1123_2,,中村三丁目,,35.732560,139.639160,,,0,1123,,,
1125_2,,中村北三丁目,,35.733467,139.638950,,,0,1125,,,
1127_1,,中村公園,,35.734190,139.640520,,,0,1127,,,
1129_0,,中村橋駅,,35.736253,139.639103,,,0,1129,,,
1129_1,,中村橋駅,,35.736134,139.638810,,,0,1129,,,
1129_2,,中村橋駅,,35.736237,139.639540,,,0,1129,,,
1129_3,,中村橋駅,,35.736530,139.640170,,,0,1129,,,
1129_4,,中村橋駅,,35.736040,139.636890,,,0,1129,,,
1131_1,,阿佐谷南一丁目,,35.701460,139.636100,,,0,1131,,,
1131_2,,阿佐谷南一丁目,,35.702065,139.636050,,,0,1131,,,
1133_1,,杉並区役所,,35.700294,139.635790,,,0,1133,,,
1133_2,,杉並区役所,,35.700104,139.635560,,,0,1133,,,
1135_1,,杉並都税事務所,,35.700620,139.632370,,,0,1135,,,
1135_2,,杉並都税事務所,,35.700740,139.632610,,,0,1135,,,
1137_1,,阿佐谷南三丁目,,35.701720,139.629870,,,0,1137,,,
1137_2,,阿佐谷南三丁目,,35.701916,139.629930,,,0,1137,,,
1139_1,,天沼,,35.702892,139.627850,,,0,1139,,,
1139_2,,天沼,,35.703434,139.627270,,,0,1139,,,
1141_2,,荻窪公団アパート,,35.705170,139.623250,,,0,1141,,,
1143_0,,荻窪駅北口,,35.704898,139.620778,,,0,1143,,,
1143_1,,荻窪駅北口,,35.704790,139.620680,,,0,1143,,,
1143_2,,荻窪駅北口,,35.704792,139.620930,,,0,1143,,,
1143_3,,荻窪駅北口,,35.705124,139.621220,,,0,1143,,,
1143_4,,荻窪駅北口,,35.705017,139.620620,,,0,1143,,,
1143_5,,荻窪駅北口,,35.704887,139.621200,,,0,1143,,,
1143_6,,荻窪駅北口,,35.705730,139.619100,,,0,1143,,,
1143_7,,荻窪駅北口,,35.705180,139.621030,,,0,1143,,,
1143_8,,荻窪駅北口,,35.705357,139.621220,,,0,1143,,,
1143_9,,荻窪駅北口,,35.705814,139.618870,,,0,1143,,,
1145_1,,四面道,,35.707436,139.615860,,,0,1145,,,
1145_2,,四面道,,35.708550,139.614440,,,0,1145,,,
1145_3,,四面道,,35.709526,139.614760,,,0,1145,,,
1145_4,,四面道,,35.709130,139.615130,,,0,1145,,,
1145_5,,四面道,,35.708527,139.616580,,,0,1145,,,
1145_6,,四面道,,35.708187,139.616260,,,0,1145,,,
1147_1,,東京衛生病院入口,,35.709293,139.618090,,,0,1147,,,
1147_2,,東京衛生病院入口,,35.709570,139.618940,,,0,1147,,,
1149_1,,ウェルファーム杉並,,35.710100,139.619930,,,0,1149,,,
1149_2,,ウェルファーム杉並,,35.710140,139.620160,,,0,1149,,,
1151_1,,天沼小学校,,35.710980,139.622470,,,0,1151,,,
1151_2,,天沼小学校,,35.711094,139.623150,,,0,1151,,,
1153_1,,稲荷横丁,,35.711365,139.624440,,,0,1153,,,
1153_2,,稲荷横丁,,35.711350,139.624760,,,0,1153,,,
1155_1,,日大二高,,35.711660,139.626700,,,0,1155,,,
1155_2,,日大二高,,35.711636,139.627240,,,0,1155,,,
1157_1,,本天沼二丁目,,35.711777,139.628770,,,0,1157,,,
1157_2,,本天沼二丁目,,35.711777,139.629460,,,0,1157,,,
1159_1,,本天沼一丁目,,35.712050,139.630750,,,0,1159,,,
1159_2,,本天沼一丁目,,35.712080,139.631290,,,0,1159,,,
1201_0,,新宿駅西口,,35.691705,139.698939,,,0,1201,,,
1201_1,,新宿駅西口,,35.691700,139.698430,,,0,1201,,,
1201_2,,新宿駅西口,,35.691715,139.698700,,,0,1201,,,
1201_3,,新宿駅西口,,35.691840,139.698900,,,0,1201,,,
1203_1,,新宿広小路,,35.694450,139.698720,,,0,1203,,,
1203_2,,新宿広小路,,35.694240,139.699020,,,0,1203,,,
1205_1,,南通り,,35.697655,139.697540,,,0,1205,,,
1205_2,,南通り,,35.698610,139.697170,,,0,1205,,,
1207_1,,大久保駅,,35.701492,139.695280,,,0,1207,,,
1207_2,,大久保駅,,35.702210,139.695220,,,0,1207,,,
1207_3,,大久保駅,,35.701960,139.694460,,,0,1207,,,
1209_1,,新宿消防署,,35.706230,139.694240,,,0,1209,,,
1209_2,,新宿消防署,,35.707275,139.694440,,,0,1209,,,
1209_3,,新宿消防署,,35.706577,139.694920,,,0,1209,,,
1211_1,,小滝橋,,35.710094,139.693120,,,0,1211,,,
1211_2,,小滝橋,,35.710480,139.692810,,,0,1211,,,
1213_1,,上落合一丁目,,35.711254,139.690170,,,0,1213,,,
1213_2,,上落合一丁目,,35.711273,139.688800,,,0,1213,,,
1213_3,,上落合一丁目,,35.710938,139.689240,,,0,1213,,,
1215_1,,落合駅,,35.710396,139.685120,,,0,1215,,,
1215_2,,落合駅,,35.710280,139.683990,,,0,1215,,,
1217_1,,正見寺,,35.709682,139.681960,,,0,1217,,,
1217_2,,正見寺,,35.709640,139.681580,,,0,1217,,,
1219_1,,白桜小学校入口,,35.708553,139.679500,,,0,1219,,,
1219_2,,白桜小学校入口,,35.708410,139.678390,,,0,1219,,,
1221_1,,中野六丁目,,35.708485,139.675700,,,0,1221,,,
1221_2,,中野六丁目,,35.708650,139.675370,,,0,1221,,,
1223_1,,もみじ山通り,,35.708960,139.673660,,,0,1223,,,
1223_2,,もみじ山通り,,35.709084,139.673570,,,0,1223,,,
1225_1,,中野五丁目,,35.709835,139.669510,,,0,1225,,,
1225_2,,中野五丁目,,35.709465,139.671110,,,0,1225,,,
1225_3,,中野五丁目,,35.709984,139.670290,,,0,1225,,,
1227_1,,新井中野通り,,35.710030,139.665860,,,0,1227,,,
1227_2,,新井中野通り,,35.709923,139.665540,,,0,1227,,,
1227_3,,新井中野通り,,35.710716,139.665130,,,0,1227,,,
1227_4,,新井中野通り,,35.710570,139.665300,,,0,1227,,,
1228_1,,新井交差点南,,35.708720,139.664980,,,0,1228,,,
1229_2,,中野区役所入口,,35.709980,139.663760,,,0,1229,,,
12293_1,,中野駅入口,,35.706820,139.663620,,,0,12293,,,
12293_3,,中野駅入口,,35.707590,139.665270,,,0,12293,,,
1230_1,,中野四季の森公園,,35.708107,139.662030,,,0,1230,,,
1230_2,,中野四季の森公園,,35.708477,139.662370,,,0,1230,,,
1231_1,,東京警察病院北門前,,35.709800,139.659420,,,0,1231,,,
1231_2,,東京警察病院北門前,,35.709910,139.660680,,,0,1231,,,
1231_4,,東京警察病院北門前,,35.709805,139.659530,,,0,1231,,,
1232_1,,東京警察病院正門前,,35.708878,139.660050,,,0,1232,,,
1232_2,,東京警察病院正門前,,35.709404,139.660230,,,0,1232,,,
1233_1,,大新横丁,,35.709698,139.655620,,,0,1233,,,
1233_2,,大新横丁,,35.709805,139.655800,,,0,1233,,,
1233_3,,大新横丁,,35.709805,139.655720,,,0,1233,,,
1233_4,,大新横丁,,35.709700,139.655720,,,0,1233,,,
1234_1,,早稲田大学中野国際コミュニティプラザ,,35.708344,139.658650,,,0,1234,,,
1235_1,,大場通り,,35.710316,139.653930,,,0,1235,,,
1235_2,,大場通り,,35.710230,139.654220,,,0,1235,,,
1235_3,,大場通り,,35.709568,139.653370,,,0,1235,,,
1235_4,,大場通り,,35.709244,139.654400,,,0,1235,,,
1236_1,,大場通り（Ｋ０１）,,35.710259,139.654295,,,0,1236,,,
1236_2,,大場通り（Ｋ０１）,,35.710278,139.653963,,,0,1236,,,
1237_1,,高円寺通り(こうえんじどおり),,35.709500,139.650510,,,0,1237,,,
1237_2,,高円寺通り(こうえんじどおり),,35.709620,139.650360,,,0,1237,,,
1239_1,,大和町三丁目,,35.710670,139.646320,,,0,1239,,,
1239_2,,大和町三丁目,,35.710930,139.645740,,,0,1239,,,
1241_1,,お伊勢の森,,35.711570,139.642970,,,0,1241,,,
1241_2,,お伊勢の森,,35.711838,139.642470,,,0,1241,,,
1243_1,,東原,,35.712837,139.638810,,,0,1243,,,
1243_2,,東原,,35.712894,139.638960,,,0,1243,,,
1245_0,,阿佐谷営業所,,35.714353,139.633722,,,0,1245,,,
1245_1,,阿佐谷営業所,,35.714466,139.633380,,,0,1245,,,
1245_2,,阿佐谷営業所,,35.714552,139.633562,,,0,1245,,,
1245_3,,阿佐谷営業所,,35.714550,139.633560,,,0,1245,,,
1245_4,,阿佐谷営業所,,35.714490,139.633700,,,0,1245,,,
1247_1,,中野区役所,,35.709236,139.663210,,,0,1247,,,
1247_2,,中野区役所,,35.709410,139.663380,,,0,1247,,,
1247_3,,中野区役所,,35.708310,139.663940,,,0,1247,,,
1251_0,,中野駅,,35.706721,139.664987,,,0,1251,,,
1251_1,,中野駅,,35.706035,139.665243,,,0,1251,,,
1251_10,,中野駅,,35.705856,139.665251,,,0,1251,,,
1251_11,,中野駅,,35.706917,139.663650,,,0,1251,,,
1251_2,,中野駅,,35.707316,139.664114,,,0,1251,,,
1251_3,,中野駅,,35.706891,139.663967,,,0,1251,,,
1251_4,,中野駅,,35.707318,139.663615,,,0,1251,,,
1251_5,,中野駅,,35.707424,139.663849,,,0,1251,,,
1251_6,,中野駅,,35.707416,139.664214,,,0,1251,,,
1251_7,,中野駅,,35.705769,139.665840,,,0,1251,,,
1251_8,,中野駅,,35.704860,139.665800,,,0,1251,,,
1251_88,,中野駅,,35.705292,139.665808,,,0,1251,,,
1251_99,,中野駅,,35.705104,139.665452,,,0,1251,,,
1301_1,,中村北二丁目,,35.736794,139.643880,,,0,1301,,,
1301_2,,中村北二丁目,,35.736694,139.643690,,,0,1301,,,
1303_1,,東電支社前,,35.736553,139.647770,,,0,1303,,,
1303_2,,東電支社前,,35.736404,139.647890,,,0,1303,,,
1304_1,,練馬区役所入口,,35.737140,139.651870,,,0,1304,,,
1305_2,,練馬区役所前,,35.735863,139.652240,,,0,1305,,,
1307_0,,練馬駅,,35.738152,139.654200,,,0,1307,,,
1307_1,,練馬駅,,35.738094,139.653900,,,0,1307,,,
1307_2,,練馬駅,,35.738125,139.654170,,,0,1307,,,
1309_2,,下新街,,35.735287,139.654250,,,0,1309,,,
1311_1,,南田中一丁目,,35.731377,139.619770,,,0,1311,,,
1313_1,,南田中,,35.731865,139.621810,,,0,1313,,,
1315_1,,富士見台一丁目,,35.733030,139.626280,,,0,1315,,,
1317_1,,富士見台駅,,35.734880,139.631260,,,0,1317,,,
1319_1,,中村北四丁目,,35.735810,139.635390,,,0,1319,,,
1401_1,,大鳥前,,35.715680,139.629430,,,0,1401,,,
1401_2,,大鳥前,,35.715443,139.630310,,,0,1401,,,
1403_1,,下井草一丁目,,35.717070,139.626880,,,0,1403,,,
1403_2,,下井草一丁目,,35.716286,139.628100,,,0,1403,,,
1403_3,,下井草一丁目,,35.716705,139.626420,,,0,1403,,,
1405_1,,銀杏稲荷,,35.718130,139.626650,,,0,1405,,,
1405_2,,銀杏稲荷,,35.717876,139.626790,,,0,1405,,,
1407_1,,下井草二丁目,,35.719810,139.626000,,,0,1407,,,
1407_2,,下井草二丁目,,35.719856,139.626110,,,0,1407,,,
1409_1,,下井草郵便局,,35.721570,139.625500,,,0,1409,,,
1409_2,,下井草郵便局,,35.722664,139.625520,,,0,1409,,,
1411_0,,下井草駅,,35.723645,139.624559,,,0,1411,,,
1411_1,,下井草駅,,35.723732,139.624450,,,0,1411,,,
1411_2,,下井草駅,,35.723670,139.624620,,,0,1411,,,
1411_3,,下井草駅,,35.722820,139.624540,,,0,1411,,,
1413_1,,井草一丁目,,35.725693,139.621800,,,0,1413,,,
1413_2,,井草一丁目,,35.726080,139.621410,,,0,1413,,,
1413_3,,井草一丁目,,35.726086,139.621300,,,0,1413,,,
1415_0,,八成小学校,,35.727525,139.619799,,,0,1415,,,
1415_1,,八成小学校,,35.727093,139.619800,,,0,1415,,,
1415_2,,八成小学校,,35.728050,139.618500,,,0,1415,,,
1415_3,,八成小学校,,35.727448,139.620800,,,0,1415,,,
1417_1,,井草二丁目,,35.728508,139.617680,,,0,1417,,,
1417_2,,井草二丁目,,35.728760,139.617390,,,0,1417,,,
1419_1,,八成橋,,35.729725,139.615810,,,0,1419,,,
1419_2,,八成橋,,35.729645,139.616100,,,0,1419,,,
1419_3,,八成橋,,35.729156,139.614330,,,0,1419,,,
1419_4,,八成橋,,35.729390,139.614670,,,0,1419,,,
1420_1,,八成橋東,,35.730434,139.616380,,,0,1420,,,
1421_1,,喜楽沼,,35.732160,139.612300,,,0,1421,,,
1421_2,,喜楽沼,,35.732370,139.612270,,,0,1421,,,
1421_3,,喜楽沼,,35.732150,139.612440,,,0,1421,,,
1421_4,,喜楽沼,,35.732395,139.612150,,,0,1421,,,
1423_1,,下石神井一丁目,,35.733610,139.610400,,,0,1423,,,
1423_2,,下石神井一丁目,,35.733425,139.610700,,,0,1423,,,
1423_3,,下石神井一丁目,,35.733610,139.610490,,,0,1423,,,
1423_4,,下石神井一丁目,,35.733425,139.610630,,,0,1423,,,
1425_1,,下石神井坂下,,35.734608,139.608660,,,0,1425,,,
1425_2,,下石神井坂下,,35.734894,139.607910,,,0,1425,,,
1425_3,,下石神井坂下,,35.734585,139.608760,,,0,1425,,,
1425_4,,下石神井坂下,,35.734875,139.608030,,,0,1425,,,
1427_1,,禅定院前,,35.737940,139.605550,,,0,1427,,,
1427_2,,禅定院前,,35.737423,139.605350,,,0,1427,,,
1427_3,,禅定院前,,35.737846,139.605500,,,0,1427,,,
1427_4,,禅定院前,,35.737495,139.605400,,,0,1427,,,
1429_1,,石神井公園前,,35.740260,139.606280,,,0,1429,,,
1429_2,,石神井公園前,,35.739162,139.606140,,,0,1429,,,
1429_3,,石神井公園前,,35.740173,139.606300,,,0,1429,,,
1429_4,,石神井公園前,,35.739265,139.606170,,,0,1429,,,
1431_0,,石神井公園駅,,35.743351,139.606148,,,0,1431,,,
1431_1,,石神井公園駅,,35.743412,139.606980,,,0,1431,,,
1431_2,,石神井公園駅,,35.743526,139.606430,,,0,1431,,,
1501_1,,北新宿,,35.701653,139.690190,,,0,1501,,,
1501_2,,北新宿,,35.701714,139.689700,,,0,1501,,,
1503_1,,東中野一丁目,,35.701490,139.685550,,,0,1503,,,
1503_2,,東中野一丁目,,35.701450,139.684940,,,0,1503,,,
1505_1,,東中野二丁目,,35.700880,139.681200,,,0,1505,,,
1505_2,,東中野二丁目,,35.700974,139.682200,,,0,1505,,,
1507_1,,中野一丁目,,35.701275,139.679030,,,0,1507,,,
1507_2,,中野一丁目,,35.701492,139.678160,,,0,1507,,,
1509_1,,堀越学園,,35.701923,139.675520,,,0,1509,,,
1509_2,,堀越学園,,35.702050,139.675300,,,0,1509,,,
1511_1,,紅葉山公園下,,35.702435,139.672160,,,0,1511,,,
1511_2,,紅葉山公園下,,35.702570,139.671200,,,0,1511,,,
1513_1,,中野保健所,,35.702698,139.668780,,,0,1513,,,
1513_2,,中野保健所,,35.702700,139.669340,,,0,1513,,,
1515_1,,中野総合病院,,35.702880,139.667140,,,0,1515,,,
1515_2,,中野総合病院,,35.703020,139.666600,,,0,1515,,,
1517_1,,野方二丁目,,35.712550,139.653720,,,0,1517,,,
1517_2,,野方二丁目,,35.712376,139.654040,,,0,1517,,,
1517_3,,野方二丁目,,35.712376,139.653930,,,0,1517,,,
1517_4,,野方二丁目,,35.712550,139.653820,,,0,1517,,,
1519_1,,八幡前,,35.714672,139.653610,,,0,1519,,,
1519_2,,八幡前,,35.713947,139.653880,,,0,1519,,,
1519_3,,八幡前,,35.713947,139.653800,,,0,1519,,,
1519_4,,八幡前,,35.714672,139.653720,,,0,1519,,,
1521_1,,野方駅入口,,35.716145,139.653610,,,0,1521,,,
1521_2,,野方駅入口,,35.716940,139.653920,,,0,1521,,,
1521_3,,野方駅入口,,35.716940,139.653820,,,0,1521,,,
1521_4,,野方駅入口,,35.716145,139.653700,,,0,1521,,,
1523_0,,野方駅,,35.718460,139.653151,,,0,1523,,,
1523_1,,野方駅,,35.718613,139.653100,,,0,1523,,,
1525_2,,野方三丁目,,35.718370,139.657420,,,0,1525,,,
1527_2,,中野工科高校,,35.716457,139.658110,,,0,1527,,,
1529_2,,平和の森小学校,,35.714830,139.659060,,,0,1529,,,
1531_2,,野方一丁目,,35.711903,139.660250,,,0,1531,,,
1535_1,,宮下交差点,,35.701126,139.683380,,,0,1535,,,
1601_0,,高円寺駅北口,,35.705691,139.649930,,,0,1601,,,
1601_1,,高円寺駅北口,,35.705690,139.650150,,,0,1601,,,
1601_2,,高円寺駅北口,,35.705690,139.649930,,,0,1601,,,
1601_3,,高円寺駅北口,,35.705994,139.650010,,,0,1601,,,
1601_4,,高円寺駅北口,,35.705805,139.649560,,,0,1601,,,
1603_1,,杉並芸術会館　座・高円寺前,,35.705590,139.653870,,,0,1603,,,
1603_2,,杉並芸術会館　座・高円寺前,,35.705480,139.653640,,,0,1603,,,
1605_1,,高円寺中学,,35.706776,139.654360,,,0,1605,,,
1607_1,,野方駅北口,,35.721462,139.653600,,,0,1607,,,
1607_2,,野方駅北口,,35.721230,139.653930,,,0,1607,,,
1607_3,,野方駅北口,,35.721226,139.653820,,,0,1607,,,
1607_4,,野方駅北口,,35.721460,139.653700,,,0,1607,,,
1609_1,,中野北郵便局,,35.725826,139.653730,,,0,1609,,,
1609_2,,中野北郵便局,,35.725730,139.653980,,,0,1609,,,
1611_1,,豊玉中,,35.729690,139.656570,,,0,1611,,,
1611_2,,豊玉中,,35.729443,139.656590,,,0,1611,,,
1613_1,,豊玉中二丁目,,35.731297,139.658420,,,0,1613,,,
1613_2,,豊玉中二丁目,,35.731068,139.658450,,,0,1613,,,
1613_3,,豊玉中二丁目,,35.732120,139.658400,,,0,1613,,,
1613_4,,豊玉中二丁目,,35.732204,139.658390,,,0,1613,,,
1615_1,,豊玉北,,35.736526,139.664230,,,0,1615,,,
1615_2,,豊玉北,,35.736330,139.664440,,,0,1615,,,
1617_1,,羽沢,,35.741695,139.669270,,,0,1617,,,
1617_2,,羽沢,,35.741547,139.669450,,,0,1617,,,
1619_1,,小竹町二丁目,,35.744220,139.672790,,,0,1619,,,
1619_2,,小竹町二丁目,,35.743378,139.672000,,,0,1619,,,
1621_1,,武蔵野病院,,35.746246,139.675610,,,0,1621,,,
1621_2,,武蔵野病院,,35.746050,139.675670,,,0,1621,,,
1623_1,,小茂根,,35.748290,139.678400,,,0,1623,,,
1623_2,,小茂根,,35.748142,139.678600,,,0,1623,,,
1625_1,,上の根橋,,35.750820,139.681950,,,0,1625,,,
1625_2,,上の根橋,,35.751022,139.682590,,,0,1625,,,
1627_1,,東山町,,35.753662,139.685850,,,0,1627,,,
1627_2,,東山町,,35.753010,139.685300,,,0,1627,,,
1629_1,,南常盤台,,35.756560,139.690030,,,0,1629,,,
1629_2,,南常盤台,,35.756420,139.690320,,,0,1629,,,
1631_1,,中板橋駅入口,,35.758854,139.695530,,,0,1631,,,
1631_2,,中板橋駅入口,,35.758340,139.694240,,,0,1631,,,
1633_1,,富士見町都営住宅,,35.760128,139.700600,,,0,1633,,,
1633_2,,富士見町都営住宅,,35.759820,139.700000,,,0,1633,,,
1635_1,,大和町,,35.762080,139.708390,,,0,1635,,,
1635_2,,大和町,,35.761997,139.708700,,,0,1635,,,
1637_1,,稲荷台,,35.762604,139.710070,,,0,1637,,,
1637_2,,稲荷台,,35.762440,139.710160,,,0,1637,,,
1639_1,,姥ヶ橋,,35.763454,139.712660,,,0,1639,,,
1639_2,,姥ヶ橋,,35.763180,139.712690,,,0,1639,,,
1641_1,,上十条五丁目,,35.764206,139.715400,,,0,1641,,,
1641_2,,上十条五丁目,,35.763844,139.715060,,,0,1641,,,
1643_1,,王子第三小学校,,35.765087,139.718610,,,0,1643,,,
1643_2,,王子第三小学校,,35.764910,139.718690,,,0,1643,,,
1645_1,,十条仲原二丁目,,35.765890,139.720300,,,0,1645,,,
1645_2,,十条仲原二丁目,,35.765503,139.720000,,,0,1645,,,
1647_1,,中十条四丁目,,35.766617,139.722800,,,0,1647,,,
1647_2,,中十条四丁目,,35.766464,139.723500,,,0,1647,,,
1649_1,,東十条四丁目,,35.768710,139.726910,,,0,1649,,,
1649_2,,東十条四丁目,,35.768513,139.727110,,,0,1649,,,
1651_1,,東十条六丁目,,35.771900,139.725110,,,0,1651,,,
1651_2,,東十条六丁目,,35.770930,139.725740,,,0,1651,,,
1653_1,,赤羽南二丁目,,35.774080,139.723970,,,0,1653,,,
1653_2,,赤羽南二丁目,,35.773850,139.724210,,,0,1653,,,
1655_1,,赤羽南一丁目,,35.775623,139.723180,,,0,1655,,,
1655_2,,赤羽南一丁目,,35.774967,139.723600,,,0,1655,,,
1657_0,,赤羽駅東口,,35.777539,139.722791,,,0,1657,,,
1657_2,,赤羽駅東口,,35.779247,139.721530,,,0,1657,,,
1659_2,,赤羽駅（教会前）,,35.778456,139.722677,,,0,1659,,,
17880_0,,三鷹駅（ムーバス降車場）,,35.703365,139.560738,,,0,17880,,,
20002_1,,稔ヶ丘高校入口,,35.727390,139.624680,,,0,20002,,,
20002_2,,稔ヶ丘高校入口,,35.727380,139.622830,,,0,20002,,,
20003_1,,稔ヶ丘高校,,35.727345,139.626920,,,0,20003,,,
20003_2,,稔ヶ丘高校,,35.727250,139.626540,,,0,20003,,,
20004_1,,北中野中学校,,35.727283,139.629410,,,0,20004,,,
20004_2,,北中野中学校,,35.727196,139.628970,,,0,20004,,,
20005_1,,武蔵台小学校,,35.727272,139.631650,,,0,20005,,,
20005_2,,武蔵台小学校,,35.727160,139.631520,,,0,20005,,,
20006_1,,武蔵丘高校,,35.727222,139.633240,,,0,20006,,,
20006_2,,武蔵丘高校,,35.727055,139.633500,,,0,20006,,,
20007_1,,武蔵丘高校入口,,35.726925,139.635030,,,0,20007,,,
20007_2,,武蔵丘高校入口,,35.726750,139.635530,,,0,20007,,,
20009_1,,鷺ノ宮駅入口,,35.726470,139.637970,,,0,20009,,,
20009_2,,鷺ノ宮駅入口,,35.726160,139.639330,,,0,20009,,,
20010_1,,鷺宮三丁目,,35.725740,139.641880,,,0,20010,,,
20010_2,,鷺宮三丁目,,35.725800,139.641270,,,0,20010,,,
20011_1,,都立家政入口,,35.725056,139.644180,,,0,20011,,,
20011_2,,都立家政入口,,35.725353,139.642780,,,0,20011,,,
20012_1,,鷺宮二丁目,,35.724346,139.646840,,,0,20012,,,
20012_2,,鷺宮二丁目,,35.724270,139.646730,,,0,20012,,,
20013_1,,鷺宮一丁目,,35.724205,139.647579,,,0,20013,,,
20013_2,,鷺宮一丁目,,35.724183,139.647823,,,0,20013,,,
2101_0,,吉祥寺駅北口,,35.703392,139.580240,,,0,2101,,,
2101_1,,吉祥寺駅北口,,35.703342,139.579270,,,0,2101,,,
2101_2,,吉祥寺駅北口,,35.703330,139.579510,,,0,2101,,,
2101_3,,吉祥寺駅北口,,35.703360,139.579830,,,0,2101,,,
2101_5,,吉祥寺駅北口,,35.703648,139.579970,,,0,2101,,,
2101_6,,吉祥寺駅北口,,35.703655,139.580200,,,0,2101,,,
2103_1,,東急百貨店前,,35.704780,139.578050,,,0,2103,,,
2105_1,,武蔵野八幡宮,,35.706852,139.579100,,,0,2105,,,
2105_2,,武蔵野八幡宮,,35.707794,139.578370,,,0,2105,,,
2107_1,,北町一丁目,,35.708610,139.576030,,,0,2107,,,
2107_2,,北町一丁目,,35.708880,139.575490,,,0,2107,,,
2109_1,,成蹊学園前,,35.709600,139.572750,,,0,2109,,,
2109_2,,成蹊学園前,,35.709910,139.572130,,,0,2109,,,
2109_3,,成蹊学園前,,35.709930,139.572370,,,0,2109,,,
2111_1,,北町四丁目,,35.710747,139.568980,,,0,2111,,,
2111_2,,北町四丁目,,35.711130,139.568080,,,0,2111,,,
2113_1,,市民文化会館前,,35.711517,139.566830,,,0,2113,,,
2113_2,,市民文化会館前,,35.711960,139.565930,,,0,2113,,,
2115_0,,武蔵野営業所,,35.713026,139.563373,,,0,2115,,,
2115_1,,武蔵野営業所,,35.712990,139.562440,,,0,2115,,,
2115_2,,武蔵野営業所,,35.713110,139.562240,,,0,2115,,,
2117_1,,武蔵野住宅,,35.714767,139.562320,,,0,2117,,,
2117_2,,武蔵野住宅,,35.714417,139.562290,,,0,2117,,,
2117_3,,武蔵野住宅,,35.714490,139.562330,,,0,2117,,,
2119_1,,緑町二丁目,,35.716637,139.558840,,,0,2119,,,
2119_2,,緑町二丁目,,35.716390,139.559660,,,0,2119,,,
2121_1,,武蔵野中央公園,,35.718480,139.555680,,,0,2121,,,
2121_2,,武蔵野中央公園,,35.718370,139.555820,,,0,2121,,,
2121_3,,武蔵野中央公園,,35.717830,139.556150,,,0,2121,,,
2121_4,,武蔵野中央公園,,35.717384,139.555270,,,0,2121,,,
2123_1,,武蔵野北高校前,,35.720814,139.557070,,,0,2123,,,
2123_2,,武蔵野北高校前,,35.720673,139.557220,,,0,2123,,,
2123_3,,武蔵野北高校前,,35.720737,139.557270,,,0,2123,,,
2123_4,,武蔵野北高校前,,35.721130,139.556810,,,0,2123,,,
2124_1,,伏見通り,,35.723106,139.557460,,,0,2124,,,
2124_2,,伏見通り,,35.723410,139.557720,,,0,2124,,,
2125_1,,東伏見稲荷神社,,35.724796,139.556400,,,0,2125,,,
2125_2,,東伏見稲荷神社,,35.725094,139.557510,,,0,2125,,,
2125_3,,東伏見稲荷神社,,35.725697,139.557710,,,0,2125,,,
2125_5,,東伏見稲荷神社,,35.725740,139.557890,,,0,2125,,,
2125_6,,東伏見稲荷神社,,35.725258,139.555360,,,0,2125,,,
2127_0,,柳沢駅,,35.728399,139.553003,,,0,2127,,,
2127_1,,柳沢駅,,35.728565,139.553040,,,0,2127,,,
2127_2,,柳沢駅,,35.728410,139.553450,,,0,2127,,,
2127_3,,柳沢駅,,35.728180,139.553090,,,0,2127,,,
2129_2,,千駄山住宅,,35.727856,139.555910,,,0,2129,,,
2131_1,,サンロード入口,,35.705910,139.582200,,,0,2131,,,
2131_2,,サンロード入口,,35.705738,139.581470,,,0,2131,,,
2131_3,,サンロード入口,,35.706690,139.580750,,,0,2131,,,
2133_0,,向台町五丁目,,35.717370,139.530363,,,0,2133,,,
2133_2,,向台町五丁目,,35.717490,139.530430,,,0,2133,,,
2134_0,,ヴィーガーデン西東京,,35.716958,139.535336,,,0,2134,,,
2134_1,,ヴィーガーデン西東京,,35.717037,139.535550,,,0,2134,,,
2135_1,,武蔵野徳洲会病院,,35.716938,139.533280,,,0,2135,,,
2135_2,,武蔵野徳洲会病院,,35.716225,139.532650,,,0,2135,,,
2137_1,,事務本部（新町五丁目）,,35.714256,139.532330,,,0,2137,,,
2137_2,,事務本部（新町五丁目）,,35.714966,139.532520,,,0,2137,,,
2138_1,,事務本部,,35.714714,139.532290,,,0,2138,,,
2139_1,,桜堤団地口,,35.712270,139.531940,,,0,2139,,,
2139_2,,桜堤団地口,,35.712210,139.532670,,,0,2139,,,
2141_1,,境橋,,35.711117,139.536160,,,0,2141,,,
2141_2,,境橋,,35.711490,139.535350,,,0,2141,,,
2141_3,,境橋,,35.710403,139.537340,,,0,2141,,,
2143_1,,樋口橋,,35.712227,139.540200,,,0,2143,,,
2143_2,,樋口橋,,35.712340,139.539640,,,0,2143,,,
2144_0,,関前西公園,,35.712554,139.542939,,,0,2144,,,
2144_2,,関前西公園,,35.712536,139.542970,,,0,2144,,,
2145_1,,岩倉高校グラウンド前,,35.713234,139.542360,,,0,2145,,,
2145_2,,岩倉高校グラウンド前,,35.713780,139.542880,,,0,2145,,,
2147_1,,柳橋,,35.714184,139.544590,,,0,2147,,,
2147_2,,柳橋,,35.714650,139.544900,,,0,2147,,,
2149_1,,新町一丁目,,35.714783,139.546020,,,0,2149,,,
2149_2,,新町一丁目,,35.715300,139.546330,,,0,2149,,,
2151_0,,武蔵野大学,,35.716216,139.548978,,,0,2151,,,
2151_1,,武蔵野大学,,35.716200,139.548950,,,0,2151,,,
2151_2,,武蔵野大学,,35.716410,139.548580,,,0,2151,,,
2151_3,,武蔵野大学,,35.716537,139.548800,,,0,2151,,,
2151_4,,武蔵野大学,,35.716877,139.550190,,,0,2151,,,
2151_5,,武蔵野大学,,35.716890,139.548480,,,0,2151,,,
2152_1,,八幡町三丁目,,35.715250,139.552600,,,0,2152,,,
2152_2,,八幡町三丁目,,35.715630,139.551770,,,0,2152,,,
2153_1,,関前三丁目,,35.714640,139.554550,,,0,2153,,,
2153_2,,関前三丁目,,35.714870,139.554290,,,0,2153,,,
2153_3,,関前三丁目,,35.715410,139.553830,,,0,2153,,,
2153_4,,関前三丁目,,35.715930,139.554170,,,0,2153,,,
2153_6,,関前三丁目,,35.714542,139.553590,,,0,2153,,,
2153_7,,関前三丁目,,35.714417,139.553160,,,0,2153,,,
2154_1,,関前三丁目南,,35.713290,139.552930,,,0,2154,,,
2154_2,,関前三丁目南,,35.712433,139.553220,,,0,2154,,,
2155_1,,第五小学校,,35.713924,139.557450,,,0,2155,,,
2155_2,,第五小学校,,35.714054,139.557420,,,0,2155,,,
2157_0,,桜堤団地,,35.708714,139.533255,,,0,2157,,,
2157_2,,桜堤団地,,35.708797,139.533310,,,0,2157,,,
2159_2,,亜細亜大学北,,35.707832,139.533260,,,0,2159,,,
2161_2,,団地東口,,35.707134,139.537160,,,0,2161,,,
2163_1,,武蔵高校,,35.707767,139.539930,,,0,2163,,,
2163_2,,武蔵高校,,35.707840,139.540020,,,0,2163,,,
2165_1,,境四丁目,,35.708553,139.539220,,,0,2165,,,
2165_2,,境四丁目,,35.708656,139.539250,,,0,2165,,,
2167_0,,電通裏,,35.721996,139.561268,,,0,2167,,,
2167_1,,電通裏,,35.722090,139.561310,,,0,2167,,,
2167_2,,電通裏,,35.721634,139.559860,,,0,2167,,,
2169_2,,武蔵野市役所,,35.718105,139.566220,,,0,2169,,,
2171_1,,くぬぎ橋,,35.711440,139.533520,,,0,2171,,,
2173_1,,スポーツセンター入口,,35.712425,139.529110,,,0,2173,,,
2173_2,,スポーツセンター入口,,35.712590,139.527560,,,0,2173,,,
2173_3,,スポーツセンター入口,,35.713480,139.528440,,,0,2173,,,
2175_1,,上水北公園前,,35.714565,139.528580,,,0,2175,,,
2177_1,,小金井公園東口,,35.717050,139.528900,,,0,2177,,,
2201_0,,北裏,,35.722539,139.568631,,,0,2201,,,
2201_1,,北裏,,35.722580,139.568650,,,0,2201,,,
2201_2,,北裏,,35.722580,139.568770,,,0,2201,,,
2201_3,,北裏,,35.723180,139.569700,,,0,2201,,,
2201_6,,北裏,,35.722984,139.569930,,,0,2201,,,
2203_1,,市営プール,,35.720215,139.568100,,,0,2203,,,
2203_2,,市営プール,,35.719475,139.567830,,,0,2203,,,
2205_1,,武蔵野市役所前,,35.717500,139.566450,,,0,2205,,,
2205_2,,武蔵野市役所前,,35.717655,139.566710,,,0,2205,,,
2205_3,,武蔵野市役所前,,35.717578,139.566580,,,0,2205,,,
2207_1,,緑町住宅,,35.716140,139.565670,,,0,2207,,,
2207_2,,緑町住宅,,35.716312,139.565930,,,0,2207,,,
2209_1,,緑町一丁目,,35.714123,139.564510,,,0,2209,,,
2209_2,,緑町一丁目,,35.714905,139.565100,,,0,2209,,,
2211_0,,武蔵関駅,,35.727333,139.576991,,,0,2211,,,
2211_2,,武蔵関駅,,35.727264,139.577010,,,0,2211,,,
2213_2,,関町北二丁目,,35.726505,139.573170,,,0,2213,,,
2215_2,,関町北三丁目,,35.724648,139.573070,,,0,2215,,,
2217_1,,慈雲堂前,,35.722874,139.573750,,,0,2217,,,
2217_2,,慈雲堂前,,35.723070,139.573750,,,0,2217,,,
2217_3,,慈雲堂前,,35.723396,139.573100,,,0,2217,,,
2219_0,,田無橋場,,35.730249,139.529788,,,0,2219,,,
2219_2,,田無橋場,,35.730022,139.529900,,,0,2219,,,
2221_1,,上宿,,35.730310,139.536480,,,0,2221,,,
2221_2,,上宿,,35.730408,139.536270,,,0,2221,,,
2223_1,,田無警察,,35.729797,139.538620,,,0,2223,,,
2223_2,,田無警察,,35.729855,139.538790,,,0,2223,,,
2225_1,,田無駅入口,,35.729286,139.540830,,,0,2225,,,
2225_2,,田無駅入口,,35.729305,139.540990,,,0,2225,,,
2227_1,,田無町三丁目,,35.728890,139.542660,,,0,2227,,,
2227_2,,田無町三丁目,,35.728878,139.543050,,,0,2227,,,
2229_1,,田無町二丁目,,35.728897,139.546340,,,0,2229,,,
2229_2,,田無町二丁目,,35.729130,139.546260,,,0,2229,,,
2231_1,,ガード下,,35.727722,139.548360,,,0,2231,,,
2231_2,,ガード下,,35.727776,139.548520,,,0,2231,,,
2233_1,,柳沢,,35.726040,139.551270,,,0,2233,,,
2233_2,,柳沢,,35.726147,139.551600,,,0,2233,,,
2235_1,,東伏見坂上,,35.723597,139.562182,,,0,2235,,,
2235_2,,東伏見坂上,,35.723988,139.561650,,,0,2235,,,
2237_1,,三ツ塚,,35.722950,139.566680,,,0,2237,,,
2237_2,,三ツ塚,,35.723150,139.566180,,,0,2237,,,
2239_1,,浄水場西,,35.711514,139.545990,,,0,2239,,,
2239_2,,浄水場西,,35.711464,139.546390,,,0,2239,,,
2241_1,,浄水場中央,,35.710640,139.548320,,,0,2241,,,
2241_2,,浄水場中央,,35.710790,139.548110,,,0,2241,,,
2243_1,,五中前,,35.709824,139.550500,,,0,2243,,,
2243_2,,五中前,,35.709965,139.550300,,,0,2243,,,
2244_1,,浄水場北,,35.709957,139.552730,,,0,2244,,,
2244_2,,浄水場北,,35.710983,139.553280,,,0,2244,,,
2245_1,,浄水場東,,35.708600,139.553740,,,0,2245,,,
2267_1,,関町北一丁目,,35.724920,139.578340,,,0,2267,,,
2269_1,,関町三丁目,,35.723045,139.578980,,,0,2269,,,
2269_2,,関町三丁目,,35.723198,139.577290,,,0,2269,,,
2269_3,,関町三丁目,,35.724064,139.578370,,,0,2269,,,
2271_1,,関町郵便局,,35.722920,139.575740,,,0,2271,,,
2271_2,,関町郵便局,,35.723087,139.574950,,,0,2271,,,
2273_0,,ＮＴＴ武蔵野研究開発センタ,,35.718886,139.562494,,,0,2273,,,
2273_1,,ＮＴＴ武蔵野研究開発センタ,,35.718890,139.562400,,,0,2273,,,
2300_1,,東伏見団地東,,35.732640,139.566390,,,0,2300,,,
2300_2,,東伏見団地東,,35.732777,139.566220,,,0,2300,,,
2301_0,,東伏見駅北口,,35.728905,139.564755,,,0,2301,,,
2301_2,,東伏見駅北口,,35.728886,139.564830,,,0,2301,,,
2303_1,,富士町三丁目,,35.733100,139.565350,,,0,2303,,,
2303_2,,富士町三丁目,,35.732826,139.564710,,,0,2303,,,
2305_1,,富士町,,35.732086,139.561160,,,0,2305,,,
2305_2,,富士町,,35.732260,139.562880,,,0,2305,,,
2307_1,,東伏見団地,,35.732100,139.558290,,,0,2307,,,
2307_2,,東伏見団地,,35.731970,139.559250,,,0,2307,,,
2401_1,,小平合同庁舎前,,35.730114,139.514680,,,0,2401,,,
2401_2,,小平合同庁舎前,,35.729774,139.514770,,,0,2401,,,
2405_1,,花小金井駅,,35.726685,139.513430,,,0,2405,,,
2406_0,,花小金井駅南口,,35.725946,139.512550,,,0,2406,,,
2406_2,,花小金井駅南口,,35.726150,139.512450,,,0,2406,,,
2407_1,,花小金井,,35.724724,139.513280,,,0,2407,,,
2407_2,,花小金井,,35.724964,139.513300,,,0,2407,,,
2409_1,,花小金井南一丁目,,35.722680,139.514470,,,0,2409,,,
2409_2,,花小金井南一丁目,,35.722763,139.514620,,,0,2409,,,
2411_1,,花小金井南二丁目,,35.722538,139.517000,,,0,2411,,,
2411_2,,花小金井南二丁目,,35.722572,139.517870,,,0,2411,,,
2413_1,,水道筋,,35.722030,139.520600,,,0,2413,,,
2413_2,,水道筋,,35.722310,139.520390,,,0,2413,,,
2415_1,,小金井公園北口,,35.719685,139.524100,,,0,2415,,,
2415_2,,小金井公園北口,,35.719790,139.524080,,,0,2415,,,
2417_1,,上向台,,35.718660,139.526700,,,0,2417,,,
2417_2,,上向台,,35.718754,139.526630,,,0,2417,,,
2419_1,,武蔵境自動車教習所前,,35.705770,139.542100,,,0,2419,,,
2419_2,,武蔵境自動車教習所前,,35.705975,139.541980,,,0,2419,,,
2420_1,,武蔵境自動車教習所入口,,35.705760,139.542980,,,0,2420,,,
2421_1,,市民会館,,35.705154,139.543100,,,0,2421,,,
2433_2,,北芝久保,,35.732445,139.524150,,,0,2433,,,
2433_3,,北芝久保,,35.733817,139.524729,,,0,2433,,,
2435_1,,芝久保五丁目,,35.731310,139.526470,,,0,2435,,,
2435_2,,芝久保五丁目,,35.731808,139.525910,,,0,2435,,,
2455_1,,多摩六都科学館,,35.734634,139.522350,,,0,2455,,,
2501_0,,武蔵小金井駅,,35.701376,139.506300,,,0,2501,,,
2501_4,,武蔵小金井駅,,35.701435,139.505720,,,0,2501,,,
2503_1,,本町二丁目,,35.704872,139.507870,,,0,2503,,,
2503_2,,本町二丁目,,35.706510,139.507890,,,0,2503,,,
2505_1,,本町四丁目,,35.708202,139.508040,,,0,2505,,,
2505_2,,本町四丁目,,35.708400,139.507890,,,0,2505,,,
2507_1,,桜町病院前,,35.709960,139.508040,,,0,2507,,,
2507_2,,桜町病院前,,35.710155,139.507870,,,0,2507,,,
2509_1,,小金井橋,,35.711550,139.508060,,,0,2509,,,
2509_2,,小金井橋,,35.712050,139.507930,,,0,2509,,,
2511_1,,江戸東京たてもの園前,,35.712654,139.512040,,,0,2511,,,
2511_2,,江戸東京たてもの園前,,35.712740,139.512830,,,0,2511,,,
2513_1,,新小金井橋,,35.712690,139.515010,,,0,2513,,,
2513_2,,新小金井橋,,35.712772,139.514820,,,0,2513,,,
2515_1,,小金井公園前,,35.712720,139.518840,,,0,2515,,,
2515_2,,小金井公園前,,35.712826,139.518370,,,0,2515,,,
2517_1,,関野橋,,35.712670,139.521220,,,0,2517,,,
2517_2,,関野橋,,35.712740,139.522000,,,0,2517,,,
2519_1,,梶野町,,35.712540,139.526490,,,0,2519,,,
2519_2,,梶野町,,35.712660,139.525680,,,0,2519,,,
2521_1,,市民文化会館入口,,35.712353,139.563950,,,0,2521,,,
2521_2,,市民文化会館入口,,35.712166,139.563980,,,0,2521,,,
2523_1,,保健所前,,35.710506,139.562820,,,0,2523,,,
2523_2,,保健所前,,35.710567,139.562960,,,0,2523,,,
2525_1,,西久保二丁目,,35.708670,139.561740,,,0,2525,,,
2525_2,,西久保二丁目,,35.708874,139.562010,,,0,2525,,,
2527_1,,横河入口,,35.707730,139.561170,,,0,2527,,,
2527_2,,横河入口,,35.707806,139.561370,,,0,2527,,,
2529_1,,武蔵野警察署前,,35.706657,139.560490,,,0,2529,,,
2529_2,,武蔵野警察署前,,35.705536,139.560440,,,0,2529,,,
2529_3,,武蔵野警察署前,,35.705536,139.560550,,,0,2529,,,
2531_0,,三鷹駅,,35.703234,139.560537,,,0,2531,,,
2531_1,,三鷹駅,,35.703163,139.560490,,,0,2531,,,
2531_10,,三鷹駅,,35.703220,139.559900,,,0,2531,,,
2531_11,,三鷹駅,,35.703217,139.559900,,,0,2531,,,
2531_2,,三鷹駅,,35.703167,139.560360,,,0,2531,,,
2531_4,,三鷹駅,,35.703365,139.560320,,,0,2531,,,
2531_5,,三鷹駅,,35.703417,139.560018,,,0,2531,,,
2531_6,,三鷹駅,,35.703526,139.560300,,,0,2531,,,
2533_0,,武蔵境駅,,35.702592,139.543443,,,0,2533,,,
2533_1,,武蔵境駅,,35.702466,139.544048,,,0,2533,,,
2533_2,,武蔵境駅,,35.702530,139.543574,,,0,2533,,,
2533_3,,武蔵境駅,,35.702451,139.543796,,,0,2533,,,
2535_1,,境一丁目,,35.704906,139.546250,,,0,2535,,,
2536_2,,第二小学校,,35.707714,139.543120,,,0,2536,,,
2537_2,,境三丁目,,35.705936,139.545040,,,0,2537,,,
2539_1,,桜橋,,35.709946,139.543760,,,0,2539,,,
2539_2,,桜橋,,35.709763,139.543640,,,0,2539,,,
2540_1,,関前四丁目,,35.713100,139.544000,,,0,2540,,,
2540_2,,関前四丁目,,35.713318,139.543870,,,0,2540,,,
2541_1,,関前一丁目,,35.711693,139.543870,,,0,2541,,,
2541_2,,関前一丁目,,35.711550,139.543700,,,0,2541,,,
2543_1,,東急ストア,,35.704740,139.560400,,,0,2543,,,
2601_1,,保谷駅南口,,35.747757,139.566740,,,0,2601,,,
2601_3,,保谷駅南口,,35.747925,139.566740,,,0,2601,,,
2603_1,,東町三丁目(ひがしちょうさんちょうめ、東町３丁目、東町3丁目),,35.747234,139.564030,,,0,2603,,,
2603_2,,東町三丁目(ひがしちょうさんちょうめ、東町３丁目、東町3丁目),,35.747320,139.564790,,,0,2603,,,
2605_1,,文理台公園,,35.744093,139.560097,,,0,2605,,,
2605_2,,文理台公園,,35.744804,139.561000,,,0,2605,,,
2607_1,,保谷庁舎,,35.742550,139.558560,,,0,2607,,,
2607_2,,保谷庁舎,,35.741756,139.557940,,,0,2607,,,
2619_1,,稲荷神社前,,35.713275,139.560966,,,0,2619,,,
2619_2,,稲荷神社前,,35.713493,139.560030,,,0,2619,,,
2621_1,,東町六丁目,,35.742603,139.565800,,,0,2621,,,
2621_2,,東町六丁目,,35.742560,139.565670,,,0,2621,,,
2623_0,,天神山,,35.738679,139.565948,,,0,2623,,,
2623_2,,天神山,,35.738865,139.565780,,,0,2623,,,
2624_1,,富士町六丁目,,35.731550,139.557340,,,0,2624,,,
2624_2,,富士町六丁目,,35.731438,139.557650,,,0,2624,,,
2625_1,,保谷中学校,,35.733930,139.557140,,,0,2625,,,
2625_2,,保谷中学校,,35.733555,139.557450,,,0,2625,,,
2626_1,,中町六丁目,,35.736217,139.556920,,,0,2626,,,
2626_2,,中町六丁目,,35.737473,139.557040,,,0,2626,,,
2627_1,,中町一丁目,,35.739470,139.556950,,,0,2627,,,
2627_2,,中町一丁目,,35.740383,139.557370,,,0,2627,,,
30001_1,,甲田医院前（すぎ丸）,,35.702843,139.601750,,,0,30001,,,
30003_1,,西荻南四丁目（すぎ丸）,,35.700968,139.603581,,,0,30003,,,
30005_1,,神明通り（すぎ丸）,,35.700297,139.603404,,,0,30005,,,
30005_2,,神明通り（すぎ丸）,,35.698928,139.605284,,,0,30005,,,
30007_1,,西荻南一丁目（すぎ丸）,,35.698082,139.603870,,,0,30007,,,
30007_2,,西荻南一丁目（すぎ丸）,,35.698772,139.604100,,,0,30007,,,
30009_1,,宮前ふれあいの家北（すぎ丸）,,35.696096,139.603078,,,0,30009,,,
30009_2,,宮前ふれあいの家北（すぎ丸）,,35.695903,139.602943,,,0,30009,,,
30011_1,,五日市街道（すぎ丸）,,35.695030,139.603789,,,0,30011,,,
30011_2,,五日市街道（すぎ丸）,,35.695048,139.603533,,,0,30011,,,
30013_1,,宮前四丁目（すぎ丸）,,35.693568,139.604939,,,0,30013,,,
30013_2,,宮前四丁目（すぎ丸）,,35.694059,139.605095,,,0,30013,,,
30015_1,,西高校西門前（すぎ丸）,,35.692144,139.604423,,,0,30015,,,
30015_2,,西高校西門前（すぎ丸）,,35.692041,139.604326,,,0,30015,,,
30017_1,,西高校南（すぎ丸）,,35.690313,139.603612,,,0,30017,,,
30017_2,,西高校南（すぎ丸）,,35.689757,139.604272,,,0,30017,,,
30019_1,,杉並希望の家（すぎ丸）,,35.690730,139.602653,,,0,30019,,,
30021_1,,西宮中学校南（すぎ丸）,,35.690826,139.600800,,,0,30021,,,
30023_1,,久我山駅入口（すぎ丸）,,35.689533,139.600390,,,0,30023,,,
30025_0,,久我山駅（すぎ丸）,,35.688770,139.598806,,,0,30025,,,
30025_1,,久我山駅（すぎ丸）,,35.688633,139.598860,,,0,30025,,,
30027_2,,馬車みち（すぎ丸）,,35.688133,139.601180,,,0,30027,,,
30029_2,,人見街道（すぎ丸）,,35.688107,139.605160,,,0,30029,,,
30031_2,,富士見ヶ丘（すぎ丸）,,35.688090,139.608060,,,0,30031,,,
30033_2,,新田縁通り（すぎ丸）,,35.688972,139.606190,,,0,30033,,,
30037_2,,宮前三郵便局西（すぎ丸）,,35.698093,139.606740,,,0,30037,,,
30039_2,,南荻窪区民農園前（すぎ丸）,,35.699115,139.608188,,,0,30039,,,
30041_2,,西荻南三丁目（すぎ丸）,,35.703598,139.604200,,,0,30041,,,
30043_2,,西荻マイロード入口（すぎ丸）,,35.703957,139.603000,,,0,30043,,,
30045_2,,桃井第三小学校（すぎ丸）,,35.705470,139.602460,,,0,30045,,,
30047_2,,天祖神社前（すぎ丸）,,35.701256,139.608600,,,0,30047,,,
30049_2,,南荻窪三丁目（すぎ丸）,,35.703213,139.608470,,,0,30049,,,
3101_1,,上荻一丁目,,35.706530,139.617420,,,0,3101,,,
3103_1,,上荻二丁目,,35.708800,139.613600,,,0,3103,,,
3103_2,,上荻二丁目,,35.709347,139.612950,,,0,3103,,,
3105_1,,八丁,,35.710175,139.610670,,,0,3105,,,
3105_2,,八丁,,35.710217,139.611040,,,0,3105,,,
3107_1,,荻窪警察署前,,35.711132,139.606780,,,0,3107,,,
3107_2,,荻窪警察署前,,35.711300,139.606980,,,0,3107,,,
3109_1,,日産自動車前,,35.711407,139.604700,,,0,3109,,,
3109_2,,日産自動車前,,35.711597,139.604800,,,0,3109,,,
3110_0,,プロムナード荻窪,,35.712144,139.605550,,,0,3110,,,
3110_1,,プロムナード荻窪,,35.712242,139.605580,,,0,3110,,,
3111_1,,桃井四丁目,,35.712048,139.602780,,,0,3111,,,
3111_2,,桃井四丁目,,35.711887,139.602620,,,0,3111,,,
3111_3,,桃井四丁目,,35.713340,139.602000,,,0,3111,,,
3111_4,,桃井四丁目,,35.712740,139.601960,,,0,3111,,,
3111_5,,桃井四丁目,,35.712242,139.601575,,,0,3111,,,
3113_1,,井草八幡宮,,35.714684,139.598370,,,0,3113,,,
3113_2,,井草八幡宮,,35.714966,139.598430,,,0,3113,,,
3115_1,,八幡宮裏,,35.717194,139.595840,,,0,3115,,,
3115_2,,八幡宮裏,,35.716866,139.596190,,,0,3115,,,
3115_3,,八幡宮裏,,35.716530,139.597210,,,0,3115,,,
3117_1,,善福寺,,35.717594,139.594240,,,0,3117,,,
3117_2,,善福寺,,35.717770,139.594330,,,0,3117,,,
3117_3,,善福寺,,35.716810,139.593870,,,0,3117,,,
3117_4,,善福寺,,35.717130,139.593830,,,0,3117,,,
3119_0,,青梅街道営業所,,35.720073,139.591150,,,0,3119,,,
3119_1,,青梅街道営業所,,35.720100,139.591100,,,0,3119,,,
3119_2,,青梅街道営業所,,35.720264,139.591200,,,0,3119,,,
3119_3,,青梅街道営業所,,35.721035,139.591050,,,0,3119,,,
3121_1,,水道端,,35.721943,139.586880,,,0,3121,,,
3121_2,,水道端,,35.721886,139.587700,,,0,3121,,,
3123_1,,関町二丁目,,35.723087,139.582210,,,0,3123,,,
3123_2,,関町二丁目,,35.723280,139.582290,,,0,3123,,,
3125_1,,東伏見四丁目,,35.722507,139.563140,,,0,3125,,,
3125_2,,東伏見四丁目,,35.722275,139.562700,,,0,3125,,,
3127_1,,柳沢団地,,35.720498,139.555068,,,0,3127,,,
3129_1,,千川小学校前,,35.718200,139.551910,,,0,3129,,,
3131_1,,桃井第四小学校,,35.715670,139.593860,,,0,3131,,,
3131_2,,桃井第四小学校,,35.715946,139.593220,,,0,3131,,,
3131_3,,桃井第四小学校,,35.716305,139.594270,,,0,3131,,,
3131_4,,桃井第四小学校,,35.715946,139.593800,,,0,3131,,,
3133_1,,善福寺公園,,35.715050,139.591480,,,0,3133,,,
3133_2,,善福寺公園,,35.714973,139.591130,,,0,3133,,,
3135_1,,東京女子大北,,35.713370,139.588460,,,0,3135,,,
3135_2,,東京女子大北,,35.713737,139.588900,,,0,3135,,,
3137_1,,立野境,,35.712708,139.587280,,,0,3137,,,
3137_2,,立野境,,35.712765,139.587230,,,0,3137,,,
3139_0,,南善福寺,,35.711781,139.586654,,,0,3139,,,
3139_2,,南善福寺,,35.711933,139.586760,,,0,3139,,,
3201_0,,西荻窪駅,,35.704094,139.600484,,,0,3201,,,
3201_1,,西荻窪駅,,35.704044,139.600220,,,0,3201,,,
3201_10,,西荻窪駅,,35.703810,139.600620,,,0,3201,,,
3201_2,,西荻窪駅,,35.704040,139.600020,,,0,3201,,,
3201_3,,西荻窪駅,,35.704044,139.600500,,,0,3201,,,
3201_4,,西荻窪駅,,35.703990,139.600420,,,0,3201,,,
3201_5,,西荻窪駅,,35.703810,139.600540,,,0,3201,,,
3203_1,,一番街,,35.705086,139.597410,,,0,3203,,,
3205_1,,西荻北四丁目,,35.707317,139.595290,,,0,3205,,,
3205_2,,西荻北四丁目,,35.707787,139.595700,,,0,3205,,,
3207_1,,井荻小学校入口,,35.711197,139.594990,,,0,3207,,,
3207_2,,井荻小学校入口,,35.712128,139.594820,,,0,3207,,,
3209_1,,八幡橋,,35.714104,139.594220,,,0,3209,,,
3209_2,,八幡橋,,35.714485,139.594180,,,0,3209,,,
3211_1,,立野橋,,35.723133,139.591740,,,0,3211,,,
3211_2,,立野橋,,35.723694,139.591420,,,0,3211,,,
3213_0,,上石神井駅,,35.726009,139.591320,,,0,3213,,,
3213_1,,上石神井駅,,35.725980,139.591380,,,0,3213,,,
3213_2,,上石神井駅,,35.726536,139.591130,,,0,3213,,,
3213_3,,上石神井駅,,35.725994,139.591220,,,0,3213,,,
3215_2,,荻窪中学,,35.709724,139.596530,,,0,3215,,,
3217_2,,善福寺郵便局,,35.710796,139.599240,,,0,3217,,,
3219_2,,善福寺一丁目,,35.711320,139.601070,,,0,3219,,,
3221_1,,西荻北五丁目,,35.709267,139.601850,,,0,3221,,,
3221_2,,西荻北五丁目,,35.709442,139.601970,,,0,3221,,,
3223_1,,西荻北三丁目,,35.705757,139.600940,,,0,3223,,,
3223_2,,西荻北三丁目,,35.706160,139.601230,,,0,3223,,,
3225_1,,地蔵坂上,,35.709915,139.595350,,,0,3225,,,
3225_2,,地蔵坂上,,35.709366,139.594910,,,0,3225,,,
3225_3,,地蔵坂上,,35.709000,139.595520,,,0,3225,,,
3301_1,,清水一丁目,,35.711143,139.614670,,,0,3301,,,
3301_2,,清水一丁目,,35.711834,139.614800,,,0,3301,,,
3303_1,,清水二丁目,,35.715630,139.614260,,,0,3303,,,
3303_2,,清水二丁目,,35.714455,139.614600,,,0,3303,,,
3305_1,,清水三丁目,,35.719112,139.614670,,,0,3305,,,
3305_2,,清水三丁目,,35.718323,139.614290,,,0,3305,,,
3305_3,,清水三丁目,,35.719803,139.613970,,,0,3305,,,
3305_4,,清水三丁目,,35.719055,139.613480,,,0,3305,,,
3307_1,,下井草五丁目,,35.721410,139.614060,,,0,3307,,,
3307_2,,下井草五丁目,,35.721320,139.614300,,,0,3307,,,
3308_1,,井荻駅入口,,35.722687,139.614100,,,0,3308,,,
3308_2,,井荻駅入口,,35.723070,139.614360,,,0,3308,,,
3309_0,,井荻駅,,35.723951,139.614321,,,0,3309,,,
3309_2,,井荻駅,,35.723950,139.614440,,,0,3309,,,
3309_4,,井荻駅,,35.723953,139.614300,,,0,3309,,,
3311_1,,井草森公園,,35.726925,139.614240,,,0,3311,,,
3311_2,,井草森公園,,35.727140,139.614610,,,0,3311,,,
3401_1,,西荻北郵便局前,,35.707867,139.593550,,,0,3401,,,
3403_2,,善福寺二丁目,,35.709206,139.593460,,,0,3403,,,
3405_1,,東京女子大前,,35.709106,139.591080,,,0,3405,,,
3405_2,,東京女子大前,,35.709170,139.591570,,,0,3405,,,
3407_1,,武蔵野第三中学校,,35.708893,139.588850,,,0,3407,,,
3407_2,,武蔵野第三中学校,,35.708878,139.587750,,,0,3407,,,
3409_1,,東町二丁目,,35.708440,139.585530,,,0,3409,,,
3409_2,,東町二丁目,,35.708540,139.585800,,,0,3409,,,
3411_1,,東町一丁目,,35.708374,139.583010,,,0,3411,,,
3411_2,,東町一丁目,,35.708410,139.583390,,,0,3411,,,
3413_1,,四軒寺,,35.708790,139.580870,,,0,3413,,,
3413_2,,四軒寺,,35.708725,139.581220,,,0,3413,,,
3415_1,,コピス吉祥寺前,,35.705112,139.579730,,,0,3415,,,
3501_1,,妙正寺池,,35.719234,139.616530,,,0,3501,,,
3501_2,,妙正寺池,,35.719120,139.616060,,,0,3501,,,
3503_1,,中瀬中学校,,35.718826,139.619610,,,0,3503,,,
3503_2,,中瀬中学校,,35.718650,139.620010,,,0,3503,,,
3505_1,,永久橋,,35.717804,139.623110,,,0,3505,,,
3505_2,,永久橋,,35.717910,139.622560,,,0,3505,,,
3507_1,,日向橋,,35.717200,139.625170,,,0,3507,,,
3507_2,,日向橋,,35.717014,139.625400,,,0,3507,,,
3601_1,,上石神井中学校入口,,35.729473,139.591400,,,0,3601,,,
3601_2,,上石神井中学校入口,,35.729060,139.591450,,,0,3601,,,
3603_1,,早稲田高等学院,,35.730520,139.591400,,,0,3603,,,
3603_2,,早稲田高等学院,,35.730686,139.591350,,,0,3603,,,
3605_1,,愛宕橋,,35.732998,139.590330,,,0,3605,,,
3605_2,,愛宕橋,,35.733177,139.590330,,,0,3605,,,
3607_1,,上石神井北小学校,,35.735850,139.589400,,,0,3607,,,
3607_2,,上石神井北小学校,,35.734650,139.589600,,,0,3607,,,
3609_1,,庚申塚,,35.737526,139.588730,,,0,3609,,,
3609_2,,庚申塚,,35.736904,139.589070,,,0,3609,,,
3611_1,,富士街道,,35.739900,139.587940,,,0,3611,,,
3611_2,,富士街道,,35.738550,139.588500,,,0,3611,,,
3613_1,,第五上石神井住宅,,35.742577,139.586940,,,0,3613,,,
3613_2,,第五上石神井住宅,,35.742170,139.587270,,,0,3613,,,
3615_1,,学芸大付属前,,35.745136,139.586210,,,0,3615,,,
3615_2,,学芸大付属前,,35.745680,139.586270,,,0,3615,,,
3619_0,,大泉学園駅南口,,35.749093,139.585745,,,0,3619,,,
3619_2,,大泉学園駅南口,,35.748920,139.586030,,,0,3619,,,
3701_2,,大和通り,,35.700714,139.599800,,,0,3701,,,
3703_1,,松庵二丁目,,35.698431,139.597400,,,0,3703,,,
3703_2,,松庵二丁目,,35.698446,139.597556,,,0,3703,,,
3703_3,,松庵二丁目,,35.698204,139.598600,,,0,3703,,,
3703_4,,松庵二丁目,,35.698963,139.598390,,,0,3703,,,
3705_1,,水道道路東,,35.695220,139.597400,,,0,3705,,,
3707_1,,久我山,,35.692856,139.595830,,,0,3707,,,
3709_1,,久我山四丁目,,35.693752,139.592850,,,0,3709,,,
3711_0,,立教女学院,,35.695135,139.590140,,,0,3711,,,
3711_2,,立教女学院,,35.695170,139.590240,,,0,3711,,,
3713_2,,水道道路西,,35.697624,139.591300,,,0,3713,,,
3715_1,,松庵小学校,,35.699820,139.592300,,,0,3715,,,
3715_2,,松庵小学校,,35.700016,139.592350,,,0,3715,,,
3717_1,,松庵,,35.700436,139.593500,,,0,3717,,,
3717_2,,松庵,,35.700542,139.593490,,,0,3717,,,
3719_1,,松庵稲荷,,35.699463,139.595550,,,0,3719,,,
3719_2,,松庵稲荷,,35.699406,139.595840,,,0,3719,,,
3723_1,,西荻南,,35.702473,139.599900,,,0,3723,,,
3801_1,,今川四丁目,,35.715690,139.602200,,,0,3801,,,
3801_2,,今川四丁目,,35.714897,139.602340,,,0,3801,,,
3803_1,,農芸高校,,35.718678,139.603800,,,0,3803,,,
3803_2,,農芸高校,,35.718647,139.603970,,,0,3803,,,
3805_1,,今川二丁目,,35.719128,139.607620,,,0,3805,,,
3805_2,,今川二丁目,,35.719055,139.607710,,,0,3805,,,
3807_1,,今川一丁目,,35.719116,139.611200,,,0,3807,,,
3807_2,,今川一丁目,,35.719040,139.610410,,,0,3807,,,
3809_1,,今川三丁目,,35.718384,139.602510,,,0,3809,,,
3809_2,,今川三丁目,,35.717663,139.602070,,,0,3809,,,
3809_3,,今川三丁目,,35.718143,139.601610,,,0,3809,,,
4101_1,,新井薬師梅照院前,,35.712770,139.668470,,,0,4101,,,
4101_2,,新井薬師梅照院前,,35.712380,139.668900,,,0,4101,,,
4103_1,,新井薬師口,,35.714916,139.670230,,,0,4103,,,
4103_2,,新井薬師口,,35.714840,139.670320,,,0,4103,,,
4105_1,,新井薬師前駅,,35.715950,139.670730,,,0,4105,,,
4105_2,,新井薬師前駅,,35.716007,139.670840,,,0,4105,,,
4105_3,,新井薬師前駅,,35.715520,139.670990,,,0,4105,,,
4105_4,,新井薬師前駅,,35.715527,139.670850,,,0,4105,,,
4107_1,,上高田中通り,,35.717052,139.672330,,,0,4107,,,
4107_2,,上高田中通り,,35.717518,139.672700,,,0,4107,,,
4109_1,,哲学堂公園入口,,35.721070,139.675600,,,0,4109,,,
4109_2,,哲学堂公園入口,,35.720730,139.675630,,,0,4109,,,
4111_1,,哲学堂,,35.723103,139.675540,,,0,4111,,,
4111_2,,哲学堂,,35.723232,139.675550,,,0,4111,,,
4113_1,,西落合一丁目,,35.723060,139.679730,,,0,4113,,,
4113_2,,西落合一丁目,,35.723370,139.679100,,,0,4113,,,
4115_1,,落合南長崎駅,,35.722680,139.684810,,,0,4115,,,
4115_2,,落合南長崎駅,,35.722538,139.683070,,,0,4115,,,
4116_1,,南長崎三丁目,,35.722904,139.686480,,,0,4116,,,
4117_1,,南長崎二丁目,,35.722775,139.688720,,,0,4117,,,
4117_2,,南長崎二丁目,,35.722786,139.690220,,,0,4117,,,
4119_1,,目白五丁目,,35.722492,139.693540,,,0,4119,,,
4119_2,,目白五丁目,,35.722336,139.693880,,,0,4119,,,
4119_3,,目白五丁目,,35.723293,139.693150,,,0,4119,,,
4119_4,,目白五丁目,,35.723007,139.693310,,,0,4119,,,
4121_1,,椎名町駅南口,,35.724895,139.694550,,,0,4121,,,
4121_2,,椎名町駅南口,,35.725384,139.695270,,,0,4121,,,
4123_1,,椎名町駅北口,,35.727604,139.696300,,,0,4123,,,
4123_2,,椎名町駅北口,,35.727345,139.696520,,,0,4123,,,
4125_1,,池袋車庫,,35.731420,139.698350,,,0,4125,,,
4125_2,,池袋車庫,,35.731495,139.698790,,,0,4125,,,
4127_2,,要町駅,,35.732600,139.699360,,,0,4127,,,
4129_1,,池袋二丁目,,35.732960,139.703540,,,0,4129,,,
4129_2,,池袋二丁目,,35.732803,139.702290,,,0,4129,,,
4131_1,,池袋二又交番,,35.732243,139.705570,,,0,4131,,,
4131_2,,池袋二又交番,,35.731773,139.706600,,,0,4131,,,
4133_0,,池袋駅,,35.730714,139.708863,,,0,4133,,,
4133_2,,池袋駅,,35.731155,139.708760,,,0,4133,,,
4201_1,,北野神社,,35.714631,139.666565,,,0,4201,,,
4201_2,,北野神社,,35.714941,139.666961,,,0,4201,,,
4203_1,,令和小学校,,35.716076,139.668080,,,0,4203,,,
4203_2,,令和小学校,,35.716230,139.668470,,,0,4203,,,
4207_1,,江古田一丁目,,35.723763,139.671750,,,0,4207,,,
4207_2,,江古田一丁目,,35.723885,139.671520,,,0,4207,,,
4209_0,,丸山営業所,,35.723944,139.669924,,,0,4209,,,
4209_1,,丸山営業所,,35.723927,139.669500,,,0,4209,,,
4209_2,,丸山営業所,,35.724022,139.669860,,,0,4209,,,
4211_1,,江古田二丁目,,35.723953,139.666730,,,0,4211,,,
4211_2,,江古田二丁目,,35.723850,139.666550,,,0,4211,,,
4213_1,,江古田三丁目,,35.725914,139.667760,,,0,4213,,,
4213_2,,江古田三丁目,,35.726300,139.668090,,,0,4213,,,
4213_3,,江古田三丁目,,35.726585,139.668440,,,0,4213,,,
4213_4,,江古田三丁目,,35.726600,139.667660,,,0,4213,,,
4215_1,,江古田区民活動センター,,35.729008,139.668580,,,0,4215,,,
4215_2,,江古田区民活動センター,,35.729618,139.668720,,,0,4215,,,
4217_1,,新江古田駅,,35.733560,139.671160,,,0,4217,,,
4217_2,,新江古田駅,,35.732950,139.670840,,,0,4217,,,
4219_0,,江古田駅,,35.736329,139.671901,,,0,4219,,,
4219_1,,江古田駅,,35.736343,139.672350,,,0,4219,,,
4219_2,,江古田駅,,35.736294,139.672210,,,0,4219,,,
4221_1,,武蔵大学,,35.737644,139.668130,,,0,4221,,,
4223_2,,北新井公園,,35.735153,139.668050,,,0,4223,,,
4224_1,,江原町二丁目,,35.732230,139.669920,,,0,4224,,,
4225_1,,江原町一丁目,,35.731068,139.674070,,,0,4225,,,
4225_2,,江原町一丁目,,35.731330,139.673900,,,0,4225,,,
4227_1,,江原中野通り,,35.728687,139.677120,,,0,4227,,,
4227_2,,江原中野通り,,35.729977,139.676820,,,0,4227,,,
4229_1,,芳花園住宅,,35.727116,139.676480,,,0,4229,,,
4229_2,,芳花園住宅,,35.727440,139.676700,,,0,4229,,,
4231_1,,水道タンク前,,35.724648,139.675450,,,0,4231,,,
4231_2,,水道タンク前,,35.724990,139.675610,,,0,4231,,,
4301_1,,大下橋,,35.719025,139.670170,,,0,4301,,,
4301_2,,大下橋,,35.718582,139.670070,,,0,4301,,,
4303_1,,下田橋,,35.720833,139.671300,,,0,4303,,,
4303_2,,下田橋,,35.721584,139.672040,,,0,4303,,,
4304_1,,哲学堂東,,35.723590,139.675740,,,0,4304,,,
4304_2,,哲学堂東,,35.723700,139.676000,,,0,4304,,,
4305_1,,哲学堂下,,35.723010,139.673220,,,0,4305,,,
4305_2,,哲学堂下,,35.723070,139.673500,,,0,4305,,,
4307_1,,蓮華寺下,,35.724451,139.672415,,,0,4307,,,
4307_2,,蓮華寺下,,35.723998,139.672350,,,0,4307,,,
4309_1,,江古田住宅,,35.726837,139.672450,,,0,4309,,,
4309_2,,江古田住宅,,35.726933,139.672670,,,0,4309,,,
4311_1,,東橋,,35.726685,139.670030,,,0,4311,,,
4311_2,,東橋,,35.726746,139.669900,,,0,4311,,,
4313_1,,合同住宅前,,35.726875,139.666030,,,0,4313,,,
4313_2,,合同住宅前,,35.727135,139.665510,,,0,4313,,,
4315_1,,総合東京病院（下徳田橋）,,35.727740,139.663390,,,0,4315,,,
4315_2,,総合東京病院（下徳田橋）,,35.727580,139.664140,,,0,4315,,,
4317_1,,徳田,,35.728947,139.660800,,,0,4317,,,
4317_2,,徳田,,35.729233,139.660600,,,0,4317,,,
4319_1,,豊玉中三丁目,,35.732273,139.654200,,,0,4319,,,
4319_2,,豊玉中三丁目,,35.732360,139.654890,,,0,4319,,,
4321_1,,豊玉小学校,,35.732010,139.650330,,,0,4321,,,
4321_2,,豊玉小学校,,35.732100,139.651660,,,0,4321,,,
4323_1,,南蔵院,,35.732048,139.648210,,,0,4323,,,
4323_2,,南蔵院,,35.732113,139.648040,,,0,4323,,,
4325_1,,中村小学校,,35.732150,139.643690,,,0,4325,,,
4325_2,,中村小学校,,35.732216,139.643280,,,0,4325,,,
4327_1,,中村南二丁目,,35.728775,139.643650,,,0,4327,,,
4329_1,,中村中学,,35.728600,139.645700,,,0,4329,,,
4331_1,,中村南スポーツ交流センター,,35.728382,139.649640,,,0,4331,,,
4333_1,,学田橋,,35.728330,139.651370,,,0,4333,,,
4335_1,,西本村橋,,35.728270,139.653750,,,0,4335,,,
4337_1,,氷川神社,,35.727997,139.656500,,,0,4337,,,
4337_2,,氷川神社,,35.728140,139.656230,,,0,4337,,,
4339_1,,徳田橋,,35.727596,139.659200,,,0,4339,,,
4341_1,,中新井橋,,35.727795,139.661560,,,0,4341,,,
4341_2,,中新井橋,,35.727830,139.661290,,,0,4341,,,
4401_1,,聖母病院,,35.720364,139.694560,,,0,4401,,,
4401_2,,聖母病院,,35.720043,139.694690,,,0,4401,,,
4403_1,,下落合駅,,35.715504,139.694300,,,0,4403,,,
4403_2,,下落合駅,,35.716030,139.694600,,,0,4403,,,
4405_1,,落合中央公園,,35.713844,139.692170,,,0,4405,,,
4405_2,,落合中央公園,,35.713985,139.692280,,,0,4405,,,
4407_1,,東中野駅東口,,35.706890,139.686300,,,0,4407,,,
4409_0,,高田馬場駅,,35.712952,139.704413,,,0,4409,,,
4409_1,,高田馬場駅,,35.712883,139.704820,,,0,4409,,,
4410_1,,高田馬場駅通り,,35.709810,139.703580,,,0,4410,,,
4410_2,,高田馬場駅通り,,35.710520,139.703770,,,0,4410,,,
4411_1,,高田馬場四丁目,,35.708990,139.699510,,,0,4411,,,
4411_2,,高田馬場四丁目,,35.708830,139.698650,,,0,4411,,,
4413_1,,百人町四丁目,,35.708282,139.697770,,,0,4413,,,
4413_2,,百人町四丁目,,35.708110,139.697700,,,0,4413,,,
4415_1,,西戸山公園野球場,,35.707100,139.700100,,,0,4415,,,
4415_2,,西戸山公園野球場,,35.707375,139.699870,,,0,4415,,,
4417_1,,タワーホームズ前,,35.705288,139.700160,,,0,4417,,,
4417_2,,タワーホームズ前,,35.706190,139.699940,,,0,4417,,,
4419_1,,東京山手メディカルセンター,,35.704334,139.698200,,,0,4419,,,
4419_2,,東京山手メディカルセンター,,35.704315,139.699110,,,0,4419,,,
4421_1,,百人町公務員宿舎,,35.704453,139.696720,,,0,4421,,,
4421_2,,百人町公務員宿舎,,35.704520,139.696490,,,0,4421,,,
4423_1,,百人町郵便局,,35.706290,139.696300,,,0,4423,,,
4423_2,,百人町郵便局,,35.706867,139.696000,,,0,4423,,,
4425_1,,東中野本通り,,35.708714,139.687100,,,0,4425,,,
4425_2,,東中野本通り,,35.707912,139.686280,,,0,4425,,,
4427_1,,東中野駅入口,,35.705868,139.685760,,,0,4427,,,
4429_1,,東中野駅大江戸線口,,35.706430,139.683610,,,0,4429,,,
4431_0,,東中野駅西口,,35.706435,139.683328,,,0,4431,,,
4431_1,,東中野駅西口,,35.706330,139.683270,,,0,4431,,,
4433_1,,新宿西口,,35.691003,139.696890,,,0,4433,,,
4501_2,,桜台駅,,35.738140,139.660780,,,0,4501,,,
4503_2,,リサイクルセンター入口,,35.736557,139.660130,,,0,4503,,,
4505_2,,桜台駅通り,,35.735630,139.659550,,,0,4505,,,
4507_2,,豊玉中町,,35.732925,139.659160,,,0,4507,,,
4509_1,,下新街,,35.734787,139.656000,,,0,4509,,,
4511_1,,野方消防署,,35.723576,139.653610,,,0,4511,,,
4511_2,,野方消防署,,35.723656,139.653960,,,0,4511,,,
4511_3,,野方消防署,,35.722744,139.655330,,,0,4511,,,
4511_4,,野方消防署,,35.722878,139.654890,,,0,4511,,,
4511_5,,野方消防署,,35.723217,139.651540,,,0,4511,,,
4511_6,,野方消防署,,35.723335,139.651760,,,0,4511,,,
4513_1,,緑野小学校,,35.722984,139.658340,,,0,4513,,,
4513_2,,緑野小学校,,35.722996,139.658750,,,0,4513,,,
4515_1,,江古田四丁目,,35.723877,139.662310,,,0,4515,,,
4515_2,,江古田四丁目,,35.723764,139.663034,,,0,4515,,,
4519_1,,総合東京病院,,35.727910,139.664610,,,0,4519,,,
4519_2,,総合東京病院,,35.728150,139.664720,,,0,4519,,,
4521_0,,江古田の森,,35.729562,139.666572,,,0,4521,,,
4521_1,,江古田の森,,35.729560,139.666300,,,0,4521,,,
4521_2,,江古田の森,,35.729546,139.666590,,,0,4521,,,
4525_1,,南蔵院通り,,35.730095,139.647450,,,0,4525,,,
4527_1,,豊玉こうしん通り,,35.732697,139.654540,,,0,4527,,,
4527_2,,豊玉こうしん通り,,35.733105,139.654700,,,0,4527,,,
4529_1,,練馬区役所東,,35.735966,139.655090,,,0,4529,,,
50001_1,,大和区民活動センター,,35.713697,139.648722,,,0,50001,,,
50001_2,,大和区民活動センター,,35.713686,139.648660,,,0,50001,,,
50003_1,,若宮幼稚園入口,,35.718228,139.644984,,,0,50003,,,
50004_1,,若宮交番西,,35.716090,139.644058,,,0,50004,,,
50004_2,,若宮交番西,,35.716550,139.643162,,,0,50004,,,
50005_1,,鷺宮区民活動センター分室北,,35.717635,139.638420,,,0,50005,,,
50006_1,,白鷺せせらぎ公園,,35.716586,139.640668,,,0,50006,,,
50010_1,,やまと診療所前,,35.710914,139.649755,,,0,50010,,,
50011_1,,川北橋南,,35.715636,139.647538,,,0,50011,,,
50011_2,,川北橋南,,35.715585,139.647653,,,0,50011,,,
50012_1,,鷺宮地域区民センター分室西,,35.717475,139.638150,,,0,50012,,,
50013_2,,わかさぎ公園,,35.717327,139.640705,,,0,50013,,,
50014_2,,洗心寮跡,,35.717015,139.646954,,,0,50014,,,
50015_5,,高円寺通り(こうえんじとおり),,35.709620,139.650360,,,0,50015,,,
50015_6,,高円寺通り(こうえんじとおり),,35.709560,139.650435,,,0,50015,,,
5101_0,,荻窪駅南口,,35.704178,139.619764,,,0,5101,,,
5101_1,,荻窪駅南口,,35.704235,139.620590,,,0,5101,,,
5101_2,,荻窪駅南口,,35.704210,139.620320,,,0,5101,,,
5101_3,,荻窪駅南口,,35.704205,139.620120,,,0,5101,,,
5101_4,,荻窪駅南口,,35.704205,139.619890,,,0,5101,,,
5103_1,,荻窪電話局,,35.704040,139.622440,,,0,5103,,,
5105_1,,荻窪高校,,35.701954,139.620560,,,0,5105,,,
5107_1,,忍川橋,,35.700596,139.618420,,,0,5107,,,
5109_1,,荻窪四丁目,,35.698406,139.617580,,,0,5109,,,
5109_2,,荻窪四丁目,,35.699120,139.617250,,,0,5109,,,
5109_3,,荻窪四丁目,,35.698776,139.616930,,,0,5109,,,
5111_1,,川南,,35.696900,139.617860,,,0,5111,,,
5111_2,,川南,,35.696945,139.617630,,,0,5111,,,
5113_1,,荻窪二丁目,,35.694782,139.618990,,,0,5113,,,
5113_2,,荻窪二丁目,,35.694866,139.618850,,,0,5113,,,
5115_1,,西田小学校,,35.693560,139.619610,,,0,5115,,,
5115_2,,西田小学校,,35.693592,139.619540,,,0,5115,,,
5117_1,,荻窪一丁目,,35.692593,139.619750,,,0,5117,,,
5117_2,,荻窪一丁目,,35.692430,139.619700,,,0,5117,,,
5119_1,,柳窪,,35.690010,139.619100,,,0,5119,,,
5119_2,,柳窪,,35.690470,139.619320,,,0,5119,,,
5119_3,,柳窪,,35.689743,139.619600,,,0,5119,,,
5119_4,,柳窪,,35.689827,139.619490,,,0,5119,,,
5120_0,,日本年金機構入口,,35.689346,139.616241,,,0,5120,,,
5120_2,,日本年金機構入口,,35.689373,139.616150,,,0,5120,,,
5121_1,,井の頭通り,,35.688385,139.617974,,,0,5121,,,
5121_2,,井の頭通り,,35.687835,139.617512,,,0,5121,,,
5123_1,,高井戸東三丁目,,35.685950,139.616210,,,0,5123,,,
5123_2,,高井戸東三丁目,,35.686108,139.616240,,,0,5123,,,
5125_1,,高井戸駅,,35.683395,139.615740,,,0,5125,,,
5125_2,,高井戸駅,,35.683327,139.615500,,,0,5125,,,
5127_1,,浴風会前,,35.680610,139.614800,,,0,5127,,,
5127_2,,浴風会前,,35.680820,139.614610,,,0,5127,,,
5129_1,,高井戸東二丁目,,35.679478,139.614650,,,0,5129,,,
5129_2,,高井戸東二丁目,,35.679447,139.614400,,,0,5129,,,
5131_1,,中の橋,,35.675655,139.614060,,,0,5131,,,
5131_2,,中の橋,,35.676807,139.614030,,,0,5131,,,
5133_1,,上北沢五丁目,,35.674330,139.613800,,,0,5133,,,
5133_2,,上北沢五丁目,,35.675125,139.613710,,,0,5133,,,
5135_1,,甲州街道,,35.672620,139.613330,,,0,5135,,,
5137_1,,上高井戸一丁目,,35.671936,139.611270,,,0,5137,,,
5139_0,,芦花公園駅,,35.672147,139.608868,,,0,5139,,,
5139_1,,芦花公園駅,,35.671684,139.609160,,,0,5139,,,
5139_2,,芦花公園駅,,35.672333,139.608950,,,0,5139,,,
5141_1,,烏山下宿,,35.671066,139.605260,,,0,5141,,,
5141_2,,烏山下宿,,35.671185,139.605300,,,0,5141,,,
5143_1,,中宿,,35.670242,139.603300,,,0,5143,,,
5143_2,,中宿,,35.670074,139.602280,,,0,5143,,,
5143_3,,中宿,,35.670547,139.602500,,,0,5143,,,
5145_0,,千歳烏山駅,,35.669662,139.600150,,,0,5145,,,
5145_3,,千歳烏山駅,,35.669796,139.601210,,,0,5145,,,
5147_1,,西烏山,,35.668633,139.596880,,,0,5147,,,
5147_2,,西烏山,,35.668823,139.597000,,,0,5147,,,
5149_1,,給田,,35.667385,139.593190,,,0,5149,,,
5149_2,,給田,,35.667526,139.594220,,,0,5149,,,
5151_1,,中給田,,35.669300,139.591630,,,0,5151,,,
5151_2,,中給田,,35.669323,139.591750,,,0,5151,,,
5153_1,,北給田,,35.670886,139.587919,,,0,5153,,,
5153_2,,北給田,,35.671463,139.586790,,,0,5153,,,
5155_1,,給田境,,35.672279,139.584609,,,0,5155,,,
5155_2,,給田境,,35.672497,139.584340,,,0,5155,,,
5157_0,,北野,,35.673278,139.582284,,,0,5157,,,
5157_1,,北野,,35.673418,139.581931,,,0,5157,,,
5157_2,,北野,,35.673714,139.581590,,,0,5157,,,
5177_2,,荻窪橋,,35.700737,139.616880,,,0,5177,,,
5179_2,,東電荻窪支社前,,35.702366,139.616460,,,0,5179,,,
5201_1,,中野三丁目,,35.701893,139.665280,,,0,5201,,,
5201_2,,中野三丁目,,35.702003,139.665200,,,0,5201,,,
5203_1,,中央五丁目,,35.700207,139.661910,,,0,5203,,,
5203_2,,中央五丁目,,35.700256,139.661090,,,0,5203,,,
5205_1,,高円寺南五丁目,,35.700440,139.659438,,,0,5205,,,
5205_2,,高円寺南五丁目,,35.700630,139.658810,,,0,5205,,,
5207_1,,東高円寺駅,,35.697937,139.657320,,,0,5207,,,
5207_2,,東高円寺駅,,35.698143,139.657040,,,0,5207,,,
5209_1,,杉並車庫,,35.697872,139.651210,,,0,5209,,,
5209_2,,杉並車庫,,35.698080,139.652190,,,0,5209,,,
5211_0,,新高円寺駅,,35.697812,139.648705,,,0,5211,,,
5211_1,,新高円寺駅,,35.697727,139.648650,,,0,5211,,,
5211_2,,新高円寺駅,,35.698524,139.649320,,,0,5211,,,
5211_4,,新高円寺駅,,35.698524,139.649370,,,0,5211,,,
5213_1,,大法寺前,,35.696556,139.647830,,,0,5213,,,
5213_2,,大法寺前,,35.696575,139.647550,,,0,5213,,,
5213_4,,大法寺前,,35.696636,139.647690,,,0,5213,,,
5215_1,,松の木,,35.695152,139.643830,,,0,5215,,,
5215_2,,松の木,,35.695297,139.643970,,,0,5215,,,
5215_4,,松の木,,35.695360,139.644090,,,0,5215,,,
5217_1,,成田東,,35.693554,139.640200,,,0,5217,,,
5217_2,,成田東,,35.693650,139.640100,,,0,5217,,,
5219_1,,成田東三丁目,,35.692130,139.637500,,,0,5219,,,
5219_2,,成田東三丁目,,35.692290,139.637710,,,0,5219,,,
5221_1,,善福寺川緑地公園前,,35.691730,139.634030,,,0,5221,,,
5221_2,,善福寺川緑地公園前,,35.691837,139.633880,,,0,5221,,,
5223_1,,杉並第二小学校,,35.691100,139.631450,,,0,5223,,,
5223_2,,杉並第二小学校,,35.690857,139.630370,,,0,5223,,,
5225_1,,豊多摩高校,,35.690662,139.629910,,,0,5225,,,
5227_0,,五日市街道営業所,,35.690667,139.626379,,,0,5227,,,
5227_1,,五日市街道営業所,,35.690685,139.626420,,,0,5227,,,
5227_2,,五日市街道営業所,,35.690697,139.627260,,,0,5227,,,
5227_3,,五日市街道営業所,,35.690690,139.626480,,,0,5227,,,
5229_1,,高井戸境,,35.690414,139.622600,,,0,5229,,,
5229_2,,高井戸境,,35.690544,139.622680,,,0,5229,,,
5231_1,,宮前一丁目,,35.690250,139.615200,,,0,5231,,,
5231_2,,宮前一丁目,,35.690300,139.615310,,,0,5231,,,
5233_1,,高井戸警察署,,35.691160,139.612300,,,0,5233,,,
5233_2,,高井戸警察署,,35.691467,139.611710,,,0,5233,,,
5235_1,,春日神社,,35.692596,139.608890,,,0,5235,,,
5235_2,,春日神社,,35.692524,139.609200,,,0,5235,,,
5237_1,,宮前四丁目,,35.693570,139.606810,,,0,5237,,,
5237_2,,宮前四丁目,,35.693687,139.606750,,,0,5237,,,
5239_0,,宮前三丁目,,35.694492,139.604744,,,0,5239,,,
5239_2,,宮前三丁目,,35.694542,139.604810,,,0,5239,,,
5239_3,,宮前三丁目,,35.694830,139.605180,,,0,5239,,,
5240_1,,宮前ふれあいの家,,35.695558,139.602533,,,0,5240,,,
5241_1,,宮前五丁目,,35.696404,139.600950,,,0,5241,,,
5241_2,,宮前五丁目,,35.696327,139.601240,,,0,5241,,,
5243_1,,南町五丁目,,35.701980,139.590380,,,0,5243,,,
5243_2,,南町五丁目,,35.702267,139.590010,,,0,5243,,,
5245_1,,第三小学校,,35.703050,139.588380,,,0,5245,,,
5245_2,,第三小学校,,35.702860,139.588880,,,0,5245,,,
5247_1,,"東町三丁目(ひがしちょうさんちょうめ,東町３丁目、東町3丁目)",,35.704273,139.585830,,,0,5247,,,
5247_2,,"東町三丁目(ひがしちょうさんちょうめ,東町３丁目、東町3丁目)",,35.704056,139.586410,,,0,5247,,,
5249_1,,本町一丁目,,35.704735,139.584800,,,0,5249,,,
5249_2,,本町一丁目,,35.704826,139.584760,,,0,5249,,,
5301_1,,松渓中学,,35.695404,139.621920,,,0,5301,,,
5301_2,,松渓中学,,35.695163,139.621337,,,0,5301,,,
5303_1,,西田端橋,,35.695404,139.623470,,,0,5303,,,
5303_2,,西田端橋,,35.695286,139.623400,,,0,5303,,,
5304_1,,シャレール荻窪入口,,35.696014,139.625350,,,0,5304,,,
5305_0,,シャレール荻窪,,35.696183,139.626459,,,0,5305,,,
5305_2,,シャレール荻窪,,35.696106,139.626420,,,0,5305,,,
5306_1,,特養ホームおぎくぼ紫苑,,35.697937,139.625400,,,0,5306,,,
5307_2,,荻窪一丁目北,,35.695618,139.625890,,,0,5307,,,
5400_1,,千歳烏山駅,,35.669617,139.600200,,,0,5400,,,
5400_2,,千歳烏山駅,,35.669624,139.599930,,,0,5400,,,
5401_1,,交番前,,35.670303,139.600370,,,0,5401,,,
5403_1,,烏山中学校,,35.671501,139.600236,,,0,5403,,,
5405_1,,烏山北小学校,,35.673580,139.600220,,,0,5405,,,
5407_1,,寺院通一番,,35.675777,139.598740,,,0,5407,,,
5409_1,,寺院通二番,,35.677338,139.597060,,,0,5409,,,
5411_1,,寺院通三番,,35.678120,139.596280,,,0,5411,,,
5413_1,,寺院通四番,,35.679005,139.595250,,,0,5413,,,
5415_1,,寺院通五番,,35.680534,139.593930,,,0,5415,,,
5417_1,,北烏山五丁目,,35.681650,139.593370,,,0,5417,,,
5419_1,,国学院前,,35.682358,139.594450,,,0,5419,,,
5421_0,,久我山病院,,35.681425,139.598160,,,0,5421,,,
5421_1,,久我山病院,,35.681316,139.598140,,,0,5421,,,
5423_1,,烏山都営住宅前,,35.679935,139.598330,,,0,5423,,,
5425_1,,西蓮寺前,,35.678337,139.599230,,,0,5425,,,
5427_1,,烏山北住宅入口,,35.676200,139.600630,,,0,5427,,,
5429_1,,烏山バイパス,,35.673046,139.601360,,,0,5429,,,
5503_2,,高円寺南四丁目,,35.702667,139.649550,,,0,5503,,,
5503_4,,高円寺南四丁目,,35.702667,139.649570,,,0,5503,,,
5505_0,,高円寺駅南口,,35.705209,139.650080,,,0,5505,,,
5505_1,,高円寺駅南口,,35.705082,139.650100,,,0,5505,,,
5505_6,,高円寺駅南口,,35.705080,139.649980,,,0,5505,,,
5601_1,,南荻窪一丁目,,35.698220,139.614870,,,0,5601,,,
5601_2,,南荻窪一丁目,,35.698050,139.614120,,,0,5601,,,
5603_1,,大宮前体育館,,35.696890,139.611400,,,0,5603,,,
5603_2,,大宮前体育館,,35.696655,139.611000,,,0,5603,,,
5604_1,,宮前公園,,35.693867,139.610400,,,0,5604,,,
5604_2,,宮前公園,,35.693870,139.610430,,,0,5604,,,
5605_2,,都営宮前アパート,,35.695812,139.605500,,,0,5605,,,
5607_2,,宮前三郵便局西,,35.698116,139.606750,,,0,5607,,,
5609_2,,南荻窪二丁目,,35.697470,139.608350,,,0,5609,,,
5623_2,,西荻窪駅南口,,35.703003,139.600250,,,0,5623,,,
5798_1,,東中野区民活動センター,,35.709755,139.688230,,,0,5798,,,
5798_2,,東中野区民活動センター,,35.709620,139.687990,,,0,5798,,,
5900_1,,松ノ木二丁目,,35.692295,139.641680,,,0,5900,,,
5900_2,,松ノ木二丁目,,35.692287,139.641600,,,0,5900,,,
5901_1,,松ノ木住宅,,35.688675,139.641660,,,0,5901,,,
5901_2,,松ノ木住宅,,35.688210,139.641590,,,0,5901,,,
5902_1,,松ノ木公園,,35.690975,139.641500,,,0,5902,,,
5902_2,,松ノ木公園,,35.691440,139.641430,,,0,5902,,,
5903_1,,都立和田堀公園,,35.684788,139.642600,,,0,5903,,,
5903_2,,都立和田堀公園,,35.684902,139.642550,,,0,5903,,,
5904_1,,大宮八幡前,,35.682392,139.643190,,,0,5904,,,
5904_2,,大宮八幡前,,35.682930,139.642720,,,0,5904,,,
5905_1,,大宮町,,35.681503,139.642260,,,0,5905,,,
5906_1,,西永福,,35.679420,139.637570,,,0,5906,,,
5907_0,,永福町,,35.676948,139.641936,,,0,5907,,,
5907_1,,永福町,,35.676445,139.643510,,,0,5907,,,
5908_2,,大宮台,,35.679523,139.645800,,,0,5908,,,
5909_2,,大宮八幡入口,,35.682594,139.646915,,,0,5909,,,
5910_1,,福祉事務所,,35.700005,139.649440,,,0,5910,,,
5910_2,,福祉事務所,,35.700615,139.649350,,,0,5910,,,
5910_3,,福祉事務所,,35.700005,139.649410,,,0,5910,,,
5910_4,,福祉事務所,,35.700615,139.649380,,,0,5910,,,
5911_1,,豊玉南住宅,,35.727913,139.653950,,,0,5911,,,
5911_2,,豊玉南住宅,,35.728947,139.654190,,,0,5911,,,
5912_1,,豊玉中三丁目アパート,,35.730770,139.654310,,,0,5912,,,
5912_2,,豊玉中三丁目アパート,,35.730923,139.654430,,,0,5912,,,
5913_1,,方南水道道路,,35.682194,139.645050,,,0,5913,,,
